gps_num,gps_fix,gps_alt,app,SiteName,SiteAddr,s_d0,s_d1,s_h0,area,gps_lat,s_t0,gps_lon,date,device_id,name,time,s_d2,timestamp,c_d0,c_d0_method,hcho,odm,adf_status,fw_ver,s_g1,model
9,1,2,AirBox,08BEAC028604,N/A,11,12,100,taichuang,24.10211965,31.5,120.7249165,2020-09-25,08BEAC028604,TP_Area_1,01:17:42,8,2020-09-25T01:17:42Z,11,SVR/30/10.16,,,,,,
9,1,2,AirBox,08BEAC028614,N/A,6,6,64,taichuang,24.113738,28.86,120.66352,2020-09-25,08BEAC028614,中工-新實習大樓新建工程L,01:21:57,4,2020-09-25T01:21:57Z,6,SVR/30/4.83,,,,,,
9,1,2,AirBox,08BEAC028622,N/A,22,24,65,nantou,23.905,28.61,120.689,2020-09-25,08BEAC028622,佳音英語-南投分校,01:20:44,13,2020-09-25T01:20:44Z,13.98,GAM/30/0.98,,,,,,
9,1,2,AirBox,08BEAC028626,N/A,0,0,100,taichuang,24.09882084,31.11,120.7253515,2020-09-25,08BEAC028626,myPM2.5_26,01:17:24,0,2020-09-25T01:17:24Z,0,SVR/30/10.4,,,,,,
9,1,2,AirBox,08BEAC02862A,N/A,5,5,65,taichuang,24.113453,30.5,120.662486,2020-09-25,08BEAC02862A,中工-新實習大樓新建工程R,01:16:22,3,2020-09-25T01:16:22Z,5,SVR/30/4.81,,,,,,
9,1,2,AirBox,08BEAC02863A,N/A,32,37,74,chiayi_county,23.5578778,27.5,120.4356678,2020-09-25,08BEAC02863A,AI-1001W,01:17:21,20,2020-09-25T01:17:21Z,N/A,N/A,,,,,,
9,1,2,AirBox,08BEAC02863E,N/A,4,5,100,taichuang,24.301565,24.75,120.800889,2020-09-25,08BEAC02863E,富山預拌混凝土廠1,01:17:43,3,2020-09-25T01:17:43Z,4,SVR/30/10.0,,,,,,
9,1,2,AirBox,MO-MetSoc-09,N/A,36,44,72,,22.192,28.11,113.546,2020-09-25,08BEAC028660,澳門培道中學,01:19:32,22,2020-09-25T01:19:32Z,N/A,N/A,,,,,,
9,1,2,AirBox,iTribe振興部落(2020),N/A,4,5,100,pingtung,22.074,27.75,120.826,2020-09-25,08BEAC028664,iTribe長樂部落,01:17:20,2,2020-09-25T01:17:20Z,4,GAM/30/13.45,,,,,,
9,1,2,AirBox,iTribe振興部落(2020),N/A,15,16,84,hualien,23.48,25.5,121.404,2020-09-25,08BEAC028682,iTribe下德武部落,01:19:24,10,2020-09-25T01:19:24Z,9.89,SVR/14/58.13,,,,,,
9,1,2,AirBox,萬華-2(2020),Wanhua,33,37,100,taipei,25.046,24.12,121.508,2020-09-25,08BEAC028690,手動站：萬華站-2（690),01:19:12,23,2020-09-25T01:19:12Z,17.3,SVR/30/0.11,,,,,,
9,1,2,AirBox,08BEAC0286AE,N/A,44,54,73,new_taipei,25.05349005,25.5,121.4392031,2020-09-25,08BEAC0286AE,A05站1月台,01:18:57,27,2020-09-25T01:18:57Z,26.61,GAM/30/4.92,,,,,,
9,1,2,AirBox,三義-1(2020),Sanyi,12,12,92,taoyuan,24.94385652,21.37,121.2488829,2020-09-25,08BEAC0286B2,手動站：三義站-1（6B2）,01:21:31,9,2020-09-25T01:21:31Z,12,SVR/7/4.64,,,,,,
9,1,2,AirBox,台南-1(2020),Tainan,36,43,86,tainan,22.984,29.5,120.202,2020-09-25,08BEAC0286B8,手動站：臺南站-1（6B8),01:21:42,22,2020-09-25T01:21:42Z,19.2,GAM/14/0.15,,,,,,
9,1,2,AirBox,台南-2(2020),Tainan,36,46,73,tainan,22.984,28.36,120.202,2020-09-25,08BEAC0286C8,手動站:臺南站-2（6C8),01:17:55,21,2020-09-25T01:17:55Z,18.33,GAM/14/0.15,,,,,,
9,1,2,AirBox,板橋-2(2020),Banqiao,33,39,86,NA,25.012,26.87,121.458,2020-09-25,08BEAC0286CE,手動站：板橋站-2（6CE),01:22:00,21,2020-09-25T01:22:00Z,18.76,GAM/30/0.15,,,,,,
9,1,2,AirBox,08BEAC0286D2,N/A,14,15,66,changhua,23.876,30,120.529,2020-09-25,08BEAC0286D2,智造迷,01:20:05,10,2020-09-25T01:20:05Z,9.95,GAM/30/16.38,,,,,,
9,1,2,AirBox,08BEAC0286D8,N/A,40,48,77,new_taipei,25.01343248,23.87,121.2142493,2020-09-25,08BEAC0286D8,A18站PAO,01:16:16,26,2020-09-25T01:16:16Z,19.91,SVR/7/6.8,,,,,,
9,1,2,AirBox,忠明-1(2020),Zhongming,7,7,63,taichuang,24.151,28.36,120.641,2020-09-25,08BEAC0286DC,手動站：忠明站-1（6DC),01:18:20,4,2020-09-25T01:18:20Z,7,SVR/30/0.11,,,,,,
9,1,2,AirBox,忠明-2(2020),Zhongming,6,7,100,taichuang,24.151,28,120.641,2020-09-25,08BEAC0286DE,手動站：忠明站-2（6DE),01:21:01,4,2020-09-25T01:21:01Z,6,SVR/30/0.11,,,,,,
9,1,2,AirBox,AirBox-NUS-09,N/A,6,6,74,,1.36,28.25,103.75,2020-09-25,08BEAC0286E6,Bb12in,01:20:43,4,2020-09-25T01:20:43Z,N/A,N/A,,,,,,
9,1,2,AirBox,AirBox-NUS-03,N/A,23,24,100,,1.36,29.5,103.75,2020-09-25,08BEAC0286E8,Bbout,01:19:43,16,2020-09-25T01:19:43Z,N/A,N/A,,,,,,
9,1,2,AirBox,AirBox-NUS-04,N/A,5,6,95,,1.346,29.5,103.935,2020-09-25,08BEAC0286EA,Tampines_indoor,01:21:01,3,2020-09-25T01:21:01Z,N/A,N/A,,,,,,
9,1,2,AirBox,08BEAC0286F4,N/A,11,11,56,tainan,23.11148,31,120.30465,2020-09-25,08BEAC0286F4,都可以,01:18:11,7,2020-09-25T01:18:11Z,11,GAM/14/17.49,,,,,,
9,1,2,AirBox,AirBox-NUS-01,N/A,24,26,81,,1.425932,28.86,103.845028,2020-09-25,08BEAC0286F6,YISHUN_outdoor,01:18:59,16,2020-09-25T01:18:59Z,N/A,N/A,,,,,,
9,1,2,AirBox,AirBox-NUS-02,N/A,22,27,70,,1.425982,29.36,103.845015,2020-09-25,08BEAC0286F8,YISHUN_indoor,01:17:21,13,2020-09-25T01:17:21Z,N/A,N/A,,,,,,
9,1,2,AirBox,08BEAC0286FE,N/A,6,6,100,taichuang,24.27831601,26.25,120.7188932,2020-09-25,08BEAC0286FE,EPGreen,01:16:42,4,2020-09-25T01:16:42Z,6,SVR/30/12.33,,,,,,
9,1,2,AirBox,08BEAC028702,N/A,43,54,66,kaohsiung,22.642467,30.25,120.318947,2020-09-25,08BEAC028702,時代力量高雄黨部,01:18:15,26,2020-09-25T01:18:15Z,29.65,GAM/21/3.35,,,,,,
9,1,2,AirBox,08BEAC028704,N/A,23,24,62,taichuang,24.27581,28.11,120.518631,2020-09-25,08BEAC028704,Kingway,01:18:21,18,2020-09-25T01:18:21Z,13.96,SVR/30/18.53,,,,,,
9,1,2,AirBox,08BEAC028706,N/A,40,51,70,tainan,22.969396,28,120.209418,2020-09-25,08BEAC028706,臺南市南區大忠里-06,01:20:21,24,2020-09-25T01:20:21Z,22.3,GAM/14/1.86,,,,,,
9,1,2,AirBox,08BEAC02870A,N/A,39,48,65,tainan,22.968344,29,120.210558,2020-09-25,08BEAC02870A,臺南市南區大忠里-0A,01:16:13,25,2020-09-25T01:16:13Z,22.42,GAM/14/2.01,,,,,,
9,1,2,AirBox,08BEAC028710,N/A,38,47,64,tainan,22.9719025,29.5,120.2149737,2020-09-25,08BEAC028710,臺南市南區大忠里,01:21:36,23,2020-09-25T01:21:36Z,21.93,GAM/14/1.9,,,,,,
9,1,2,AirBox,08BEAC028712,N/A,47,58,78,new_taipei,25.06618062,24.37,121.3611068,2020-09-25,08BEAC028712,A09站2月台,01:18:15,28,2020-09-25T01:18:15Z,N/A,N/A,,,,,,
9,1,2,AirBox,08BEAC028714,N/A,6,7,90,taichuang,24.251919,25.12,120.666523,2020-09-25,08BEAC028714,瓜瓜樂,01:20:56,5,2020-09-25T01:20:56Z,6,SVR/30/11.41,,,,,,
9,1,2,AirBox,08BEAC028718,N/A,41,49,83,new_taipei,25.001,23.62,121.203,2020-09-25,08BEAC028718,A19站1月台,01:18:20,25,2020-09-25T01:18:20Z,20.08,SVR/7/5.34,,,,,,
9,1,2,AirBox,08BEAC02871A,N/A,43,51,68,new_taipei,25.0620528,25.5,121.4585188,2020-09-25,08BEAC02871A,A03站3月台,01:20:35,28,2020-09-25T01:20:35Z,26.1,SVR/30/5.26,,,,,,
9,1,2,AirBox,08BEAC02871C,N/A,44,54,87,new_taipei,25.03634591,24.25,121.2156238,2020-09-25,08BEAC02871C,A16站1月台,01:16:05,28,2020-09-25T01:16:05Z,20.64,SVR/7/9.34,,,,,,
9,1,2,AirBox,08BEAC02871E,N/A,39,48,67,tainan,22.9703386,29,120.21103,2020-09-25,08BEAC02871E,臺南市南區大忠里,01:16:18,23,2020-09-25T01:16:18Z,22.42,GAM/14/1.83,,,,,,
9,1,2,AirBox,08BEAC028726,N/A,48,60,85,new_taipei,25.153286,23,121.389786,2020-09-25,08BEAC028726,TP01,01:17:55,30,2020-09-25T01:17:55Z,23.09,SVR/14/14.49,,,,,,
9,1,2,AirBox,AirBox-NHRI-02,N/A,38,46,76,miaoli,25.03048026,24.87,121.4614762,2020-09-25,08BEAC02872A,A175,01:16:49,25,2020-09-25T01:16:49Z,22.14,GAM/30/1.96,,,,,,
9,1,2,AirBox,08BEAC028734,N/A,35,41,73,hsinchu_county,24.862411,24.5,120.973595,2020-09-25,08BEAC028734,FK_028734,01:17:30,24,2020-09-25T01:17:30Z,13.36,SVR/30/6.27,,,,,,
9,1,2,AirBox,08BEAC02873A,N/A,6,6,69,taichuang,24.146423,26.75,120.73257,2020-09-25,08BEAC02873A,家有興-勤益科技大學,01:20:17,4,2020-09-25T01:20:17Z,6,SVR/30/9.31,,,,,,
9,1,2,AirBox,08BEAC02874E,N/A,20,21,72,kaohsiung,22.5821576,29.11,120.3637961,2020-09-25,08BEAC02874E,indoor,01:18:52,14,2020-09-25T01:18:52Z,14.51,GAM/21/9.62,,,,,,
9,1,2,AirBox,08BEAC02875A,N/A,46,55,93,pingtung,22.549,28.61,120.545,2020-09-25,08BEAC02875A,CCSH-教學大樓3樓,01:21:46,28,2020-09-25T01:21:46Z,25.12,GAM/14/14.98,,,,,,
9,1,2,AirBox,08BEAC028762,N/A,31,36,73,chiayi_city,23.478611,27,120.455945,2020-09-25,08BEAC028762,Wenchangpark,01:17:41,20,2020-09-25T01:17:41Z,N/A,N/A,,,,,,
9,1,2,AirBox,08BEAC028764,N/A,33,36,66,chiayi_city,23.47724,28.61,120.455811,2020-09-25,08BEAC028764,Temple,01:17:10,21,2020-09-25T01:17:10Z,N/A,N/A,,,,,,
9,1,2,AirBox,08BEAC028766,N/A,46,56,82,pingtung,22.548,29,120.544,2020-09-25,08BEAC028766,CCSH-教科文1樓,01:20:57,29,2020-09-25T01:20:57Z,26.79,GAM/14/15.04,,,,,,
9,1,2,AirBox,08BEAC028768,N/A,37,43,65,new_taipei,23.478874,29,120.453705,2020-09-25,08BEAC028768,109mtes-eastmarket,01:18:39,24,2020-09-25T01:18:39Z,N/A,N/A,,,,,,
9,1,2,AirBox,前金-1(2020),Qianjin,46,57,100,kaohsiung,22.632,29.75,120.287,2020-09-25,08BEAC028770,手動站：前金站-1（770),01:18:56,28,2020-09-25T01:18:56Z,30.95,GAM/21/0.15,,,,,,
9,1,2,AirBox,前金-2(2020),Qianjin,44,55,100,kaohsiung,22.632,30,120.287,2020-09-25,08BEAC028772,手動站：前金站-2（772),01:19:37,27,2020-09-25T01:19:37Z,30.08,GAM/21/0.15,,,,,,
9,1,2,AirBox,iTribe振興部落(2020),N/A,40,49,100,pingtung,22.629,28.86,120.626,2020-09-25,08BEAC028774,iTribe排灣部落,01:16:21,24,2020-09-25T01:16:21Z,20.41,GAM/14/14.98,,,,,,
9,1,2,AirBox,08BEAC028776,N/A,22,24,65,chiayi_county,23.562,29.86,120.475,2020-09-25,08BEAC028776,中正大學圖書館,01:18:24,13,2020-09-25T01:18:24Z,N/A,N/A,,,,,,
9,1,2,AirBox,08BEAC028780,N/A,40,49,100,taipei,25.119,24.12,121.469,2020-09-25,08BEAC028780,關渡自然公園-入口,01:21:05,25,2020-09-25T01:21:05Z,21.71,SVR/30/8.92,,,,,,
9,1,2,AirBox,08BEAC02878E,N/A,3,3,47,taichuang,24.1113428,29.86,120.659393,2020-09-25,08BEAC02878E,AAA2,01:20:43,2,2020-09-25T01:20:43Z,3,SVR/30/4.89,,,,,,
9,1,2,AirBox,08BEAC0287A4,N/A,16,17,75,changhua,24.03887415,27.87,120.3847512,2020-09-25,08BEAC0287A4,AB_SLfarm,01:21:56,10,2020-09-25T01:21:56Z,10.26,SVR/30/16.25,,,,,,
9,1,2,AirBox,08BEAC0287AC,N/A,22,24,64,taichuang,24.1010326,27.5,120.7285679,2020-09-25,08BEAC0287AC,興威混凝土太平廠下風處,01:18:14,14,2020-09-25T01:18:14Z,13.25,SVR/30/10.54,,,,,,
9,1,2,AirBox,08BEAC0287B2,N/A,40,50,80,pingtung,22.5660766419,30.36,120.569772351,2020-09-25,08BEAC0287B2,附近好多垃圾渣喜歡露天燃燒,01:17:54,24,2020-09-25T01:17:54Z,23.58,GAM/14/14.31,,,,,,
9,1,2,AirBox,08BEAC0287B4,N/A,9,9,80,taichuang,24.39605979,29.61,120.6360992,2020-09-25,08BEAC0287B4,環球預拌混凝土烏日廠出入口,01:16:59,6,2020-09-25T01:16:59Z,9,SVR/30/12.53,,,,,,
9,1,2,AirBox,08BEAC0287B6,N/A,8,8,77,taichuang,24.15515067,27.5,120.5821589,2020-09-25,08BEAC0287B6,聯好環保股份有限公司出入口,01:16:40,5,2020-09-25T01:16:40Z,8,SVR/30/5.98,,,,,,
9,1,2,AirBox,08BEAC0287EE,N/A,40,49,73,kaohsiung,22.594663,29.5,120.400583,2020-09-25,08BEAC0287EE,高英工商,01:21:23,25,2020-09-25T01:21:23Z,27.94,GAM/21/12.32,,,,,,
9,1,2,AirBox,屏東-1(2020),Pingtung,50,62,76,taipei,25.03801697,30.86,121.5456786,2020-09-25,08BEAC0287F6,手動站：屏東站-1（7F6）,01:17:51,31,2020-09-25T01:17:51Z,32.72,SVR/30/3.93,,,,,,
9,1,2,AirBox,08BEAC028814,N/A,9,10,100,taichuang,24.277889,26.25,120.674903,2020-09-25,08BEAC028814,麗榮實業有限公司,01:16:37,7,2020-09-25T01:16:37Z,9,SVR/30/14.41,,,,,,
9,1,2,AirBox,08BEAC028816,N/A,5,5,66,taichuang,24.346437,25.37,120.643484,2020-09-25,08BEAC028816,外埔國際壘球場,01:17:21,4,2020-09-25T01:17:21Z,5,SVR/30/12.39,,,,,,
9,1,2,AirBox,08BEAC02881C,N/A,7,8,60,taichuang,24.1065737,28.11,120.6034338,2020-09-25,08BEAC02881C,myPM2.5_1C,01:17:03,4,2020-09-25T01:17:03Z,7,SVR/30/6.33,,,,,,
9,1,2,AirBox,08BEAC02883C,N/A,36,44,60,kaohsiung,22.612555,31.61,120.322122,2020-09-25,08BEAC02883C,Airbox365,01:18:23,22,2020-09-25T01:18:23Z,24.71,GAM/21/4.18,,,,,,
9,1,2,AirBox,08BEAC02883E,N/A,56,69,71,new_taipei,25.002,26.12,121.141,2020-09-25,08BEAC02883E,永興宮,01:17:35,38,2020-09-25T01:17:35Z,12.65,SVR/7/8.37,,,,,,
9,1,2,AirBox,08BEAC028840,N/A,38,45,70,new_taipei,25.002,25.62,121.137,2020-09-25,08BEAC028840,弘誓佛院,01:16:00,25,2020-09-25T01:16:00Z,20.08,SVR/7/8.68,,,,,,
9,1,2,AirBox,08BEAC028844,N/A,5,6,54,tainan,22.972668,30.75,120.208885,2020-09-25,08BEAC028844,臺南市南區大忠里-44,01:21:20,4,2020-09-25T01:21:20Z,5,GAM/14/1.48,,,,,,
9,1,2,AirBox,08BEAC028848,N/A,72,79,66,new_taipei,25.076,27.37,121.169,2020-09-25,08BEAC028848,富文宮,01:19:31,52,2020-09-25T01:19:31Z,12.36,SVR/7/14.12,,,,,,
9,1,2,AirBox,08BEAC02884C,N/A,21,23,60,new_taipei,25.045,27.37,121.532,2020-09-25,08BEAC02884C,光華Air Box,01:19:58,13,2020-09-25T01:19:58Z,14.49,SVR/30/2.43,,,,,,
9,1,2,AirBox,08BEAC02885E,N/A,10,11,74,changhua,24,27.75,120.598,2020-09-25,08BEAC02885E,大葉大學-工學院大樓,01:16:33,8,2020-09-25T01:16:33Z,10,SVR/30/9.28,,,,,,
9,1,2,AirBox,08BEAC028868,N/A,6,6,89,NA,24.2766934,24.75,120.6955657,2020-09-25,08BEAC028868,佳生預拌混凝土神岡廠行車路徑,01:18:39,4,2020-09-25T01:18:39Z,6,SVR/30/13.46,,,,,,
9,1,2,AirBox,08BEAC02886A,N/A,7,8,80,taichuang,24.27659991,25.87,120.6959908,2020-09-25,08BEAC02886A,民峰預拌混凝土大雅廠出入口,01:19:26,5,2020-09-25T01:19:26Z,7,SVR/30/13.44,,,,,,
9,1,2,AirBox,08BEAC02886C,N/A,8,9,82,taichuang,24.15473599,26,120.5826777,2020-09-25,08BEAC02886C,聯好環保股份有限公司行車路徑,01:16:13,6,2020-09-25T01:16:13Z,8,SVR/30/5.93,,,,,,
9,1,2,AirBox,08BEAC02886E,N/A,18,19,75,taichuang,24.20917166,27.25,120.5098966,2020-09-25,08BEAC02886E,東億環保（水）,01:19:29,14,2020-09-25T01:19:29Z,10.17,SVR/30/14.74,,,,,,
9,1,2,AirBox,08BEAC028870,N/A,14,14,71,taichuang,24.1622628,25,120.6084824,2020-09-25,08BEAC028870,國產實業臺中廠行車路徑,01:20:09,10,2020-09-25T01:20:09Z,8.9,SVR/30/3.49,,,,,,
9,1,2,AirBox,08BEAC02887E,N/A,8,10,74,NA,24.10471107,28.36,120.631101,2020-09-25,08BEAC02887E,環球預拌混凝土烏日廠行車路徑,01:17:52,6,2020-09-25T01:17:52Z,8,SVR/30/5.35,,,,,,
9,1,2,AirBox,08BEAC028880,N/A,8,9,91,taichuang,24.21896993,26.62,120.6597032,2020-09-25,08BEAC028880,民峰實業股份有限公司大雅預拌混凝土廠行車路徑,01:18:27,5,2020-09-25T01:18:27Z,8,SVR/30/7.68,,,,,,
9,1,2,AirBox,08BEAC02889C,N/A,46,58,81,new_taipei,25.0241946,23.25,121.2211894,2020-09-25,08BEAC02889C,A17站2月台,01:19:40,30,2020-09-25T01:19:40Z,18.68,SVR/7/8.1,,,,,,
9,1,2,AirBox,08BEAC02889E,N/A,41,51,71,new_taipei,25.033,25.37,121.422,2020-09-25,08BEAC02889E,A06站PAO,01:15:59,27,2020-09-25T01:15:59Z,24.7,GAM/30/4.34,,,,,,
9,1,2,AirBox,08BEAC0288A0,N/A,45,55,72,new_taipei,25.05373326,24.87,121.4396466,2020-09-25,08BEAC0288A0,A05站PAO,01:09:23,28,2020-09-25T01:09:23Z,25.92,GAM/30/4.93,,,,,,
9,1,2,AirBox,08BEAC0288A2,N/A,43,53,87,new_taipei,25.024204,23.37,121.221109,2020-09-25,08BEAC0288A2,A17站PAO,01:21:20,28,2020-09-25T01:21:20Z,20.02,SVR/7/8.1,,,,,,
9,1,2,AirBox,08BEAC0288A4,N/A,39,47,66,new_taipei,25.03330422,26.5,121.422625,2020-09-25,08BEAC0288A4,A06站2月台,01:16:03,26,2020-09-25T01:16:03Z,24.01,GAM/30/4.3,,,,,,
9,1,2,AirBox,08BEAC0288A6,N/A,50,62,86,new_taipei,25.06,22.37,121.37,2020-09-25,08BEAC0288A6,A08站PAO,01:16:07,31,2020-09-25T01:16:07Z,N/A,N/A,,,,,,
9,1,2,AirBox,08BEAC0288A8,N/A,44,55,100,new_taipei,25.03669297,22.87,121.2158502,2020-09-25,08BEAC0288A8,A16站PAO,01:17:13,28,2020-09-25T01:17:13Z,19.34,SVR/7/9.38,,,,,,
9,1,2,AirBox,08BEAC0288AC,N/A,15,18,80,changhua,24.29445833,24.5,120.6267983,2020-09-25,08BEAC0288AC,陸誠預拌混凝土,01:16:07,10,2020-09-25T01:16:07Z,8.27,SVR/30/15.91,,,,,,
9,1,2,AirBox,08BEAC0288AE,N/A,43,52,90,new_taipei,25.0137186,23.75,121.2142854,2020-09-25,08BEAC0288AE,A18站2月台,01:18:28,27,2020-09-25T01:18:28Z,20.38,SVR/7/6.83,,,,,,
9,1,2,AirBox,08BEAC0288B0,N/A,46,60,82,new_taipei,25.06135746,24.87,121.4598319,2020-09-25,08BEAC0288B0,A03站PAO,01:19:30,29,2020-09-25T01:19:30Z,26.05,SVR/30/5.11,,,,,,
9,1,2,AirBox,08BEAC0288B2,N/A,38,45,78,new_taipei,25.05399,24.5,121.483509,2020-09-25,08BEAC0288B2,A02站月台層,01:20:48,26,2020-09-25T01:20:48Z,20.33,SVR/30/2.59,,,,,,
9,1,2,AirBox,08BEAC0288B6,N/A,40,49,89,new_taipei,25.056,23.75,121.21,2020-09-25,08BEAC0288B6,A15站PAO,01:21:16,26,2020-09-25T01:21:16Z,19.8,SVR/7/11.47,,,,,,
9,1,2,AirBox,08BEAC0288B8,N/A,39,50,76,new_taipei,25.08068586,26.25,121.2845566,2020-09-25,08BEAC0288B8,A10站2月台,01:21:22,26,2020-09-25T01:21:22Z,N/A,N/A,,,,,,
9,1,2,AirBox,iTribe振興部落(2020),N/A,18,19,83,NA,23.97,26,121.098,2020-09-25,08BEAC0288BC,iTribe松林部落,01:20:06,11,2020-09-25T01:20:06Z,11.79,GAM/30/42.45,,,,,,
9,1,2,AirBox,08BEAC0288BE,N/A,40,52,80,new_taipei,25.002427,24.37,121.2028373,2020-09-25,08BEAC0288BE,A19站PAO,01:21:40,27,2020-09-25T01:21:40Z,20.36,SVR/7/5.5,,,,,,
9,1,2,AirBox,08BEAC0288C0,N/A,41,49,90,new_taipei,25.054,22.75,121.482,2020-09-25,08BEAC0288C0,A02站PAO,01:20:50,26,2020-09-25T01:20:50Z,20.72,SVR/30/2.73,,,,,,
9,1,2,AirBox,08BEAC0288C2,N/A,39,47,85,new_taipei,24.98048954,23.5,121.2162134,2020-09-25,08BEAC0288C2,A20站PAO,01:20:00,25,2020-09-25T01:20:00Z,19.04,SVR/7/3.3,,,,,,
9,1,2,AirBox,08BEAC0288C4,N/A,35,41,80,new_taipei,25.0864907,24.75,121.2663736,2020-09-25,08BEAC0288C4,A11站PAO,01:16:35,23,2020-09-25T01:16:35Z,N/A,N/A,,,,,,
9,1,2,AirBox,iTribe振興部落(2020),N/A,30,32,86,nantou,23.821,25.5,120.94,2020-09-25,08BEAC0288C8,iTribe潭南部落,01:19:12,17,2020-09-25T01:19:12Z,18.43,GAM/30/27.88,,,,,,
9,1,2,AirBox,iTribe振興部落(2020),N/A,3,3,82,NA,22.359,29.5,120.879,2020-09-25,08BEAC0288CA, iTribe加羅板部落,01:20:07,1,2020-09-25T01:20:07Z,3,GAM/30/45.54,,,,,,
9,1,2,AirBox,iTribe振興部落(2020),N/A,21,23,75,nantou,23.695,27.5,120.857,2020-09-25,08BEAC0288CC,iTribe明德部落,01:19:19,14,2020-09-25T01:19:19Z,13.5,GAM/30/29.9,,,,,,
9,1,2,AirBox,iTribe振興部落(2020),N/A,19,20,74,nantou,24.072,27.37,120.982,2020-09-25,08BEAC0288CE,iTribe眉原部落,01:18:43,14,2020-09-25T01:18:43Z,12.38,GAM/30/34.97,,,,,,
9,1,2,AirBox,iTribe振興部落(2020),N/A,2,2,71,taitung,23.042,28.25,121.195,2020-09-25,08BEAC0288D0,iTribe振興部落,01:20:58,1,2020-09-25T01:20:58Z,2,RFR/21/32.24,,,,,,
9,1,2,AirBox,iTribe振興部落(2020),N/A,3,3,91,taitung,22.381,24.62,120.857,2020-09-25,08BEAC0288D2,iTribe新化部落,01:21:01,2,2020-09-25T01:21:01Z,3,GAM/30/47.55,,,,,,
9,1,2,AirBox,08BEAC0288D4,N/A,25,27,56,changhua,24.06775794,28.75,120.5383809,2020-09-25,08BEAC0288D4,彰化南瑤宮,01:18:13,17,2020-09-25T01:18:13Z,13.87,SVR/30/0.42,,,,,,
9,1,2,AirBox,08BEAC0288D6,N/A,140,143,70,new_taipei,24.98369499,25.5,121.2503149,2020-09-25,08BEAC0288D6,紫竹林,01:19:36,101,2020-09-25T01:19:36Z,N/A,N/A,,,,,,
9,1,2,AirBox,08BEAC0288D8,N/A,35,40,69,new_taipei,25.02238331,26,121.2787801,2020-09-25,08BEAC0288D8,泓德佛堂,01:19:18,23,2020-09-25T01:19:18Z,N/A,N/A,,,,,,
9,1,2,AirBox,08BEAC0288DE,N/A,76,81,71,new_taipei,24.907,25.75,121.142,2020-09-25,08BEAC0288DE,錫福宮,01:18:14,53,2020-09-25T01:18:14Z,12.49,SVR/7/8.08,,,,,,
9,1,2,AirBox,MO-MetSoc-02,N/A,31,36,78,,22.159,29.75,113.551,2020-09-25,08BEAC0288E6,School_of_the_Nations,01:19:45,18,2020-09-25T01:19:45Z,N/A,N/A,,,,,,
9,1,2,AirBox,08BEAC0288EC,N/A,9,11,58,changhua,24.076,28.25,120.542,2020-09-25,08BEAC0288EC,彰化慶安宮,01:21:26,6,2020-09-25T01:21:26Z,9,SVR/30/1.11,,,,,,
9,1,2,AirBox,08BEAC0288EE,N/A,9,10,59,changhua,24.077,28.86,120.538,2020-09-25,08BEAC0288EE,彰化聖王廟,01:20:17,6,2020-09-25T01:20:17Z,9,SVR/30/1.29,,,,,,
9,1,2,AirBox,08BEAC0288F4,N/A,46,57,65,changhua,24.07861469,29.25,120.5412828,2020-09-25,08BEAC0288F4,彰化開化寺,01:21:48,32,2020-09-25T01:21:48Z,28.08,SVR/30/1.4,,,,,,
9,1,2,AirBox,MO-MetSoc-03,N/A,25,28,77,,22.327,31.75,114.175,2020-09-25,08BEAC0288FA,KTSPS_PM25,01:18:02,15,2020-09-25T01:18:02Z,N/A,N/A,,,,,,
9,1,2,AirBox,08BEAC028908,N/A,9,10,77,changhua,24,28.36,120.598,2020-09-25,08BEAC028908,大葉大學-設計學院,01:21:31,6,2020-09-25T01:21:31Z,9,SVR/30/9.28,,,,,,
9,1,2,AirBox,iTribe振興部落(2020),N/A,14,14,70,miaoli,24.372,26.62,120.968,2020-09-25,08BEAC02890E,iTribe大安部落,01:18:43,9,2020-09-25T01:18:43Z,9.15,SVR/30/21.2,,,,,,
9,1,2,AirBox,iTribe振興部落(2020),N/A,2,2,100,hsinchu_county,24.702,23.62,121.213,2020-09-25,08BEAC028910,iTribe新竹義興部落,01:13:34,2,2020-09-25T01:13:34Z,2,GAM/21/13.25,,,,,,
9,1,2,AirBox,iTribe振興部落(2020),N/A,13,14,75,taichuang,24.326,25.25,120.92,2020-09-25,08BEAC028912,iTribe達觀部落,01:19:04,9,2020-09-25T01:19:04Z,8.37,SVR/30/17.5,,,,,,
9,1,2,AirBox,iTribe振興部落(2020),N/A,17,18,94,NA,24.816,24.37,121.383,2020-09-25,08BEAC028914,iTribe優霞雲部落,01:16:12,12,2020-09-25T01:16:12Z,N/A,N/A,,,,,,
9,1,2,AirBox,iTribe振興部落(2020),N/A,8,8,77,taichuang,24.27,27.37,120.89,2020-09-25,08BEAC028916,iTribe三叉坑部落,01:18:41,6,2020-09-25T01:18:41Z,8,SVR/30/18.28,,,,,,
9,1,2,AirBox,iTribe振興部落(2020),N/A,16,17,72,kaohsiung,23.273,25.75,120.825,2020-09-25,08BEAC028918,iTribe梅山部落,01:17:43,10,2020-09-25T01:17:43Z,N/A,N/A,,,,,,
9,1,2,AirBox,08BEAC028920,N/A,70,78,78,new_taipei,25,24,121.331,2020-09-25,08BEAC028920,明倫三聖宫,01:18:00,48,2020-09-25T01:18:00Z,N/A,N/A,,,,,,
9,1,2,AirBox,08BEAC028922,N/A,80,82,63,new_taipei,24.918,27.62,121.281,2020-09-25,08BEAC028922,寶德堂,01:20:02,63,2020-09-25T01:20:02Z,12.56,SVR/7/8.68,,,,,,
9,1,2,AirBox,08BEAC028926,N/A,51,60,81,new_taipei,24.91289858,24.25,121.3193674,2020-09-25,08BEAC028926,妙法寺,01:17:17,40,2020-09-25T01:17:17Z,N/A,N/A,,,,,,
9,1,2,AirBox,08BEAC028928,N/A,41,48,73,new_taipei,25.01,25.12,121.322,2020-09-25,08BEAC028928,宏善寺,01:18:55,27,2020-09-25T01:18:55Z,N/A,N/A,,,,,,
9,1,2,AirBox,08BEAC02892A,N/A,54,66,71,new_taipei,25.015,26,121.222,2020-09-25,08BEAC02892A,青昇宫,01:19:36,35,2020-09-25T01:19:36Z,13.83,SVR/7/7.13,,,,,,
9,1,2,AirBox,08BEAC02892C,N/A,45,52,67,new_taipei,24.9945842,25.75,121.4908612,2020-09-25,08BEAC02892C,裕宫,01:19:58,29,2020-09-25T01:19:58Z,26.97,GAM/30/3.81,,,,,,
9,1,2,AirBox,08BEAC02892E,N/A,57,72,75,new_taipei,25.093,26.62,121.223,2020-09-25,08BEAC02892E,保安宮,01:16:09,43,2020-09-25T01:16:09Z,N/A,N/A,,,,,,
9,1,2,AirBox,08BEAC028930,N/A,75,84,72,new_taipei,25.09116308,25.37,121.2679028,2020-09-25,08BEAC028930,誠聖宮,01:21:33,52,2020-09-25T01:21:33Z,N/A,N/A,,,,,,
9,1,2,AirBox,08BEAC02893E,N/A,66,74,73,new_taipei,25.006,27,121.097,2020-09-25,08BEAC02893E,應天宮,01:16:38,47,2020-09-25T01:16:38Z,11.86,SVR/7/12.29,,,,,,
9,1,2,AirBox,08BEAC02895E,N/A,8,9,74,NA,24.2972517,26.37,120.6279247,2020-09-25,08BEAC02895E,泰田2,01:19:32,5,2020-09-25T01:19:32Z,8,SVR/30/16.21,,,,,,
9,1,2,AirBox,iTribe振興部落(2020),N/A,32,36,69,kaohsiung,22.907,28.36,120.681,2020-09-25,08BEAC02899E,iTribe萬山部落,01:18:56,22,2020-09-25T01:18:56Z,25.82,GAM/7/15.58,,,,,,
9,1,2,AirBox,iTribe振興部落(2020),N/A,1,1,100,hsinchu_county,24.68,21.25,121.25,2020-09-25,08BEAC0289A6,iTribe那羅四部落,01:16:34,0,2020-09-25T01:16:34Z,1,GAM/21/17.62,,,,,,
9,1,2,AirBox,iTribe振興部落(2020),N/A,9,9,84,yilan,24.655,25.75,121.579,2020-09-25,08BEAC0289A8,iTribe松羅部落,01:19:31,6,2020-09-25T01:19:31Z,9,GAM/7/19.79,,,,,,
9,1,2,AirBox,iTribe振興部落(2020),N/A,17,18,100,taoyuan,24.778,22.25,121.325,2020-09-25,08BEAC0289AA,iTribe嘎色鬧部落,01:16:25,11,2020-09-25T01:16:25Z,10.84,SVR/7/22.97,,,,,,
9,1,2,AirBox,iTribe振興部落(2020),N/A,16,17,82,taoyuan,24.804,23.12,121.346,2020-09-25,08BEAC0289AE,iTribe溪口台部落,01:21:34,11,2020-09-25T01:21:34Z,N/A,N/A,,,,,,
9,1,2,AirBox,iTribe振興部落(2020),N/A,8,8,92,hsinchu_county,24.734,24.12,121.258,2020-09-25,08BEAC0289B0,iTribe上水田部落,01:16:02,6,2020-09-25T01:16:02Z,8,GAM/21/17.09,,,,,,
9,1,2,AirBox,08BEAC0289FA,N/A,47,58,87,keelung,25.14497251,23.75,121.7385472,2020-09-25,08BEAC0289FA,流籠頭-中華路5巷10號,01:17:25,31,2020-09-25T01:17:25Z,16.82,RFR/7/2.8,,,,,,
9,1,2,AirBox,08BEAC028A04,N/A,21,23,71,yunlin,23.567,28.36,120.304,2020-09-25,08BEAC028A04,北港中山路,01:16:35,15,2020-09-25T01:16:35Z,15.23,SVR/30/12.5,,,,,,
9,1,2,AirBox,iTribe振興部落(2020),N/A,4,4,100,taitung,22.309,28.11,120.887,2020-09-25,08BEAC028A0A,iTribe魯加卡斯部落,01:19:16,2,2020-09-25T01:19:16Z,4,GAM/30/40.31,,,,,,
9,1,2,AirBox,08BEAC028A0C,N/A,12,13,100,taichuang,24.237,25.87,120.478,2020-09-25,08BEAC028A0C,安順工專二,01:16:11,8,2020-09-25T01:16:11Z,12,SVR/30/19.04,,,,,,
9,1,2,AirBox,08BEAC028A12,N/A,15,16,62,chiayi_city,23.484,29.61,120.449,2020-09-25,08BEAC028A12,永慶不動產嘉義林森店,01:17:01,10,2020-09-25T01:17:01Z,N/A,N/A,,,,,,
9,1,2,AirBox,08BEAC028A14,N/A,0,1,80,nantou,24.056,27,120.911,2020-09-25,08BEAC028A14,南投縣北港國小,01:20:35,0,2020-09-25T01:20:35Z,0,GAM/30/27.93,,,,,,
9,1,2,AirBox,08BEAC028A16,N/A,29,32,61,new_taipei,25.021,27.5,121.46,2020-09-25,08BEAC028A16,ThoseWhoLoveFreshAirHsinFu,01:18:36,19,2020-09-25T01:18:36Z,17.49,GAM/30/0.9,,,,,,
9,1,2,AirBox,iTribe振興部落(2020),N/A,5,5,100,taitung,22.937,24.87,121.142,2020-09-25,08BEAC028A18,iTribe山嶺榴部落,01:17:50,3,2020-09-25T01:17:50Z,5,RFR/21/20.25,,,,,,
9,1,2,AirBox,08BEAC028A1E,N/A,13,13,63,taichuang,24.223935,24.75,120.47248,2020-09-25,08BEAC028A1E,華村,01:18:52,9,2020-09-25T01:18:52Z,9.67,SVR/30/18.87,,,,,,
9,1,2,AirBox,08BEAC028A20,N/A,28,30,67,taipei,24.82111774,27.25,121.1030122,2020-09-25,08BEAC028A20,雲夢山丘2,01:16:12,19,2020-09-25T01:16:12Z,16.42,GAM/21/9.02,,,,,,
9,1,2,AirBox,08BEAC028A22,N/A,38,49,76,hsinchu_county,24.866,23.75,120.979,2020-09-25,08BEAC028A22,誠正中學,01:17:49,26,2020-09-25T01:17:49Z,13.2,SVR/30/6.71,,,,,,
9,1,2,AirBox,MO-MetSoc-08,N/A,32,37,71,,22.1566314,26.62,113.5541102,2020-09-25,08BEAC028A24,華寶平台,01:19:57,19,2020-09-25T01:19:57Z,N/A,N/A,,,,,,
9,1,2,AirBox,08BEAC028A2C,N/A,16,17,66,taichuang,24.257627,28,120.513537,2020-09-25,08BEAC028A2C,宏華36碼頭,01:16:03,11,2020-09-25T01:16:03Z,10.27,SVR/30/17.47,,,,,,
9,1,2,AirBox,08BEAC028A2E,N/A,6,6,69,taichuang,24.1808604,26.12,120.6614683,2020-09-25,08BEAC028A2E,水湳日式1南,01:16:08,4,2020-09-25T01:16:08Z,6,SVR/30/3.82,,,,,,
9,1,2,AirBox,MO-MetSoc-07,N/A,30,32,66,,22.1560934,25.75,113.554547,2020-09-25,08BEAC028A30,華寶平台3,01:21:27,18,2020-09-25T01:21:27Z,N/A,N/A,,,,,,
9,1,2,AirBox,08BEAC028A32,N/A,6,7,64,taichuang,24.1810925,26.62,120.6581648,2020-09-25,08BEAC028A32,水湳日式3南,01:21:05,4,2020-09-25T01:21:05Z,6,SVR/30/3.67,,,,,,
9,1,2,AirBox,08BEAC028A36,N/A,6,7,61,taichuang,24.180772,28.36,120.660271,2020-09-25,08BEAC028A36,水湳日式2北,01:21:15,4,2020-09-25T01:21:15Z,6,SVR/30/3.75,,,,,,
9,1,2,AirBox,08BEAC028A3A,N/A,6,7,69,taichuang,24.1807461,26.5,120.6596747,2020-09-25,08BEAC028A3A,水湳日式2南,01:20:59,4,2020-09-25T01:20:59Z,6,SVR/30/3.72,,,,,,
9,1,2,AirBox,08BEAC028A3C,N/A,5,6,59,taichuang,24.1808706,27.5,120.6615054,2020-09-25,08BEAC028A3C,水湳日式1北,01:22:01,4,2020-09-25T01:22:01Z,5,SVR/30/3.83,,,,,,
9,1,2,AirBox,iTribe振興部落(2020),N/A,5,5,100,yilan,24.33,27,121.74,2020-09-25,08BEAC028A40,iTribe德卡倫部落,01:18:15,3,2020-09-25T01:18:15Z,5,SVR/14/42.37,,,,,,
9,1,2,AirBox,iTribe振興部落(2020),N/A,14,15,84,yilan,24.612,24.62,121.525,2020-09-25,08BEAC028A42,iTribe梵梵部落,01:19:16,8,2020-09-25T01:19:16Z,9.87,GAM/7/26.97,,,,,,
9,1,2,AirBox,iTribe振興部落(2020),N/A,11,12,93,taichuang,24.335,25.37,120.936,2020-09-25,08BEAC028A46,iTribe桃山部落,01:18:28,8,2020-09-25T01:18:28Z,11,SVR/30/18.71,,,,,,
9,1,2,AirBox,iTribe振興部落(2020),N/A,12,13,100,miaoli,24.577,24.75,120.941,2020-09-25,08BEAC028A48,iTribe百壽部落,01:21:31,8,2020-09-25T01:21:31Z,12,GAM/21/12.31,,,,,,
9,1,2,AirBox,iTribe振興部落(2020),N/A,23,26,71,kaohsiung,23.158,28.61,120.765,2020-09-25,08BEAC028A4A,iTribe桃源部落,01:19:05,17,2020-09-25T01:19:05Z,17.72,GAM/7/38.75,,,,,,
9,1,2,AirBox,朴子-1(2020),Puzi,18,19,77,taipei,25.04170237,28.25,121.5440922,2020-09-25,08BEAC028A4C,手動站：朴子站-1（A4C）,01:17:27,13,2020-09-25T01:17:27Z,10.19,SVR/30/3.68,,,,,,
9,1,2,AirBox,板橋-1(2020),Banqiao,30,32,100,NA,25.012,25.62,121.458,2020-09-25,08BEAC028A4E,手動站：板橋站-1（A4E),01:18:28,21,2020-09-25T01:18:28Z,17,GAM/30/0.15,,,,,,
9,1,2,AirBox,萬華-1(2020),Wanhua,38,45,79,taipei,25.046,24.37,121.507,2020-09-25,08BEAC028A52,手動站：萬華站-1（A52),01:17:37,25,2020-09-25T01:17:37Z,20.14,SVR/30/0.15,,,,,,
9,1,2,AirBox,斗六-1(2020),Douliu,27,30,100,taipei,25.04170237,28.86,121.5440922,2020-09-25,08BEAC028A54,手動站：斗六站-1（A54）,01:16:00,17,2020-09-25T01:16:00Z,16,SVR/30/3.68,,,,,,
9,1,2,AirBox,斗六-2(2020),Douliu,24,29,92,taipei,25.04170237,29.86,121.5440922,2020-09-25,08BEAC028A56,手動站：斗六站-2（A56）,01:16:01,15,2020-09-25T01:16:01Z,13.34,SVR/30/3.68,,,,,,
9,1,2,AirBox,iTribe振興部落(2020),N/A,21,23,100,kaohsiung,23.171,27,120.775,2020-09-25,08BEAC028A58,iTribe勤和部落,01:19:40,14,2020-09-25T01:19:40Z,5.89,GAM/7/40.52,,,,,,
9,1,2,AirBox,08BEAC028A5C,N/A,9,10,68,taichuang,24.206,29.86,120.653,2020-09-25,08BEAC028A5C,總茂環保1,01:18:14,7,2020-09-25T01:18:14Z,9,SVR/30/6.13,,,,,,
9,1,2,AirBox,南投-2(2020),Nantou,22,24,93,yilan,25.04170237,28.86,121.5440922,2020-09-25,08BEAC028A5E,手動站：南投站-2（A5E）,01:21:39,14,2020-09-25T01:21:39Z,12.12,SVR/30/3.68,,,,,,
9,1,2,AirBox,南投-1(2020),Nantou,20,22,72,yilan,25.04170237,32.36,121.5440922,2020-09-25,08BEAC028A60,手動站：南投站-1（A60）,01:18:49,12,2020-09-25T01:18:49Z,11.76,SVR/30/3.68,,,,,,
9,1,2,AirBox,朴子-2(2020),Puzi,22,24,83,taipei,25.04170237,28.25,121.5440922,2020-09-25,08BEAC028A62,手動站：朴子站-2（A62）,01:18:28,13,2020-09-25T01:18:28Z,11.59,SVR/30/3.68,,,,,,
9,1,2,AirBox,基隆-2(2020),Keelung,50,62,100,yilan,25.0513092,22,121.5442497,2020-09-25,08BEAC028A68,手動站：基隆站-2（A68）,01:20:43,31,2020-09-25T01:20:43Z,27.69,SVR/30/3.68,,,,,,
9,1,2,AirBox,陽明-1(2020),Yangming,0,0,100,yilan,25.051,17.37,121.544,2020-09-25,08BEAC028A6C,手動站：陽明站-1（A6C）,01:16:45,0,2020-09-25T01:16:45Z,0,SVR/30/3.65,,,,,,
9,1,2,AirBox,陽明-2(2020),Yangming,51,64,100,yilan,25.0513097,17.62,121.5443192,2020-09-25,08BEAC028A6E,手動站：陽明站-2（A6E）,01:18:04,30,2020-09-25T01:18:04Z,25.59,SVR/30/3.69,,,,,,
9,1,2,AirBox,士林-1(2020),Shilin,46,57,100,yilan,25.10589099,24.12,121.5145209,2020-09-25,08BEAC028A70,手動站：士林站-1（70),01:16:07,29,2020-09-25T01:16:07Z,17.08,SVR/7/0.11,,,,,,
9,1,2,AirBox,士林-2(2020),Shilin,44,53,100,yilan,25.10587217,24.87,121.5145017,2020-09-25,08BEAC028A72, 手動站：士林站-2（72),01:20:27,27,2020-09-25T01:20:27Z,17.71,SVR/7/0.11,,,,,,
9,1,2,AirBox,基隆-1(2020),Keelung,49,62,100,yilan,25.0513208,22.37,121.5442646,2020-09-25,08BEAC028A82,手動站：基隆站-1（A82）,01:18:57,31,2020-09-25T01:18:57Z,27.16,SVR/30/3.68,,,,,,
9,1,2,AirBox,08BEAC028A96,N/A,35,40,63,taoyuan,24.991,26.25,121.307,2020-09-25,08BEAC028A96,南門市場文化街,01:19:45,24,2020-09-25T01:19:45Z,N/A,N/A,,,,,,
9,1,2,AirBox,08BEAC028A98,N/A,31,37,72,tainan,22.973,28.11,120.225,2020-09-25,08BEAC028A98,Chongming14st,01:20:10,19,2020-09-25T01:20:10Z,17.29,GAM/14/2.62,,,,,,
9,1,2,AirBox,08BEAC028A9A,N/A,33,38,76,taipei,24.99,25.25,121.552,2020-09-25,08BEAC028A9A,Fushan,01:18:34,22,2020-09-25T01:18:34Z,17.63,SVR/30/7.73,,,,,,
9,1,2,AirBox,08BEAC028A9E,N/A,44,54,79,new_taipei,25.107,24,121.843,2020-09-25,08BEAC028A9E,九份國小後走廊,01:20:03,28,2020-09-25T01:20:03Z,16.79,RFR/7/8.71,,,,,,
9,1,2,AirBox,08BEAC028AA0,N/A,36,42,100,new_taipei,25.107,22.25,121.843,2020-09-25,08BEAC028AA0,九份國小戶外,01:17:55,23,2020-09-25T01:17:55Z,11.56,RFR/7/8.71,,,,,,
9,1,2,AirBox,08BEAC028AA2,N/A,58,69,73,new_taipei,25.107,24.12,121.843,2020-09-25,08BEAC028AA2,九份國小前走廊,01:20:30,38,2020-09-25T01:20:30Z,16.86,RFR/7/8.71,,,,,,
9,1,2,AirBox,08BEAC028AA4,N/A,44,56,100,pingtung,22.66725369,29,120.4599262,2020-09-25,08BEAC028AA4,admim,01:20:54,27,2020-09-25T01:20:54Z,23.48,GAM/14/2.95,,,,,,
9,1,2,AirBox,iTribe振興部落(2020),N/A,12,13,84,hualien,23.25,24.87,121.273,2020-09-25,08BEAC028AA6,iTribe古楓部落,01:16:17,8,2020-09-25T01:16:17Z,12,RFR/21/56.46,,,,,,
9,1,2,AirBox,08BEAC028AAC,N/A,14,14,99,taichuang,24.172676,25.25,120.88191,2020-09-25,08BEAC028AAC,萬中砂石1,01:18:49,9,2020-09-25T01:18:49Z,8.12,SVR/30/24.55,,,,,,
9,1,2,AirBox,08BEAC028AB0,N/A,12,13,66,taichuang,24.182,26.87,120.545,2020-09-25,08BEAC028AB0,台中市龍井區竹坑里環保志工小隊,01:17:16,8,2020-09-25T01:17:16Z,12,SVR/30/10.29,,,,,,
9,1,2,AirBox,08BEAC028AB6,N/A,8,9,63,taichuang,24.167935,28.11,120.645636,2020-09-25,08BEAC028AB6,台中市西屯區上德里環保志工小隊,01:19:05,6,2020-09-25T01:19:05Z,8,SVR/30/1.83,,,,,,
9,1,2,AirBox,08BEAC028AB8,N/A,13,13,65,taichuang,24.20132,26.87,120.520422,2020-09-25,08BEAC028AB8,台中市龍井區龍津里環保志工小隊,01:20:08,10,2020-09-25T01:20:08Z,9.28,SVR/30/13.4,,,,,,
9,1,2,AirBox,08BEAC028ABA,N/A,11,12,65,taichuang,24.156642,26.62,120.538629,2020-09-25,08BEAC028ABA,台中市大肚區日光郡環保志工小隊,01:14:47,8,2020-09-25T01:14:47Z,11,SVR/30/10.08,,,,,,
9,1,2,AirBox,08BEAC028AC8,N/A,15,18,65,taichuang,24.36573,26.5,120.619477,2020-09-25,08BEAC028AC8,台中市大甲區德化里環保志工小隊,01:17:51,9,2020-09-25T01:17:51Z,9.98,SVR/30/14.26,,,,,,
9,1,2,AirBox,08BEAC028ADA,N/A,12,12,100,taichuang,24.27659991,29,120.6959908,2020-09-25,08BEAC028ADA,良全預拌混凝土出入口,01:17:16,9,2020-09-25T01:17:16Z,12,SVR/30/13.44,,,,,,
9,1,2,AirBox,08BEAC028ADC,N/A,8,9,77,taipei,24.27659991,29.25,120.6959908,2020-09-25,08BEAC028ADC,良全預拌混凝土行車路徑,01:21:42,5,2020-09-25T01:21:42Z,8,SVR/30/13.44,,,,,,
9,1,2,AirBox,08BEAC028AEE,N/A,11,12,65,taichuang,24.205719,27,120.502292,2020-09-25,08BEAC028AEE,台中市龍井區麗水里環保志工小隊,01:17:45,8,2020-09-25T01:17:45Z,11,SVR/30/15.29,,,,,,
9,1,2,AirBox,08BEAC028AFA,N/A,12,12,71,taichuang,24.273398,25.75,120.548291,2020-09-25,08BEAC028AFA,台中市清水區中社里環保志工小隊,01:18:21,9,2020-09-25T01:18:21Z,12,SVR/30/16.45,,,,,,
9,1,2,AirBox,08BEAC028B14,N/A,5,6,67,taichuang,24.2176946,25.37,120.5840129,2020-09-25,08BEAC028B14,弘光科技大學毓麟館,01:20:54,3,2020-09-25T01:20:54Z,5,SVR/30/9.32,,,,,,
9,1,2,AirBox,08BEAC028B16,N/A,6,7,53,taichuang,24.216752,26.75,120.5812437,2020-09-25,08BEAC028B16,弘光科技大學行政大樓,01:21:35,5,2020-09-25T01:21:35Z,6,SVR/30/9.41,,,,,,
9,1,2,AirBox,08BEAC028B18,N/A,12,14,69,taichuang,24.0680743,26.62,120.7148467,2020-09-25,08BEAC028B18,朝陽科技大學教學大樓T1-601,01:19:05,9,2020-09-25T01:19:05Z,12,SVR/30/11.97,,,,,,
9,1,2,AirBox,08BEAC028B1A,N/A,11,12,62,taichuang,24.0687342,28.36,120.713133,2020-09-25,08BEAC028B1A,朝陽科技大學管理大樓T2-115,01:16:14,8,2020-09-25T01:16:14Z,11,SVR/30/11.8,,,,,,
9,1,2,AirBox,08BEAC028B1C,N/A,11,12,67,taichuang,24.0685897,27.5,120.71292,2020-09-25,08BEAC028B1C,朝陽科技大學管理大樓T2-107,01:15:55,8,2020-09-25T01:15:55Z,11,SVR/30/11.8,,,,,,
9,1,2,AirBox,08BEAC028B22,N/A,44,55,100,new_taipei,24.98022345,23,121.2163307,2020-09-25,08BEAC028B22,A20站1月台,01:17:12,29,2020-09-25T01:17:12Z,19.45,SVR/7/3.27,,,,,,
9,1,2,AirBox,08BEAC028B24,N/A,37,48,59,kaohsiung,22.637302,26,120.3419472,2020-09-25,08BEAC028B24,pm2.5,01:17:12,23,2020-09-25T01:17:12Z,25.51,GAM/21/5.56,,,,,,
9,1,2,AirBox,08BEAC028B26,N/A,5,6,57,taichuang,24.14125174,28.36,120.6762414,2020-09-25,08BEAC028B26,臺中市食品藥物安全處,01:17:18,4,2020-09-25T01:17:18Z,5,SVR/30/3.77,,,,,,
9,1,2,AirBox,08BEAC028B2A,N/A,10,10,68,taichuang,24.0685235,28.25,120.7129843,2020-09-25,08BEAC028B2A,朝陽科技大學管理大樓T2-407,01:19:57,7,2020-09-25T01:19:57Z,10,SVR/30/11.81,,,,,,
9,1,2,AirBox,08BEAC028B2C,N/A,42,50,88,new_taipei,25.05625397,24.25,121.2104908,2020-09-25,08BEAC028B2C,A15站2月台,01:17:12,26,2020-09-25T01:17:12Z,20.87,SVR/7/11.5,,,,,,
9,1,2,AirBox,08BEAC028B2E,N/A,37,45,75,new_taipei,25.08611374,25.12,121.2666515,2020-09-25,08BEAC028B2E,A11站3月台,01:19:39,24,2020-09-25T01:19:39Z,N/A,N/A,,,,,,
9,1,2,AirBox,08BEAC028B30,N/A,43,51,73,new_taipei,25.059,25.37,121.446,2020-09-25,08BEAC028B30,A04站1月台,01:21:10,27,2020-09-25T01:21:10Z,26.2,GAM/30/5.28,,,,,,
9,1,2,AirBox,08BEAC028B32,N/A,40,50,78,new_taipei,25.06024561,23.62,121.3698173,2020-09-25,08BEAC028B32,A08站3月台,01:19:08,24,2020-09-25T01:19:08Z,N/A,N/A,,,,,,
9,1,2,AirBox,08BEAC028B34,N/A,41,52,77,new_taipei,25.06547439,23.62,121.361771,2020-09-25,08BEAC028B34,A09站PAO,01:18:55,27,2020-09-25T01:18:55Z,N/A,N/A,,,,,,
9,1,2,AirBox,08BEAC028B36,N/A,13,14,70,taichuang,24.0681926,27.12,120.7143361,2020-09-25,08BEAC028B36,朝陽科技大學教學大樓T1-607,01:18:25,9,2020-09-25T01:18:25Z,8.69,SVR/30/11.93,,,,,,
9,1,2,AirBox,08BEAC028B38,N/A,45,57,79,new_taipei,25.05951215,24.75,121.446114,2020-09-25,08BEAC028B38,A04站PAO,01:21:05,29,2020-09-25T01:21:05Z,25.69,GAM/30/5.33,,,,,,
9,1,2,AirBox,08BEAC028B3A,N/A,13,14,58,taichuang,24.167147,29.11,120.670099,2020-09-25,08BEAC028B3A,北區長青里環保志工小隊,01:19:19,10,2020-09-25T01:19:19Z,9.93,SVR/30/3.4,,,,,,
9,1,2,AirBox,08BEAC028B3E,N/A,10,11,63,taichuang,24.157812,27.37,120.69742,2020-09-25,08BEAC028B3E,北區建德里環保志工小隊,01:17:05,6,2020-09-25T01:17:05Z,10,SVR/30/5.76,,,,,,
9,1,2,AirBox,08BEAC028B46,N/A,4,5,57,taichuang,24.18255,29.5,120.695133,2020-09-25,08BEAC028B46,北屯區松安里環保志工小隊,01:21:38,3,2020-09-25T01:21:38Z,4,SVR/30/6.46,,,,,,
9,1,2,AirBox,08BEAC028B48,N/A,19,22,59,taichuang,24.150462,29.11,120.678596,2020-09-25,08BEAC028B48,北區大湖里環保志工小隊,01:19:45,13,2020-09-25T01:19:45Z,12.26,SVR/30/3.82,,,,,,
9,1,2,AirBox,08BEAC028B4A,N/A,6,7,63,taichuang,24.168,27,120.678,2020-09-25,08BEAC028B4A,北區梅川里環保志工小隊,01:16:49,4,2020-09-25T01:16:49Z,6,SVR/30/4.15,,,,,,
9,1,2,AirBox,08BEAC028B4C,N/A,8,8,66,NA,24.152213,27,120.67534,2020-09-25,08BEAC028B4C,北區文莊里環保志工小隊,01:16:48,5,2020-09-25T01:16:48Z,8,SVR/30/3.48,,,,,,
9,1,2,AirBox,08BEAC028B4E,N/A,5,6,65,taichuang,24.172111,26.75,120.677099,2020-09-25,08BEAC028B4E,北區賴興里環保志工小隊,01:20:08,3,2020-09-25T01:20:08Z,5,SVR/30/4.29,,,,,,
9,1,2,AirBox,08BEAC028B50,N/A,5,6,64,taichuang,24.164766,26.62,120.68144,2020-09-25,08BEAC028B50,北區賴福里環保志工小隊,01:16:47,3,2020-09-25T01:16:47Z,5,SVR/30/4.34,,,,,,
9,1,2,AirBox,08BEAC028B52,N/A,5,5,57,taichuang,24.152085,30.5,120.683049,2020-09-25,08BEAC028B52,北區錦平里環保志工小隊,01:18:02,3,2020-09-25T01:18:02Z,5,SVR/30/4.27,,,,,,
9,1,2,AirBox,08BEAC028B56,N/A,6,7,62,taichuang,24.12892219,28.75,120.6818698,2020-09-25,08BEAC028B56,南區城隍里環保志工隊,01:17:20,4,2020-09-25T01:17:20Z,6,SVR/30/4.88,,,,,,
9,1,2,AirBox,08BEAC028B58,N/A,6,7,59,taichuang,24.154023,29.61,120.688113,2020-09-25,08BEAC028B58,北區樂英里環保志工小隊,01:20:52,4,2020-09-25T01:20:52Z,6,SVR/30/4.79,,,,,,
9,1,2,AirBox,08BEAC028B5A,N/A,7,7,65,taichuang,24.13648662,27.87,120.7038052,2020-09-25,08BEAC028B5A,東信里環保志工小隊,01:19:19,4,2020-09-25T01:19:19Z,7,SVR/30/6.6,,,,,,
9,1,2,AirBox,08BEAC028B5C,N/A,6,7,70,taichuang,24.181,25.87,120.659,2020-09-25,08BEAC028B5C,水湳日式3北,01:21:47,4,2020-09-25T01:21:47Z,6,SVR/30/3.71,,,,,,
9,1,2,AirBox,08BEAC028B5E,N/A,9,10,70,taichuang,24.07,27,120.713,2020-09-25,08BEAC028B5E,朝陽科技大學人文科技大樓北側,01:20:18,6,2020-09-25T01:20:18Z,9,SVR/30/11.68,,,,,,
9,1,2,AirBox,08BEAC028B60,N/A,7,7,69,taichuang,24.217673,25.75,120.5818513,2020-09-25,08BEAC028B60,弘光科技大學食品科技大樓,01:16:30,4,2020-09-25T01:16:30Z,7,SVR/30/9.45,,,,,,
9,1,2,AirBox,08BEAC028B62,N/A,12,15,61,taichuang,24.15053317,28.5,120.6967192,2020-09-25,08BEAC028B62,東區合作里環保志工小隊,01:16:15,7,2020-09-25T01:16:15Z,12,SVR/30/5.66,,,,,,
9,1,2,AirBox,08BEAC028B64,N/A,11,11,59,taichuang,24.1079052,29.11,120.6571881,2020-09-25,08BEAC028B64,南區樹義里環保志工隊,01:18:39,8,2020-09-25T01:18:39Z,11,SVR/30/5.17,,,,,,
9,1,2,AirBox,08BEAC028B68,N/A,9,10,62,tainan,23.111896,30,120.30358,2020-09-25,08BEAC028B68,幸福園,01:19:40,6,2020-09-25T01:19:40Z,9,GAM/14/17.46,,,,,,
9,1,2,AirBox,08BEAC028B6A,N/A,16,17,63,taichuang,24.0879022,28.36,120.7327224,2020-09-25,08BEAC028B6A,大里區健民里環保志工隊,01:18:08,12,2020-09-25T01:18:08Z,10.59,SVR/30/11.72,,,,,,
9,1,2,AirBox,08BEAC028B6C,N/A,6,6,66,taichuang,24.2164692,26.87,120.5841234,2020-09-25,08BEAC028B6C,弘光科技大學智慧科技大樓,01:17:49,4,2020-09-25T01:17:49Z,6,SVR/30/9.2,,,,,,
9,1,2,AirBox,08BEAC028B70,N/A,5,5,60,taichuang,24.1287431,28.25,120.65736,2020-09-25,08BEAC028B70,南區崇倫里環保志工隊,01:16:30,4,2020-09-25T01:16:30Z,5,SVR/30/3.07,,,,,,
9,1,2,AirBox,08BEAC028B72,N/A,5,6,57,taichuang,24.164,31.25,120.722,2020-09-25,08BEAC028B72,珍珠的家,01:18:25,4,2020-09-25T01:18:25Z,5,SVR/30/8.33,,,,,,
9,1,2,AirBox,08BEAC028B82,N/A,6,7,58,taichuang,24.144955,30.36,120.686825,2020-09-25,08BEAC028B82,瑞助營造-尚武社會宅,01:18:55,4,2020-09-25T01:18:55Z,6,SVR/30/4.72,,,,,,
9,1,2,AirBox,08BEAC028B86,N/A,8,8,100,taichuang,24.267317,26.25,120.752271,2020-09-25,08BEAC028B86,泛亞一西西守衛室,01:20:16,5,2020-09-25T01:20:16Z,8,SVR/30/12.88,,,,,,
9,1,2,AirBox,08BEAC028B8A,N/A,21,22,62,taipei,25.024992,25.12,121.526768,2020-09-25,08BEAC028B8A,NTNU_GEO_921,01:18:35,15,2020-09-25T01:18:35Z,14.33,SVR/30/3.09,,,,,,
9,1,2,AirBox,08BEAC028B8C,N/A,10,11,59,taichuang,24.141145,29.11,120.695412,2020-09-25,08BEAC028B8C,堃成-建成路地下道,01:21:19,8,2020-09-25T01:21:19Z,10,SVR/30/5.65,,,,,,
9,1,2,AirBox,08BEAC028B90,N/A,6,7,57,NA,24.166888,29.11,120.711134,2020-09-25,08BEAC028B90,臺中市游泳訓練中心場館新建工程,01:19:16,4,2020-09-25T01:19:16Z,6,SVR/30/7.31,,,,,,
9,1,2,AirBox,08BEAC028B9C,N/A,25,27,100,taichuang,24.205525,27.25,120.624934,2020-09-25,08BEAC028B9C,合生大門,01:16:24,19,2020-09-25T01:16:24Z,13.6,SVR/30/6.17,,,,,,
9,1,2,AirBox,08BEAC028BA2,N/A,8,9,100,taichuang,24.205488,25.75,120.62491,2020-09-25,08BEAC028BA2,合生,01:20:56,6,2020-09-25T01:20:56Z,8,SVR/30/6.17,,,,,,
9,1,2,AirBox,08BEAC028BA8,N/A,5,6,72,taichuang,24.24860666,26.25,120.7135533,2020-09-25,08BEAC028BA8,臺中市政府衛生局01,01:21:43,3,2020-09-25T01:21:43Z,5,SVR/30/13.02,,,,,,
9,1,2,AirBox,08BEAC028BD4,N/A,7,8,79,taichuang,24.2976076,25.25,120.6280827,2020-09-25,08BEAC028BD4,泰田1,01:18:56,5,2020-09-25T01:18:56Z,7,SVR/30/16.24,,,,,,
9,1,2,AirBox,08BEAC028C0A,N/A,6,7,63,taichuang,24.056757,36.36,120.628674,2020-09-25,08BEAC028C0A,SYS01,01:21:56,4,2020-09-25T01:21:56Z,6,SVR/30/8.86,,,,,,
9,1,2,AirBox,08BEAC028C0E,N/A,15,15,48,taipei,25.049,20.62,121.61,2020-09-25,08BEAC028C0E,bb116,01:21:39,10,2020-09-25T01:21:39Z,16.27,SVR/30/10.28,,,,,,
9,1,2,AirBox,iTribe振興部落(2020),N/A,0,0,94,pingtung,22.709,29.86,120.648,2020-09-25,08BEAC028C1A,iTribe北葉部落,01:20:47,0,2020-09-25T01:20:47Z,0,GAM/14/16.9,,,,,,
9,1,2,AirBox,08BEAC028C32,N/A,8,8,66,changhua,24.054,27.5,120.576,2020-09-25,08BEAC028C32,changhua03_airbox,01:20:20,5,2020-09-25T01:20:20Z,8,SVR/30/3.7,,,,,,
9,1,2,AirBox,08BEAC028C38,N/A,25,28,63,taichuang,24.155365,28,120.681153,2020-09-25,08BEAC028C38,北區五常里環保志工小隊,01:21:45,17,2020-09-25T01:21:45Z,14.92,SVR/30/4.09,,,,,,
9,1,2,AirBox,08BEAC028C3C,N/A,13,15,69,taichuang,24.2697319,25.37,120.802929,2020-09-25,08BEAC028C3C,臺中市私立幼欣幼兒園,01:17:32,7,2020-09-25T01:17:32Z,8.78,SVR/30/13.36,,,,,,
9,1,2,AirBox,08BEAC028C3E,N/A,16,17,52,taipei,25.067,22.12,121.578,2020-09-25,08BEAC028C3E,中興保全科技展示館,01:16:03,11,2020-09-25T01:16:03Z,15.3,SVR/30/7.39,,,,,,
9,1,2,AirBox,08BEAC028C44,N/A,5,6,70,taichuang,24.218458,24.75,120.793449,2020-09-25,08BEAC028C44,新社區永源里馬力埔環保志工小隊,01:16:34,4,2020-09-25T01:16:34Z,5,SVR/30/17.14,,,,,,
9,1,2,AirBox,08BEAC028C48,N/A,12,12,73,taichuang,24.2348538,24.5,120.8053494,2020-09-25,08BEAC028C48,臺中市私立愛苗幼兒園,01:19:40,8,2020-09-25T01:19:40Z,12,SVR/30/17.13,,,,,,
9,1,2,AirBox,08BEAC028C4A,N/A,7,7,62,taichuang,24.178382,29,120.696698,2020-09-25,08BEAC028C4A,北屯區平興里環保志工小隊,01:19:09,5,2020-09-25T01:19:09Z,7,SVR/30/6.37,,,,,,
9,1,2,AirBox,08BEAC028C4C,N/A,8,8,65,taichuang,24.2412251,25.75,120.7174333,2020-09-25,08BEAC028C4C,臺中市立圖書館豐原分館,01:19:25,5,2020-09-25T01:19:25Z,8,SVR/30/12.59,,,,,,
9,1,2,AirBox,08BEAC028C50,N/A,6,6,54,taichuang,24.120169,27.62,120.6699076,2020-09-25,08BEAC028C50,臺中市立圖書館南區分館,01:19:27,4,2020-09-25T01:19:27Z,6,SVR/30/4.6,,,,,,
9,1,2,AirBox,08BEAC028C56,N/A,12,13,70,taichuang,24.21818,25.87,120.838397,2020-09-25,08BEAC028C56,東勢區上城里環保志工小隊,01:21:28,9,2020-09-25T01:21:28Z,12,SVR/30/20.02,,,,,,
9,1,2,AirBox,08BEAC028C58,N/A,7,7,70,taichuang,24.255,25.5,120.721,2020-09-25,08BEAC028C58,豐原區豐榮里環保志工小隊,01:20:46,4,2020-09-25T01:20:46Z,7,SVR/30/14.04,,,,,,
9,1,2,AirBox,08BEAC028C5A,N/A,6,7,68,taichuang,24.257706,25.37,120.826022,2020-09-25,08BEAC028C5A,東勢區北興里環保志工小隊,01:16:16,5,2020-09-25T01:16:16Z,6,SVR/30/15.5,,,,,,
9,1,2,AirBox,08BEAC028C5C,N/A,7,7,71,taichuang,24.252205,25.62,120.834506,2020-09-25,08BEAC028C5C,東勢區泰昌里環保志工小隊,01:20:52,4,2020-09-25T01:20:52Z,7,SVR/30/16.43,,,,,,
9,1,2,AirBox,08BEAC028C5E,N/A,7,7,61,taichuang,24.258039,27.62,120.724706,2020-09-25,08BEAC028C5E,豐原區豐原里環保志工小隊,01:17:25,5,2020-09-25T01:17:25Z,7,SVR/30/14.32,,,,,,
9,1,2,AirBox,08BEAC028C62,N/A,4,5,67,taichuang,24.260839,25.62,120.743977,2020-09-25,08BEAC028C62,豐原區南田里環保志工小隊,01:19:12,3,2020-09-25T01:19:12Z,4,SVR/30/13.67,,,,,,
9,1,2,AirBox,08BEAC028C64,N/A,7,8,59,taichuang,24.263373,28.5,120.742425,2020-09-25,08BEAC028C64,豐原區翁子里環保志工小隊,01:17:40,6,2020-09-25T01:17:40Z,7,SVR/30/13.41,,,,,,
9,1,2,AirBox,08BEAC028C66,N/A,10,11,68,taichuang,24.258263,26.5,120.723342,2020-09-25,08BEAC028C66,豐原區北湳里環保志工小隊,01:20:19,7,2020-09-25T01:20:19Z,10,SVR/30/14.33,,,,,,
9,1,2,AirBox,08BEAC028C68,N/A,11,11,58,taichuang,24.253503,28.5,120.830846,2020-09-25,08BEAC028C68,東勢區上新里環保志工小隊,01:18:16,8,2020-09-25T01:18:16Z,11,SVR/30/16.14,,,,,,
9,1,2,AirBox,08BEAC028C7A,N/A,7,7,50,kaohsiung,22.73355,28.61,120.285265,2020-09-25,08BEAC028C7A,NUKAIR_1,01:16:44,5,2020-09-25T01:16:44Z,7,GAM/21/11.18,,,,,,
9,1,2,AirBox,08BEAC028C84,N/A,4,4,53,taichuang,24.221436,27.12,120.724389,2020-09-25,08BEAC028C84,我是714選我,01:16:04,3,2020-09-25T01:16:04Z,4,SVR/30/11.45,,,,,,
9,1,2,AirBox,08BEAC028C90,N/A,27,29,70,NA,24.437,24.75,118.32,2020-09-25,08BEAC028C90,大同之家育幼組,01:18:54,18,2020-09-25T01:18:54Z,15.25,GAM/7/0.98,,,,,,
9,1,2,AirBox,08BEAC028C92,N/A,27,29,100,NA,24.43423166,25.75,118.3151166,2020-09-25,08BEAC028C92,金门高中体育馆,01:16:45,18,2020-09-25T01:16:45Z,15.25,GAM/7/0.4,,,,,,
9,1,2,AirBox,08BEAC028C9C,N/A,21,21,84,taipei,25.014,23,121.539,2020-09-25,08BEAC028C9C,NTU_AS_EdiGreen,01:18:39,17,2020-09-25T01:18:39Z,10.07,SVR/30/4.82,,,,,,
9,1,2,AirBox,08BEAC028CA2,N/A,5,5,46,taoyuan,25.00738783,26.62,121.2115373,2020-09-25,08BEAC028CA2,綠適居GCHA 室內indoor 4F ,01:21:19,4,2020-09-25T01:21:19Z,5,SVR/7/6.1,,,,,,
9,1,2,AirBox,iTribe振興部落(2020),N/A,41,49,97,pingtung,22.626,28.5,120.638,2020-09-25,08BEAC028CAE,iTribe萬安部落,01:15:48,27,2020-09-25T01:15:48Z,20.42,GAM/14/16.26,,,,,,
9,1,2,AirBox,iTribe振興部落(2020),N/A,3,4,100,pingtung,22.074,28.36,120.814,2020-09-25,08BEAC028CB0,iTribe四林部落,01:21:55,2,2020-09-25T01:21:55Z,3,GAM/30/13.15,,,,,,
9,1,2,AirBox,iTribe振興部落(2020),N/A,31,33,100,NA,22.304,29,120.645,2020-09-25,08BEAC028CB8,iTribe内獅部落,01:16:04,19,2020-09-25T01:16:04Z,18.51,GAM/30/41.23,,,,,,
9,1,2,AirBox,08BEAC028CBA,N/A,14,15,48,taipei,25.048,21.62,121.61,2020-09-25,08BEAC028CBA,322,01:21:39,9,2020-09-25T01:21:39Z,15.65,SVR/30/10.28,,,,,,
9,1,2,AirBox,馬公-1(2020),Magong,29,31,100,,36.62779293,25.62,136.9580168,2020-09-25,08BEAC028CCA,手動站：馬公站-1（CCA）,01:21:27,18,2020-09-25T01:21:27Z,N/A,N/A,,,,,,
9,1,2,AirBox,屏東-2(2020),Pingtung,47,58,77,taipei,25.038,33.25,121.545,2020-09-25,08BEAC028CCE,手動站：屏東站-2（CCE）,01:16:00,30,2020-09-25T01:16:00Z,30.88,SVR/30/3.86,,,,,,
9,1,2,AirBox,08BEAC028CD4,N/A,7,7,68,changhua,24.106,28.11,120.557,2020-09-25,08BEAC028CD4,Changhua02,01:17:06,5,2020-09-25T01:17:06Z,7,SVR/30/4.7,,,,,,
9,1,2,AirBox,08BEAC028CD8,N/A,10,14,79,taichuang,24.057337,31,120.628635,2020-09-25,08BEAC028CD8,SW 01,01:21:56,6,2020-09-25T01:21:56Z,10,SVR/30/8.85,,,,,,
9,1,2,AirBox,08BEAC028CDE,N/A,15,16,49,taipei,25.048,23.12,121.61,2020-09-25,08BEAC028CDE,320,01:19:34,12,2020-09-25T01:19:34Z,15.31,SVR/30/10.28,,,,,,
9,1,2,AirBox,08BEAC028CE8,N/A,8,8,0,taichuang,24.277693,-4,120.675947,2020-09-25,08BEAC028CE8,麗榮實業有限公司-1,01:21:02,6,2020-09-25T01:21:02Z,8,SVR/30/14.42,,,,,,
9,1,2,AirBox,恆春-1(2020),Hengchun,3,3,100,taipei,25.03801697,27.25,121.5456786,2020-09-25,08BEAC028CEA,手動站：恆春站-1（CEA）,01:18:11,2,2020-09-25T01:18:11Z,3,SVR/30/3.93,,,,,,
9,1,2,AirBox,iTribe振興部落(2020),N/A,36,44,100,pingtung,22.695,32.36,120.585,2020-09-25,08BEAC028CEC,iTribe佳暮部落,01:21:21,22,2020-09-25T01:21:21Z,18.84,GAM/14/10.25,,,,,,
9,1,2,AirBox,iTribe振興部落(2020),N/A,40,47,86,pingtung,22.552,28.61,120.629,2020-09-25,08BEAC028CEE,iTribe平和部落,01:20:48,26,2020-09-25T01:20:48Z,21.43,GAM/14/19.76,,,,,,
9,1,2,AirBox,宜蘭-1(2020),Yilan,20,20,78,taipei,25.0513065,28.25,121.5442898,2020-09-25,08BEAC028CF6,手動站：宜蘭站-1（CF6）,01:22:00,15,2020-09-25T01:22:00Z,10.99,SVR/30/3.69,,,,,,
9,1,2,AirBox,宜蘭-2(2020),Yilan,130,130,77,taipei,25.04164998,28.5,121.5513948,2020-09-25,08BEAC028CF8,手動站：宜蘭站-2（CF8）,01:17:00,113,2020-09-25T01:17:00Z,33.43,SVR/30/4.41,,,,,,
9,1,2,AirBox,08BEAC028CFC,N/A,20,22,69,chiayi_county,23.53075,29,120.465382,2020-09-25,08BEAC028CFC,大丘園,01:17:01,13,2020-09-25T01:17:01Z,N/A,N/A,,,,,,
9,1,2,AirBox,iTribe振興部落(2020),N/A,15,15,100,hualien,23.993,26,121.556,2020-09-25,08BEAC028D06,iTribe七腳川部落,01:20:59,10,2020-09-25T01:20:59Z,8.72,SVR/14/5.1,,,,,,
9,1,2,AirBox,08BEAC028D08,N/A,25,27,70,taoyuan,25.0549412,23.25,121.3672122,2020-09-25,08BEAC028D08,Otocon01,01:20:33,18,2020-09-25T01:20:33Z,N/A,N/A,,,,,,
9,1,2,AirBox,08BEAC028D1A,N/A,5,5,81,miaoli,24.312906,23.5,120.834653,2020-09-25,08BEAC028D1A,卓蘭高中,01:16:06,4,2020-09-25T01:16:06Z,5,SVR/30/10.93,,,,,,
9,1,2,AirBox,08BEAC028D22,N/A,8,9,58,changhua,23.980878,30,120.57353,2020-09-25,08BEAC028D22,大村鄉美港路,01:19:12,6,2020-09-25T01:19:12Z,8,SVR/30/9.99,,,,,,
9,1,2,AirBox,iTribe振興部落(2020),N/A,12,13,84,hualien,23.564,24.5,121.375,2020-09-25,08BEAC028D2C,iTribe拉加善部落,01:17:21,8,2020-09-25T01:17:21Z,12,SVR/14/50.72,,,,,,
9,1,2,AirBox,iTribe振興部落(2020),N/A,38,46,100,pingtung,22.697,29.36,120.6,2020-09-25,08BEAC028D30,iTribe美園部落,01:16:08,24,2020-09-25T01:16:08Z,19.28,GAM/14/11.8,,,,,,
9,1,2,AirBox,iTribe振興部落(2020),N/A,12,13,67,pingtung,22.37,32.36,120.624,2020-09-25,08BEAC028D34,iTribe春曰部落,01:20:40,7,2020-09-25T01:20:40Z,12,GAM/14/36.47,,,,,,
9,1,2,AirBox,iTribe振興部落(2020),N/A,30,33,88,NA,22.526,30.25,120.631,2020-09-25,08BEAC028D38,iTribe古樓部落,01:20:05,20,2020-09-25T01:20:05Z,15.29,GAM/14/21.97,,,,,,
9,1,2,AirBox,iTribe振興部落(2020),N/A,172,173,100,pingtung,22.102,25.87,120.84,2020-09-25,08BEAC028D3A,iTribe分水嶺部落,01:19:00,171,2020-09-25T01:19:00Z,0,GAM/30/16.85,,,,,,
9,1,2,AirBox,iTribe振興部落(2020),N/A,12,12,100,hualien,23.869,26.62,121.507,2020-09-25,08BEAC028D3C,iTribe壽豐部落,01:16:05,9,2020-09-25T01:16:05Z,12,SVR/14/14.76,,,,,,
9,1,2,AirBox,AirBox-NHRI-07,N/A,41,50,0,miaoli,25.02644954,-4,121.4643856,2020-09-25,08BEAC028D44,A170,01:19:23,27,2020-09-25T01:19:23Z,14,GAM/30/1.59,,,,,,
9,1,2,AirBox,AirBox-NHRI-12,N/A,23,24,58,miaoli,24.7039084,29.36,120.9108792,2020-09-25,08BEAC028D4E,A162,01:17:02,16,2020-09-25T01:17:02Z,13.63,SVR/30/12.92,,,,,,
9,1,2,AirBox,AirBox-NHRI-14,N/A,22,24,56,miaoli,24.7038999,28.86,120.9108922,2020-09-25,08BEAC028D58,A167,01:20:43,16,2020-09-25T01:20:43Z,13.74,SVR/30/12.92,,,,,,
9,1,2,AirBox,AirBox-NHRI-15,N/A,44,54,81,miaoli,24.99089881,22.5,121.2913086,2020-09-25,08BEAC028D5A,AD5A,01:16:30,28,2020-09-25T01:16:30Z,N/A,N/A,,,,,,
9,1,2,AirBox,AirBox-NHRI-20,N/A,39,47,82,miaoli,24.93468506,23.75,121.2980989,2020-09-25,08BEAC028D68,A116,01:19:48,25,2020-09-25T01:19:48Z,N/A,N/A,,,,,,
9,1,2,AirBox,馬祖-1(2020),Matsu,37,44,76,taipei,25.04164998,25.62,121.5556445,2020-09-25,08BEAC028D6A,手動站：馬祖站-1（D6A）,01:18:24,25,2020-09-25T01:18:24Z,20.34,SVR/30/4.84,,,,,,
9,1,2,AirBox,馬祖-2(2020),Matsu,34,39,100,taipei,25.051307,26.25,121.544296,2020-09-25,08BEAC028D6C,手動站：馬祖站-2（D6C）,01:16:40,22,2020-09-25T01:16:40Z,18.94,SVR/30/3.69,,,,,,
9,1,2,AirBox,苗栗-2(2020),Miaoli,25,26,77,taoyuan,24.94385652,24,121.2488829,2020-09-25,08BEAC028D6E,手動站：苗栗站-2（D6E）,01:19:47,17,2020-09-25T01:19:47Z,13.54,SVR/7/4.64,,,,,,
9,1,2,AirBox,iTribe振興部落(2020),N/A,34,37,93,new_taipei,24.835,21.87,121.525,2020-09-25,08BEAC028D70,iTribe信賢部落,01:20:46,22,2020-09-25T01:20:46Z,13.68,GAM/30/20.88,,,,,,
9,1,2,AirBox,三義-2(2020),Sanyi,10,10,100,taoyuan,24.943,21.25,121.248,2020-09-25,08BEAC028D72,手動站：三義站-2（D72）,01:16:14,6,2020-09-25T01:16:14Z,10,SVR/7/4.57,,,,,,
9,1,2,AirBox,馬公-2(2020),Magong,27,29,100,,36.62779293,26,136.9580168,2020-09-25,08BEAC028D74,手動站：馬公站-2（D74）,01:16:52,18,2020-09-25T01:16:52Z,N/A,N/A,,,,,,
9,1,2,AirBox,金門-2(2020),Kinmen,30,36,70,taipei,25.05135,24.37,121.544232,2020-09-25,08BEAC028D76,手動站：金門站-2（D76）,01:17:48,19,2020-09-25T01:17:48Z,16.86,SVR/30/3.68,,,,,,
9,1,2,AirBox,苗栗-1(2020),Miaoli,22,23,82,taoyuan,24.94385652,23.75,121.2488829,2020-09-25,08BEAC028D78,手動站：苗栗站-1（D78）,01:18:49,16,2020-09-25T01:18:49Z,13.04,SVR/7/4.64,,,,,,
9,1,2,AirBox,花蓮-2(2020),Hualien,15,16,94,taipei,25.051609,25.12,121.544376,2020-09-25,08BEAC028D7A,手動站：花蓮站-2（D7A),01:17:23,11,2020-09-25T01:17:23Z,8.14,SVR/30/3.7,,,,,,
9,1,2,AirBox,花蓮-1(2020),Hualien,0,0,100,taipei,25.051322,24.12,121.544295,2020-09-25,08BEAC028D80,手動站：花蓮站-1（D80),01:20:26,0,2020-09-25T01:20:26Z,0,SVR/30/3.69,,,,,,
9,1,2,AirBox,金門-1(2020),Kinmen,30,33,66,taipei,25.051248,24.5,121.544315,2020-09-25,08BEAC028D82,手動站：金門站-1(D82),01:17:31,19,2020-09-25T01:17:31Z,17.78,SVR/30/3.69,,,,,,
9,1,2,AirBox,恆春-2(2020),Hengchun,3,3,100,taipei,25.03801697,26,121.5456786,2020-09-25,08BEAC028D84,手動站：恆春站-2（D84）,01:17:48,2,2020-09-25T01:17:48Z,3,SVR/30/3.93,,,,,,
9,1,2,AirBox,08BEAC028D86,N/A,10,10,70,taichuang,24.285916,25.62,120.580377,2020-09-25,08BEAC028D86,台中市清水區田寮里環保志工小隊,01:16:37,7,2020-09-25T01:16:37Z,10,SVR/30/16.11,,,,,,
9,1,2,AirBox,iTribe振興部落(2020),N/A,40,48,62,pingtung,22.692,33.61,120.58,2020-09-25,08BEAC028D88,iTribe阿禮部落,01:17:08,26,2020-09-25T01:17:08Z,26.72,GAM/14/9.67,,,,,,
9,1,2,AirBox,台東-2(2020),Taitung,0,0,80,,36.62779293,27.12,136.9580168,2020-09-25,08BEAC028D8E,手動站：台東站-2（D8E）,01:19:35,0,2020-09-25T01:19:35Z,N/A,N/A,,,,,,
9,1,2,AirBox,台東-1(2020),Taitung,7,8,77,,36.62779293,26.37,136.9580168,2020-09-25,08BEAC028DAA,手動站：台東站-1（DAA）,01:17:59,5,2020-09-25T01:17:59Z,N/A,N/A,,,,,,
9,1,2,AirBox,08BEAC028DB4,N/A,38,45,0,new_taipei,25.067992,-4,121.636612,2020-09-25,08BEAC028DB4,Richard_Home,01:15:30,25,2020-09-25T01:15:30Z,25.54,SVR/30/13.16,,,,,,
9,1,2,AirBox,08BEAC028DB8,N/A,15,16,68,taichuang,24.270686,26.37,120.579564,2020-09-25,08BEAC028DB8,台中市清水區鰲峰里環保志工小隊,01:15:55,10,2020-09-25T01:15:55Z,9.67,SVR/30/14.59,,,,,,
9,1,2,AirBox,iTribe振興部落(2020),N/A,13,13,65,hualien,24.019,28.75,121.605,2020-09-25,08BEAC028DBA,iTribe嘉里部落,01:17:38,10,2020-09-25T01:17:38Z,10.89,SVR/14/5.36,,,,,,
9,1,2,AirBox,08BEAC028DBC,N/A,13,13,67,taichuang,24.33682,26.5,120.591166,2020-09-25,08BEAC028DBC,台中市大安區安東里環保志工小隊,01:21:35,10,2020-09-25T01:21:35Z,8.93,SVR/30/17.76,,,,,,
9,1,2,AirBox,08BEAC028DBE,N/A,11,11,67,taichuang,24.315213,26.12,120.591058,2020-09-25,08BEAC028DBE,台中市清水區高東里環保志工小隊,01:16:35,8,2020-09-25T01:16:35Z,11,SVR/30/18.61,,,,,,
9,1,2,AirBox,08BEAC028DC2,N/A,12,12,66,taichuang,24.158888,27,120.544621,2020-09-25,08BEAC028DC2,台中市大肚區萬興里環保志工小隊,01:20:00,8,2020-09-25T01:20:00Z,12,SVR/30/9.81,,,,,,
9,1,2,AirBox,iTribe振興部落(2020),N/A,13,13,77,hualien,23.71,26.37,121.414,2020-09-25,08BEAC028DC6,iTribe馬里巴西部落,01:20:20,9,2020-09-25T01:20:20Z,9.64,SVR/14/34.64,,,,,,
9,1,2,AirBox,iTribe振興部落(2020),N/A,18,19,100,pingtung,22.757,28.11,120.753,2020-09-25,08BEAC028DC8,iTribe大武部落,01:16:24,12,2020-09-25T01:16:24Z,5.13,GAM/7/26.78,,,,,,
9,1,2,AirBox,iTribe振興部落(2020),N/A,12,13,94,hualien,23.295,26,121.27,2020-09-25,08BEAC028DCA,iTribe卓樂部落,01:17:09,9,2020-09-25T01:17:09Z,12,RFR/21/61.29,,,,,,
9,1,2,AirBox,AirBox-UChicago-63,N/A,38,45,57,,41.917,20.37,-87.694,2020-09-25,08BEAC0365E0,Logan Square,01:18:27,27,2020-09-25T01:18:27Z,N/A,N/A,,,,,,
9,1,2,AirBox,AirBox-UChicago-83,N/A,32,37,66,,41.932,25.12,-87.773,2020-09-25,08BEAC0365E2,Belmont Cragin ,01:18:13,20,2020-09-25T01:18:13Z,N/A,N/A,,,,,,
9,1,2,AirBox,AirBox-UChicago-76,N/A,16,18,51,,41.876,23.75,-87.757,2020-09-25,08BEAC0365E4,Austin,01:21:39,10,2020-09-25T01:21:39Z,N/A,N/A,,,,,,
9,1,2,AirBox,AirBox-UChicago-64,N/A,27,30,58,,41.832,21.75,-87.642,2020-09-25,08BEAC0365F0,Bridgeport,01:18:45,16,2020-09-25T01:18:45Z,N/A,N/A,,,,,,
9,1,2,AirBox,AirBox-UChicago-90,N/A,6,7,57,,41.737,23.37,-87.59,2020-09-25,08BEAC0365F2,Marynook,01:19:50,4,2020-09-25T01:19:50Z,N/A,N/A,,,,,,
9,1,2,AirBox,AirBox-UChicago-70,N/A,24,26,67,,41.783,21.12,-87.599,2020-09-25,08BEAC0365FE,Woodlawn,01:21:56,16,2020-09-25T01:21:56Z,N/A,N/A,,,,,,
9,1,2,AirBox,AirBox-UChicago-77,N/A,22,23,62,,41.962,21.75,-87.662,2020-09-25,08BEAC036600,Uptown,01:19:24,16,2020-09-25T01:19:24Z,N/A,N/A,,,,,,
9,1,2,AirBox,AirBox-UChicago-61,N/A,19,21,51,,41.944,23.25,-87.722,2020-09-25,08BEAC036604,Avondale,01:18:37,13,2020-09-25T01:18:37Z,N/A,N/A,,,,,,
9,1,2,AirBox,AirBox-UChicago-73,N/A,11,12,60,,41.956,22,-87.68,2020-09-25,08BEAC036606,North Center,01:17:32,8,2020-09-25T01:17:32Z,N/A,N/A,,,,,,
9,1,2,AirBox,AirBox-UChicago-66,N/A,17,20,53,,41.706,23.12,-87.676,2020-09-25,08BEAC036654,Beverly2,01:15:51,11,2020-09-25T01:15:51Z,N/A,N/A,,,,,,
9,1,2,AirBox,AirBox-UChicago-67,N/A,21,22,56,,41.932,23,-87.651,2020-09-25,08BEAC036658,Lincoln Park,01:17:55,14,2020-09-25T01:17:55Z,N/A,N/A,,,,,,
9,1,2,AirBox,AirBox-UChicago-72,N/A,21,22,57,,41.916,21.37,-87.683,2020-09-25,08BEAC03665C,Bucktown,01:16:28,14,2020-09-25T01:16:28Z,N/A,N/A,,,,,,
9,1,2,AirBox,AirBox-UChicago-74,N/A,16,17,52,,41.952,22.5,-87.799,2020-09-25,08BEAC036660,Dunning,01:18:48,11,2020-09-25T01:18:48Z,N/A,N/A,,,,,,
9,1,2,AirBox,AirBox-UChicago-75,N/A,20,22,45,,41.9,23.25,-87.758,2020-09-25,08BEAC036664,Remonda device ,01:16:25,13,2020-09-25T01:16:25Z,N/A,N/A,,,,,,
9,1,2,AirBox,AirBox-UChicago-59,N/A,20,21,61,,41.995,21.87,-87.657,2020-09-25,08BEAC03666A,Edgewater,01:17:06,14,2020-09-25T01:17:06Z,N/A,N/A,,,,,,
9,1,2,AirBox,AirBox-UChicago-65,N/A,21,23,54,,41.713,23.12,-87.669,2020-09-25,08BEAC03666C,Beverly,01:19:52,15,2020-09-25T01:19:52Z,N/A,N/A,,,,,,
9,1,2,AirBox,AirBox-UChicago-68,N/A,16,17,53,,41.692,22.37,-87.751,2020-09-25,08BEAC036670,Oak Lawn,01:18:00,11,2020-09-25T01:18:00Z,N/A,N/A,,,,,,
9,1,2,AirBox,AirBox-UChicago-82,N/A,13,15,53,,41.711,21.87,-87.706,2020-09-25,08BEAC036676,Evergreen Park,01:19:03,8,2020-09-25T01:19:03Z,N/A,N/A,,,,,,
9,1,2,AirBox,AirBox-UChicago-79,N/A,24,26,57,,41.946,21.87,-87.666,2020-09-25,08BEAC036678,Mk,01:18:39,16,2020-09-25T01:18:39Z,N/A,N/A,,,,,,
9,1,2,AirBox,AirBox-NUS-20,N/A,20,22,54,,1.339,34.5,103.778,2020-09-25,08BEAC03668C,BT_indoor,01:20:57,15,2020-09-25T01:20:57Z,N/A,N/A,,,,,,
9,1,2,AirBox,AirBox-NUS-12,N/A,33,38,73,,1.443,29.25,103.774,2020-09-25,08BEAC03668E,Woodlands_indoor,01:17:51,22,2020-09-25T01:17:51Z,N/A,N/A,,,,,,
9,1,2,AirBox,AirBox-NUS-14,N/A,13,14,73,,1.276,29.11,103.82,2020-09-25,08BEAC036690,telok blangah crescent_outdoo,01:17:04,9,2020-09-25T01:17:04Z,N/A,N/A,,,,,,
9,1,2,AirBox,AirBox-NUS-16,N/A,5,5,66,,1.342,26.5,103.881,2020-09-25,08BEAC036692,Bartley_indoor,01:18:38,3,2020-09-25T01:18:38Z,N/A,N/A,,,,,,
9,1,2,AirBox,AirBox-NUS-18,N/A,27,28,69,,1.337,29.75,103.701,2020-09-25,08BEAC036694,boonlay_indoor,01:21:58,20,2020-09-25T01:21:58Z,N/A,N/A,,,,,,
9,1,2,AirBox,AirBox-NUS-11,N/A,37,45,81,,1.443,30,103.774,2020-09-25,08BEAC036696,Woodlands_outdoor,01:17:21,24,2020-09-25T01:17:21Z,N/A,N/A,,,,,,
9,1,2,AirBox,AirBox-NUS-15,N/A,19,20,76,,1.342,28.36,103.882,2020-09-25,08BEAC03669C,Bartley_outdoor,01:18:46,13,2020-09-25T01:18:46Z,N/A,N/A,,,,,,
9,1,2,AirBox,AirBox-NUS-17,N/A,28,29,69,,1.337,29.86,103.701,2020-09-25,08BEAC0366A2,boonlay_outdoor,01:16:24,20,2020-09-25T01:16:24Z,N/A,N/A,,,,,,
9,1,2,AirBox,AirBox-NUS-19,N/A,27,29,93,,1.339,27.87,103.778,2020-09-25,08BEAC0366A4,BT_outdoor,01:20:04,19,2020-09-25T01:20:04Z,N/A,N/A,,,,,,
9,1,2,AirBox,AirBox-NUS-24,N/A,19,20,100,,1.304,28.61,103.773,2020-09-25,08BEAC068B8E,UTOWN_outdoor,01:20:31,13,2020-09-25T01:20:31Z,N/A,N/A,,,,,,
9,1,2,AirBox,AirBox-NUS-25,N/A,16,17,77,,1.394,28.36,103.891,2020-09-25,08BEAC068B9C,sengkang_indoor,01:18:45,11,2020-09-25T01:18:45Z,N/A,N/A,,,,,,
9,1,2,AirBox,AirBox-NUS-23,N/A,30,34,82,,1.287,29.75,103.841,2020-09-25,08BEAC068B9E,Chinatown_indoor,01:17:07,19,2020-09-25T01:17:07Z,N/A,N/A,,,,,,
9,1,2,AirBox,AirBox-NUS-21,N/A,26,29,44,,1.287,27.5,103.842,2020-09-25,08BEAC068BA4,Chinatown_outdoor,01:19:31,15,2020-09-25T01:19:31Z,N/A,N/A,,,,,,
9,1,2,AirBox,AirBox-NUS-22,N/A,13,13,78,,1.394,28.75,103.892,2020-09-25,08BEAC068BAA,outdoor,01:20:57,9,2020-09-25T01:20:57Z,N/A,N/A,,,,,,
9,1,2,AirBox,AirBox-NUS-26,N/A,13,14,63,,1.298,29,103.774,2020-09-25,08BEAC068BB2,UTOWN_indoor ,01:20:54,9,2020-09-25T01:20:54Z,N/A,N/A,,,,,,
9,1,2,AirBox,08BEAC07D3AE,N/A,10,10,62,,24.174068,29.2,120.643205,2020-09-25,08BEAC07D3AE,,01:23:14,7,2020-09-25T01:23:14Z,10,SVR/30/2.46,0,acelink.edimax,0,v1.04,0,AI-1003WN
9,1,2,AirBox,08BEAC07D3CE,N/A,6,6,68,,24.15232374,30.8,120.6909559,2020-09-25,08BEAC07D3CE,,01:24:13,4,2020-09-25T01:24:13Z,6,SVR/30/5.07,0,acelink.edimax,0,v1.06,0,AI-1003WN
9,1,2,AirBox,08BEAC07D3DE,N/A,5,5,64,,24.176664,28.8,120.716246,2020-09-25,08BEAC07D3DE,,01:23:31,3,2020-09-25T01:23:31Z,5,SVR/30/8.11,0,acelink.edimax,0,v1.04,0,AI-1003WN
9,1,2,AirBox,臺中市立中華國小(2019),臺中市北區漢口路三段2號,6,6,71,,24.1658183339,28.3,120.665824413,2020-09-25,08BEAC07D3E2,,01:20:25,4,2020-09-25T01:20:25Z,6,SVR/30/2.95,0,acelink.edimax,0,v1.06,0,AI-1003WN
9,1,2,AirBox,08BEAC07D3E4,N/A,8,9,93,,24.270879,29.1,120.56272,2020-09-25,08BEAC07D3E4,,01:19:58,5,2020-09-25T01:19:58Z,8,SVR/30/15.42,0,acelink.edimax,0,v1.06,0,AI-1003WN
9,1,2,AirBox,08BEAC07D3F2,N/A,11,12,71,,24.2359653223,27,120.561593771,2020-09-25,08BEAC07D3F2,,01:24:15,7,2020-09-25T01:24:15Z,11,SVR/30/12.33,0,acelink.edimax,0,v1.06,0,AI-1003WN
9,1,2,AirBox,08BEAC07D3F8,N/A,39,47,73,,24.956445,27.3,121.166144,2020-09-25,08BEAC07D3F8,,01:20:08,25,2020-09-25T01:20:08Z,22.41,SVR/7/3.84,0,acelink.edimax,0,v1.06,0,AI-1003WN
9,1,2,AirBox,08BEAC07D40C,N/A,7,7,47,,25.0627841,27.5,121.5822489,2020-09-25,08BEAC07D40C,,01:21:08,5,2020-09-25T01:21:08Z,7,SVR/30/7.68,0,acelink.edimax,0,v1.06,0,AI-1003WN
9,1,2,AirBox,08BEAC07D40E,N/A,30,33,81,,23.38454,27.2,120.386513,2020-09-25,08BEAC07D40E,,01:19:10,18,2020-09-25T01:19:10Z,N/A,N/A,0,acelink.edimax,0,v1.04,0,AI-1003WN
9,1,2,AirBox,雲林縣縣立民生國小(2019),雲林縣林內鄉烏塗村華興路一號,24,24,86,,23.7676275,29.1,120.597256,2020-09-25,08BEAC09FF0C,,01:24:44,15,2020-09-25T01:24:44Z,17.06,GAM/7/8.16,0,acelink.edimax,0,v1.06,0,AI-1003WN
9,1,2,AirBox,雲林縣縣立油車國小(2019),雲林縣二崙鄉港後村港後路六十號,16,17,96,,23.7954898,29.7,120.3918404,2020-09-25,08BEAC09FF0E,,01:20:41,10,2020-09-25T01:20:41Z,12.04,GAM/7/18.14,0,acelink.edimax,0,v1.06,0,AI-1003WN
9,1,2,AirBox,臺中市立清水高中(2019),臺中市清水區中山路90號,10,10,71,,24.2652284727,27.3,120.574407019,2020-09-25,08BEAC09FF10,,01:20:37,7,2020-09-25T01:20:37Z,10,SVR/30/14.29,0,acelink.edimax,0,v1.06,0,AI-1003WN
9,1,2,AirBox,臺中市立豐原高中(2019),臺中市豐原區水源路150號,5,5,72,,24.25719528,27.1,120.7418095,2020-09-25,08BEAC09FF12,,01:22:56,3,2020-09-25T01:22:56Z,5,SVR/30/14.1,0,acelink.edimax,0,v1.06,0,AI-1003WN
9,1,2,AirBox,臺中市立臺中啟明學校(2019),臺中市后里區廣福里三豐路三段936號,8,8,69,,24.30478166,27.5,120.7232066,2020-09-25,08BEAC09FF14,,01:24:33,6,2020-09-25T01:24:33Z,8,SVR/30/9.42,0,acelink.edimax,0,v1.06,0,AI-1003WN
9,1,2,AirBox,臺中市立僑忠國小(2019),臺中市潭子區中山路二段31號,10,16,80,,24.20236354,26.8,120.7032586,2020-09-25,08BEAC09FF16,,01:21:13,8,2020-09-25T01:21:13Z,10,SVR/30/8.44,0,acelink.edimax,0,v1.06,0,AI-1003WN
9,1,2,AirBox,臺中市立豐原高商(2019),臺中市豐原區圓環南路50號,6,6,78,,24.24657,28.1,120.7145,2020-09-25,08BEAC09FF18,,01:22:59,4,2020-09-25T01:22:59Z,6,SVR/30/12.89,0,acelink.edimax,0,v1.06,0,AI-1003WN
9,1,2,AirBox,桃園市市立中正國小(2019),桃園市中壢區榮民路329號,43,50,100,,24.96187166,25.1,121.26277,2020-09-25,08BEAC09FF1A,,01:21:54,28,2020-09-25T01:21:54Z,N/A,N/A,0,acelink.edimax,0,v1.06,0,AI-1003WN
9,1,2,AirBox,雲林縣縣立安慶國小(2019),雲林縣虎尾鎮民主路卅六號,18,20,67,,23.7029334,31.1,120.4333605,2020-09-25,08BEAC09FF1C,,01:20:07,11,2020-09-25T01:20:07Z,12.67,GAM/7/11.41,0,acelink.edimax,0,v1.06,0,AI-1003WN
9,1,2,AirBox,臺中市立東新國中(2019),臺中市東勢區東新里東環街123號,7,7,76,,24.26335737,27.5,120.829858,2020-09-25,08BEAC09FF1E,,01:21:02,4,2020-09-25T01:21:02Z,7,SVR/30/15.12,0,acelink.edimax,0,v1.06,0,AI-1003WN
9,1,2,AirBox,臺中市立外埔國小(2019),臺中市外埔區外埔路878號,5,6,81,,24.33261333,26.7,120.65355,2020-09-25,08BEAC09FF20,,01:20:27,3,2020-09-25T01:20:27Z,5,SVR/30/12.06,0,acelink.edimax,0,v1.06,0,AI-1003WN
9,1,2,AirBox,臺南市市立喜樹國小(2019),臺南市南區喜東里喜樹路133號,30,34,96,,22.93516976,30.8,120.1862816,2020-09-25,08BEAC09FF22,,01:20:02,17,2020-09-25T01:20:02Z,18.46,GAM/14/5.8,0,acelink.edimax,0,v1.06,0,AI-1003WN
9,1,2,AirBox,臺中市立吳厝國小(2019),臺中市清水區吳厝里吳厝路35號,6,6,100,,24.26712609,26.8,120.6027008,2020-09-25,08BEAC09FF24,,01:23:34,4,2020-09-25T01:23:34Z,6,SVR/30/13.38,0,acelink.edimax,0,v1.06,0,AI-1003WN
9,1,2,AirBox,雲林縣縣立中正國小(2019),雲林縣虎尾鎮林森路一段六四號,23,25,100,,23.71891125,29,120.4418611,2020-09-25,08BEAC09FF26,,01:24:00,14,2020-09-25T01:24:00Z,14.73,GAM/7/10.53,0,acelink.edimax,0,v1.06,0,AI-1003WN
9,1,2,AirBox,雲林縣縣立石龜國小(2019),雲林縣斗南鎮石龜里南生路一號,38,39,100,,23.6418905,29.2,120.4826754,2020-09-25,08BEAC09FF28,,01:22:56,27,2020-09-25T01:22:56Z,23.78,GAM/7/10.05,0,acelink.edimax,0,v1.06,0,AI-1003WN
9,1,2,AirBox,桃園市市立富台國小(2019),桃園市中壢區中山東路三段369號,39,47,96,,24.94210666,24,121.252075,2020-09-25,08BEAC09FF2A,,01:21:06,25,2020-09-25T01:21:06Z,19.45,SVR/7/5.0,0,acelink.edimax,0,v1.06,0,AI-1003WN
9,1,2,AirBox,臺中市立太平國中(2019),臺中市太平區中山路2段116號,7,7,88,,24.14911656,29.5,120.7370825,2020-09-25,08BEAC09FF2E,,01:20:44,4,2020-09-25T01:20:44Z,7,SVR/30/9.75,0,acelink.edimax,0,v1.06,0,AI-1003WN
9,1,2,AirBox,臺中市立中平國中(2019),臺中市太平區太平路300號,8,9,78,,24.123075,29.3,120.718481,2020-09-25,08BEAC09FF30,,01:20:07,5,2020-09-25T01:20:07Z,8,SVR/30/8.49,0,acelink.edimax,0,v1.06,0,AI-1003WN
9,1,2,AirBox,雲林縣縣立重光國小(2019),雲林縣斗南鎮將軍里溫厝一號,21,23,100,,23.6571431,32.5,120.5113053,2020-09-25,08BEAC09FF32,,01:23:27,13,2020-09-25T01:23:27Z,13.7,GAM/7/7.0,0,acelink.edimax,0,v1.06,0,AI-1003WN
9,1,2,AirBox,嘉義縣縣立仁和國小(2019),嘉義縣梅山鄉太和村社前湖6號,13,14,93,,23.55605497,26.6,120.7235083,2020-09-25,08BEAC09FF34,,01:22:37,8,2020-09-25T01:22:37Z,10.81,GAM/7/25.13,0,acelink.edimax,0,v1.06,0,AI-1003WN
9,1,2,AirBox,雲林縣縣立廉使國小(2019),雲林縣虎尾鎮廉使里卅二號,25,25,75,,23.71716907,28.7,120.4206033,2020-09-25,08BEAC09FF36,,01:21:03,18,2020-09-25T01:21:03Z,18.07,GAM/7/12.68,0,acelink.edimax,0,v1.06,0,AI-1003WN
9,1,2,AirBox,臺中市立博屋瑪國小(2019),臺中市和平區達觀里東崎路一段育英巷6號,10,10,100,,24.32799,27,120.9211916,2020-09-25,08BEAC09FF38,,01:24:03,7,2020-09-25T01:24:03Z,10,SVR/30/17.53,0,acelink.edimax,0,v1.06,0,AI-1003WN
9,1,2,AirBox,雲林縣縣立棋山國小(2019),雲林縣古坑鄉棋盤村棋山路四九號,29,31,98,,23.6863643,29.3,120.6038715,2020-09-25,08BEAC09FF3A,,01:22:10,15,2020-09-25T01:22:10Z,18.67,GAM/7/6.64,0,acelink.edimax,0,v1.06,0,AI-1003WN
9,1,2,AirBox,雲林縣縣立永光國小(2019),雲林縣古坑鄉永光村文昌路八四號,25,27,81,,23.62612264,29.3,120.5540037,2020-09-25,08BEAC09FF3C,,01:20:45,14,2020-09-25T01:20:45Z,17.88,GAM/7/9.59,0,acelink.edimax,0,v1.06,0,AI-1003WN
9,1,2,AirBox,雲林縣縣立文安國小(2019),雲林縣斗南鎮延平路一段一八九號,21,22,88,,23.6916177,29.5,120.4811326,2020-09-25,08BEAC09FF3E,,01:22:29,14,2020-09-25T01:22:29Z,15.27,GAM/7/6.89,0,acelink.edimax,0,v1.06,0,AI-1003WN
9,1,2,AirBox,嘉義縣縣立大林國小(2019),嘉義縣大林鎮西林里中正路423號,23,30,100,,23.60349403,32.1,120.4519373,2020-09-25,08BEAC09FF40,,01:22:56,16,2020-09-25T01:22:56Z,14.73,GAM/7/15.34,0,acelink.edimax,0,v1.06,0,AI-1003WN
9,1,2,AirBox,臺中市立光正國中(2019),臺中市大里區鳳凰路68號,8,9,88,,24.09505491,29.8,120.7188797,2020-09-25,08BEAC09FF42,,01:22:54,5,2020-09-25T01:22:54Z,8,SVR/30/10.13,0,acelink.edimax,0,v1.06,0,AI-1003WN
9,1,2,AirBox,臺中市立中坑國小(2019),臺中市和平區中坑里中坑巷41號,10,11,88,,24.236745532,26.5,120.879840888,2020-09-25,08BEAC09FF44,,01:21:14,7,2020-09-25T01:21:14Z,10,SVR/30/20.36,0,acelink.edimax,0,v1.06,0,AI-1003WN
9,1,2,AirBox,臺中市立光明國中(2019),臺中市西區自由路一段75號,4,4,80,,24.13251966,28.6,120.6726876,2020-09-25,08BEAC09FF46,,01:21:09,3,2020-09-25T01:21:09Z,4,SVR/30/3.88,0,acelink.edimax,0,v1.06,0,AI-1003WN
9,1,2,AirBox,臺中市立文華高中(2019),臺中市西屯區寧夏路240號,6,6,67,,24.17004793,28.7,120.6598281,2020-09-25,08BEAC09FF48,,01:20:48,4,2020-09-25T01:20:48Z,6,SVR/30/2.77,0,acelink.edimax,0,v1.06,0,AI-1003WN
9,1,2,AirBox,臺中市立福民國小(2019),臺中市新社區福興里福民16之7號,10,10,82,,24.15948701,26.5,120.8643162,2020-09-25,08BEAC09FF4C,,01:22:11,6,2020-09-25T01:22:11Z,10,SVR/30/22.67,0,acelink.edimax,0,v1.06,0,AI-1003WN
9,1,2,AirBox,臺中市立軍功國小(2019),臺中市北屯區軍福十三路300號,3,3,65,,24.17372166,28.6,120.7198433,2020-09-25,08BEAC09FF50,,01:22:49,2,2020-09-25T01:22:49Z,3,SVR/30/8.36,0,acelink.edimax,0,v1.06,0,AI-1003WN
9,1,2,AirBox,臺中市立臺中高工(2019),臺中市南區高工路191號,5,5,78,,24.1136594874,31,120.661511086,2020-09-25,08BEAC09FF52,,01:21:18,3,2020-09-25T01:21:18Z,5,SVR/30/4.74,0,acelink.edimax,0,v1.06,0,AI-1003WN
9,1,2,AirBox,臺中市立三光國中(2019),臺中市北屯區三光一街77號,5,5,73,,24.16756409,28.3,120.6980819,2020-09-25,08BEAC09FF54,,01:23:32,3,2020-09-25T01:23:32Z,5,SVR/30/6.04,0,acelink.edimax,0,v1.06,0,AI-1003WN
9,1,2,AirBox,臺中市立光復國小(2019),臺中市中區三民路二段148號,5,5,62,,24.166959,29.3,120.678557,2020-09-25,08BEAC09FF58,,01:19:45,3,2020-09-25T01:19:45Z,5,SVR/30/4.16,0,acelink.edimax,0,v1.06,0,AI-1003WN
9,1,2,AirBox,臺南市市立南區新興國小(2019),臺南市南區新興路22號,41,50,100,,22.9795065,29.1,120.196457,2020-09-25,08BEAC09FF5A,,01:22:08,25,2020-09-25T01:22:08Z,24.05,GAM/14/0.91,0,acelink.edimax,0,v1.06,0,AI-1003WN
9,1,2,AirBox,臺中市立長億高中(2019),臺中市太平區長億六街一號,8,9,77,,24.11323853,29.6,120.7217441,2020-09-25,08BEAC09FF5C,,01:23:02,6,2020-09-25T01:23:02Z,8,SVR/30/9.26,0,acelink.edimax,0,v1.06,0,AI-1003WN
9,1,2,AirBox,臺中市立豐田國小(2019),臺中市豐原區田心路二段290號,5,5,84,,24.23750147,27.5,120.7218282,2020-09-25,08BEAC09FF5E,,01:20:53,3,2020-09-25T01:20:53Z,5,SVR/30/12.55,0,acelink.edimax,0,v1.06,0,AI-1003WN
9,1,2,AirBox,臺中市立豐原國中(2019),臺中市豐原區三豐路一段321號,7,8,77,,24.26134861,27.8,120.7193902,2020-09-25,08BEAC09FF60,,01:24:24,4,2020-09-25T01:24:24Z,7,SVR/30/14.11,0,acelink.edimax,0,v1.06,0,AI-1003WN
9,1,2,AirBox,臺中市立四張犁國中(2019),臺中市北屯區后庄路699號,6,6,72,,24.19403374,28.5,120.6770694,2020-09-25,08BEAC09FF62,,01:19:48,4,2020-09-25T01:19:48Z,6,SVR/30/5.94,0,acelink.edimax,0,v1.06,0,AI-1003WN
9,1,2,AirBox,臺中市立四德國小(2019),臺中市霧峰區四德路504號,8,8,74,,24.0609347,31.3,120.6676329,2020-09-25,08BEAC09FF64,,01:20:19,6,2020-09-25T01:20:19Z,8,SVR/30/10.48,0,acelink.edimax,0,v1.06,0,AI-1003WN
9,1,2,AirBox,臺中市立中山國中(2019),臺中市西屯區寧夏路179號,6,6,81,,24.1683752765,28.5,120.659891702,2020-09-25,08BEAC09FF66,,01:24:58,4,2020-09-25T01:24:58Z,6,SVR/30/2.64,0,acelink.edimax,0,v1.06,0,AI-1003WN
9,1,2,AirBox,臺中市立沙鹿高工(2019),臺中市沙鹿區臺灣大道7段823號,10,11,81,,24.2385728306,26.7,120.565709621,2020-09-25,08BEAC09FF68,,01:21:28,7,2020-09-25T01:21:28Z,10,SVR/30/12.29,0,acelink.edimax,0,v1.06,0,AI-1003WN
9,1,2,AirBox,桃園市市立南勢國小(2019),桃園市平鎮區中豐路南勢二段223號,40,48,85,,24.909734726,25.2,121.211433411,2020-09-25,08BEAC09FF6A,,01:24:24,24,2020-09-25T01:24:24Z,21.14,SVR/7/4.87,0,acelink.edimax,0,v1.06,0,AI-1003WN
9,1,2,AirBox,臺中市立溪南國中(2019),臺中市烏日區溪南路一段731號,8,8,74,,24.07145105,31.2,120.6444835,2020-09-25,08BEAC09FF6C,,01:21:46,5,2020-09-25T01:21:46Z,8,SVR/30/8.96,0,acelink.edimax,0,v1.06,0,AI-1003WN
9,1,2,AirBox,桃園市楊梅高中(2019),桃園市楊梅區高獅路5號,37,43,96,,24.92166732,25,121.1487916,2020-09-25,08BEAC09FF6E,,01:20:07,25,2020-09-25T01:20:07Z,18.7,SVR/7/6.57,0,acelink.edimax,0,v1.06,0,AI-1003WN
9,1,2,AirBox,臺中市立仁愛國小(2019),臺中市北屯區四平路71號,6,7,82,,24.1800683,27.8,120.6714507,2020-09-25,08BEAC09FF70,,01:23:20,4,2020-09-25T01:23:20Z,6,SVR/30/4.39,0,acelink.edimax,0,v1.06,0,AI-1003WN
9,1,2,AirBox,臺中市立安和國中(2019),臺中市西屯區天助街1號,8,8,78,,24.1734614,28.6,120.6167773,2020-09-25,08BEAC09FF72,,01:19:57,5,2020-09-25T01:19:57Z,8,SVR/30/3.43,0,acelink.edimax,0,v1.06,0,AI-1003WN
9,1,2,AirBox,臺中市立潭子國小(2019),臺中市潭子區中山路二段435號,6,6,78,,24.21391499,30.3,120.704135,2020-09-25,08BEAC09FF76,,01:23:32,3,2020-09-25T01:23:32Z,6,SVR/30/9.4,0,acelink.edimax,0,v1.06,0,AI-1003WN
9,1,2,AirBox,臺中市立北勢國中(2019),臺中市沙鹿區北勢里英才路150號,8,8,95,,24.225506014,27.7,120.56918107,2020-09-25,08BEAC09FF7A,,01:20:56,6,2020-09-25T01:20:56Z,8,SVR/30/10.95,0,acelink.edimax,0,v1.06,0,AI-1003WN
9,1,2,AirBox,臺中市立太平國小(2019),臺中市太平區中興路35號,6,7,68,,24.13282934,29.5,120.7244263,2020-09-25,08BEAC09FF7C,,01:24:03,4,2020-09-25T01:24:03Z,6,SVR/30/8.73,0,acelink.edimax,0,v1.06,0,AI-1003WN
9,1,2,AirBox,雲林縣縣立後埔國小(2019),雲林縣土庫鎮後埔里二四一號,16,17,100,,23.6997767,29.1,120.3712484,2020-09-25,08BEAC09FF7E,,01:24:57,10,2020-09-25T01:24:57Z,11.26,GAM/7/17.74,0,acelink.edimax,0,v1.06,0,AI-1003WN
9,1,2,AirBox,臺中市立福科國中(2019),臺中市西屯區福林路333號,8,8,68,,24.18853321,28.3,120.6145721,2020-09-25,08BEAC09FF80,,01:21:53,5,2020-09-25T01:21:53Z,8,SVR/30/4.87,0,acelink.edimax,0,v1.06,0,AI-1003WN
9,1,2,AirBox,桃園市市立興南國中(2019),桃園市中壢區育英路55號,66,73,83,,24.97412166,25.6,121.2267816,2020-09-25,08BEAC09FF82,,01:24:01,34,2020-09-25T01:24:01Z,11.73,SVR/7/3.28,0,acelink.edimax,0,v1.06,0,AI-1003WN
9,1,2,AirBox,臺中市立龍泉國小(2019),臺中市龍井區龍泉里龍新路162號,10,11,74,,24.19628097,27.7,120.5476964,2020-09-25,08BEAC09FF84,,01:22:46,7,2020-09-25T01:22:46Z,10,SVR/30/10.67,0,acelink.edimax,0,v1.06,0,AI-1003WN
9,1,2,AirBox,桃園市市立德龍國小(2019),桃園市龍潭區聖亭路八德段451巷140號,38,45,93,,24.88212768,25,121.1951925,2020-09-25,08BEAC09FF86,,01:20:07,23,2020-09-25T01:20:07Z,19.56,SVR/7/7.93,0,acelink.edimax,0,v1.06,0,AI-1003WN
9,1,2,AirBox,臺中市立臺中啟聰學校(2019),臺中市西屯區協和里安和路1號,6,7,70,,24.1620888193,29.2,120.617700554,2020-09-25,08BEAC09FF88,,01:21:16,5,2020-09-25T01:21:16Z,6,SVR/30/2.62,0,acelink.edimax,0,v1.06,0,AI-1003WN
9,1,2,AirBox,臺中市立平等國小(2019),臺中市和平區平等里中興路三段環山三巷35號,2,3,72,,24.3177692,23,121.2937275,2020-09-25,08BEAC09FF8C,,01:24:18,1,2020-09-25T01:24:18Z,2,SVR/14/49.52,0,acelink.edimax,0,v1.06,0,AI-1003WN
9,1,2,AirBox,臺中市立復興國小(2019),臺中市霧峰區坑口里信義路50號,9,10,73,,24.04247,30.8,120.69691,2020-09-25,08BEAC09FF8E,,01:24:45,6,2020-09-25T01:24:45Z,9,SVR/30/13.44,0,acelink.edimax,0,v1.06,0,AI-1003WN
9,1,2,AirBox,臺中市立大甲高中(2019),臺中市大甲區中山路一段720號,8,8,100,,24.3417592494,26.6,120.621853285,2020-09-25,08BEAC09FF90,,01:20:13,5,2020-09-25T01:20:13Z,8,SVR/30/14.63,0,acelink.edimax,0,v1.06,0,AI-1003WN
9,1,2,AirBox,臺中市立漢口國中(2019),臺中市西屯區漢口路一段54之1號,8,9,69,,24.1616899212,28.8,120.657665804,2020-09-25,08BEAC09FF92,,01:24:17,5,2020-09-25T01:24:17Z,8,SVR/30/2.0,0,acelink.edimax,0,v1.06,0,AI-1003WN
9,1,2,AirBox,臺中市立順天國中(2019),臺中巿大甲區大安港路67號,12,12,100,,24.35006086,27,120.6152084,2020-09-25,08BEAC09FF98,,01:20:43,8,2020-09-25T01:20:43Z,12,SVR/30/15.02,0,acelink.edimax,0,v1.06,0,AI-1003WN
9,1,2,AirBox,臺中市立大德國中(2019),臺中市北屯區雷中街2之23號,4,5,70,,24.1808181904,29,120.668990761,2020-09-25,08BEAC09FF9A,,01:21:04,2,2020-09-25T01:21:04Z,4,SVR/30/4.28,0,acelink.edimax,0,v1.06,0,AI-1003WN
9,1,2,AirBox,桃園市市立大有國小(2019),桃園市桃園區大有路220號,39,46,82,,25.0093673,24.2,121.3206716,2020-09-25,08BEAC09FF9C,,01:25:00,24,2020-09-25T01:25:00Z,N/A,N/A,0,acelink.edimax,0,v1.06,0,AI-1003WN
9,1,2,AirBox,臺中市立圳堵國小(2019),臺中市神岡區圳堵里三民路639號,2,2,79,,24.27255333,26,120.65814,2020-09-25,08BEAC09FF9E,,01:22:29,1,2020-09-25T01:22:29Z,2,SVR/30/13.52,0,acelink.edimax,0,v1.06,0,AI-1003WN
9,1,2,AirBox,桃園市市立北門國小(2019),桃園市桃園區正康三街139號,49,57,74,,25.0073154,25.3,121.3068939,2020-09-25,08BEAC09FFA0,,00:12:38,33,2020-09-25T00:12:38Z,N/A,N/A,0,acelink.edimax,0,v1.06,0,AI-1003WN
9,1,2,AirBox,嘉義縣縣立布新國小(2019),嘉義縣布袋鎮岑海里文昌街61號,16,16,100,,23.378922,28.1,120.152459,2020-09-25,08BEAC09FFA2,,01:24:19,10,2020-09-25T01:24:19Z,6.66,SVR/30/13.82,0,acelink.edimax,0,v1.06,0,AI-1003WN
9,1,2,AirBox,桃園市市立同德國小(2019),桃園市桃園區同德六街175號,37,44,91,,25.0146603,25.6,121.2960318,2020-09-25,08BEAC09FFA8,,01:20:26,23,2020-09-25T01:20:26Z,N/A,N/A,0,acelink.edimax,0,v1.06,0,AI-1003WN
9,1,2,AirBox,臺中市立大墩國中(2019),臺中市南屯區惠中路三段98號,6,7,65,,24.1448619,28.8,120.6403424,2020-09-25,08BEAC09FFAA,,01:22:17,4,2020-09-25T01:22:17Z,6,SVR/30/0.8,0,acelink.edimax,0,v1.06,0,AI-1003WN
9,1,2,AirBox,嘉義縣縣立光榮國小(2019),嘉義縣義竹鄉東光村64號,25,26,100,,23.3797078,29.5,120.2476029,2020-09-25,08BEAC09FFAE,,01:23:59,14,2020-09-25T01:23:59Z,10.67,SVR/30/9.71,0,acelink.edimax,0,v1.06,0,AI-1003WN
9,1,2,AirBox,嘉義縣縣立三江國小(2019),嘉義縣東石鄉三家村16號,11,12,78,,23.46882076,28.6,120.1745889,2020-09-25,08BEAC09FFB0,,01:23:15,7,2020-09-25T01:23:15Z,11,SVR/30/7.49,0,acelink.edimax,0,v1.06,0,AI-1003WN
9,1,2,AirBox,臺中市立光正國小(2019),臺中市霧峰區北勢里豐正路五六六號,11,11,81,,24.06093892,30,120.6675654,2020-09-25,08BEAC09FFB2,,01:19:02,8,2020-09-25T01:19:02Z,11,SVR/30/10.48,0,acelink.edimax,0,v1.06,0,AI-1003WN
9,1,2,AirBox,臺中市立豐洲國小(2019),臺中市神岡區豐洲路482號,7,8,63,,24.26235666,30.6,120.70418,2020-09-25,08BEAC09FFBA,,01:21:18,4,2020-09-25T01:21:18Z,7,SVR/30/13.84,0,acelink.edimax,0,v1.06,0,AI-1003WN
9,1,2,AirBox,雲林縣縣立豐榮國小(2019),雲林縣崙背鄉豐榮村豐榮路廿一號,12,14,82,,23.79183769,28.1,120.311746,2020-09-25,08BEAC09FFBC,,01:22:26,9,2020-09-25T01:22:26Z,12,GAM/7/25.35,0,acelink.edimax,0,v1.06,0,AI-1003WN
9,1,2,AirBox,臺中市立光復國中小(2019),臺中市霧峰區南柳里柳豐路535號,8,8,61,,24.04397822,31.5,120.689895,2020-09-25,08BEAC09FFBE,,01:24:19,6,2020-09-25T01:24:19Z,8,SVR/30/13.0,0,acelink.edimax,0,v1.06,0,AI-1003WN
9,1,2,AirBox,臺中市立僑榮國小(2019),臺中市霧峰區甲寅里民生路156號,11,11,70,,24.07344177,29.2,120.7015437,2020-09-25,08BEAC09FFC0,,01:22:34,7,2020-09-25T01:22:34Z,11,SVR/30/10.68,0,acelink.edimax,0,v1.06,0,AI-1003WN
9,1,2,AirBox,雲林縣縣立明倫國小(2019),雲林縣東勢鄉月眉村中山路十號,18,19,96,,23.68272006,31,120.284779,2020-09-25,08BEAC09FFC2,,01:15:15,14,2020-09-25T01:15:15Z,8.03,SVR/30/24.28,0,acelink.edimax,0,v1.06,0,AI-1003WN
9,1,2,AirBox,臺中市立東山高中(2019),臺中市北屯區景賢6路200號,4,4,62,,24.16621833,29.7,120.7131183,2020-09-25,08BEAC09FFC6,,01:22:02,2,2020-09-25T01:22:02Z,4,SVR/30/7.49,0,acelink.edimax,0,v1.06,0,AI-1003WN
9,1,2,AirBox,臺中市立旭光國小(2019),臺中市烏日區健行路501號,5,6,65,,24.1104395165,29.3,120.594264083,2020-09-25,08BEAC09FFC8,,01:22:36,4,2020-09-25T01:22:36Z,5,SVR/30/6.62,0,acelink.edimax,0,v1.06,0,AI-1003WN
9,1,2,AirBox,臺中市立霧峰國小(2019),臺中市霧峰區中正路736號,8,9,65,,24.0619544983,30.1,120.698135376,2020-09-25,08BEAC09FFCA,,01:24:27,5,2020-09-25T01:24:27Z,8,SVR/30/11.57,0,acelink.edimax,0,v1.06,0,AI-1003WN
9,1,2,AirBox,臺中市立日南國中(2019),臺中市大甲區中山路二段69-11號,1,1,100,,24.37843883,27.2,120.6513366,2020-09-25,08BEAC09FFCC,,01:22:40,1,2020-09-25T01:22:40Z,1,SVR/30/10.92,0,acelink.edimax,0,v1.06,0,AI-1003WN
9,1,2,AirBox,桃園市市立東勢國小(2019),桃園市平鎮區平東路一段185號,35,45,87,,24.9110842619,24.7,121.232276447,2020-09-25,08BEAC09FFCE,,01:24:27,23,2020-09-25T01:24:27Z,16.73,SVR/7/5.46,0,acelink.edimax,0,v1.06,0,AI-1003WN
9,1,2,AirBox,桃園市市立元生國小(2019),桃園市中壢區文化二路161號,32,36,93,,24.97466833,25.7,121.2510933,2020-09-25,08BEAC09FFD2,,01:21:18,20,2020-09-25T01:21:18Z,15.19,SVR/7/5.32,0,acelink.edimax,0,v1.06,0,AI-1003WN
9,1,2,AirBox,臺中市立清水國中(2019),臺中市清水區西社里鰲峰路250號,9,10,75,,24.268665216,29.1,120.562598258,2020-09-25,08BEAC09FFD4,,01:10:50,7,2020-09-25T01:10:50Z,9,SVR/30/15.22,0,acelink.edimax,0,v1.06,0,AI-1003WN
9,1,2,AirBox,臺中市立臺中女中(2019),臺中市西區自由路一段95號,5,5,65,,24.1363521398,29.2,120.677524209,2020-09-25,08BEAC09FFD6,,01:24:43,3,2020-09-25T01:24:43Z,5,SVR/30/4.09,0,acelink.edimax,0,v1.06,0,AI-1003WN
9,1,2,AirBox,臺中市立崇德國中(2019),臺中市北屯區崇德路二段227號,5,5,71,,24.17516336,28.1,120.6853042,2020-09-25,08BEAC09FFDA,,01:23:41,3,2020-09-25T01:23:41Z,5,SVR/30/5.18,0,acelink.edimax,0,v1.06,0,AI-1003WN
9,1,2,AirBox,臺中市立臺中一中(2019),臺中市北區育才街2號,4,5,65,,24.14986023,30,120.6863038,2020-09-25,08BEAC09FFDC,,01:20:39,3,2020-09-25T01:20:39Z,4,SVR/30/4.6,0,acelink.edimax,0,v1.06,0,AI-1003WN
9,1,2,AirBox,臺中市立至善國中(2019),臺中市西屯區青海路二段308號,6,7,61,,24.1746179,29.6,120.6403774,2020-09-25,08BEAC09FFDE,,01:23:03,4,2020-09-25T01:23:03Z,6,SVR/30/2.52,0,acelink.edimax,0,v1.06,0,AI-1003WN
9,1,2,AirBox,臺南市市立光榮國小(2019),臺南市左鎮區榮和里61之1號,31,33,78,,23.0643978119,29.6,120.389686584,2020-09-25,08BEAC09FFE0,,01:22:40,17,2020-09-25T01:22:40Z,18.11,GAM/14/21.05,0,acelink.edimax,0,v1.06,0,AI-1003WN
9,1,2,AirBox,臺中市立五福國小(2019),臺中市霧峰區五福里新埔路239號,10,11,74,,24.073573,30.2,120.667023,2020-09-25,08BEAC09FFE4,,01:21:50,7,2020-09-25T01:21:50Z,10,SVR/30/9.11,0,acelink.edimax,0,v1.06,0,AI-1003WN
9,1,2,AirBox,桃園市市立青埔國小(2019),桃園市中壢區新生路4段112號,40,49,76,,25.0077914,25.8,121.2148421,2020-09-25,08BEAC09FFE6,,01:22:07,25,2020-09-25T01:22:07Z,21.71,SVR/7/6.19,0,acelink.edimax,0,v1.06,0,AI-1003WN
9,1,2,AirBox,臺中市立臺中家商(2019),臺中市東區和平街50號,4,4,62,,24.13374272,30,120.6844337,2020-09-25,08BEAC09FFE8,,01:22:38,3,2020-09-25T01:22:38Z,4,SVR/30/4.85,0,acelink.edimax,0,v1.06,0,AI-1003WN
9,1,2,AirBox,桃園市市立竹圍國中(2019),桃園市大園區海港路2巷87號,45,55,76,,25.11003941,27.3,121.2382613,2020-09-25,08BEAC09FFEA,,01:24:44,27,2020-09-25T01:24:44Z,N/A,N/A,0,acelink.edimax,0,v1.06,0,AI-1003WN
9,1,2,AirBox,臺中市立東寶國小(2019),臺中市潭子區雅潭路三段二號,9,10,65,,24.21703083,32.5,120.6845241,2020-09-25,08BEAC09FFEC,,01:22:46,6,2020-09-25T01:22:46Z,9,SVR/30/8.47,0,acelink.edimax,0,v1.06,0,AI-1003WN
9,1,2,AirBox,臺中市立沙鹿國中(2019),臺中市沙鹿區中正街1號,9,10,73,,24.2352597052,27.7,120.563267469,2020-09-25,08BEAC09FFEE,,01:21:18,6,2020-09-25T01:21:18Z,9,SVR/30/12.16,0,acelink.edimax,0,v1.06,0,AI-1003WN
9,1,2,AirBox,臺中市立五光國小(2019),臺中市烏日區光明里光明路40號,6,6,71,,24.09427842,29.8,120.6472369,2020-09-25,08BEAC09FFF0,,01:22:16,4,2020-09-25T01:22:16Z,6,SVR/30/6.45,0,acelink.edimax,0,v1.06,0,AI-1003WN
9,1,2,AirBox,臺中市立六寶國小(2019),臺中市大雅區光復路15之2號,6,6,100,,24.2387123,27,120.6358958,2020-09-25,08BEAC09FFF4,,01:22:52,4,2020-09-25T01:22:52Z,6,SVR/30/9.66,0,acelink.edimax,0,v1.06,0,AI-1003WN
9,1,2,AirBox,臺中市立中港高中(2019),臺中市梧棲區文昌路400號,10,11,69,,24.2444389,27.3,120.5419683,2020-09-25,08BEAC09FFF6,,01:20:58,7,2020-09-25T01:20:58Z,10,SVR/30/14.37,0,acelink.edimax,0,v1.06,0,AI-1003WN
9,1,2,AirBox,臺中市立翁子國小(2019),臺中市豐原區豐勢路二段290巷3號,5,5,73,,24.26254724,26.7,120.7431098,2020-09-25,08BEAC09FFFC,,01:21:06,3,2020-09-25T01:21:06Z,5,SVR/30/13.49,0,acelink.edimax,0,v1.06,0,AI-1003WN
9,1,2,AirBox,臺中市立社口國小(2019),臺中巿神岡區社南里社南街136號,6,6,73,,24.24584666,28.5,120.6857,2020-09-25,08BEAC0A0000,,01:20:55,4,2020-09-25T01:20:55Z,6,SVR/30/11.38,0,acelink.edimax,0,v1.06,0,AI-1003WN
9,1,2,AirBox,臺中市立臺中二中(2019),臺中市英士路109號,4,4,70,,24.15245247,28.6,120.6744892,2020-09-25,08BEAC0A0004,,01:22:14,3,2020-09-25T01:22:14Z,4,SVR/30/3.4,0,acelink.edimax,0,v1.06,0,AI-1003WN
9,1,2,AirBox,臺中市立神岡國中(2019),臺中市神岡區中山路627號,10,10,87,,24.246821,27.5,120.6817174,2020-09-25,08BEAC0A0006,,01:21:04,7,2020-09-25T01:21:04Z,10,SVR/30/11.32,0,acelink.edimax,0,v1.06,0,AI-1003WN
9,1,2,AirBox,臺中市立東勢國小(2019),臺中市東勢區廣興里第五橫街1號,8,8,71,,24.30930879,26.7,120.7905387,2020-09-25,08BEAC0A0008,,01:22:42,5,2020-09-25T01:22:42Z,8,SVR/30/8.79,0,acelink.edimax,0,v1.06,0,AI-1003WN
9,1,2,AirBox,臺中市立后綜高中(2019),臺中市后里區廣福里三豐路三段968號,7,8,87,,24.30660499,28.1,120.7227666,2020-09-25,08BEAC0A000A,,01:21:11,5,2020-09-25T01:21:11Z,7,SVR/30/9.25,0,acelink.edimax,0,v1.06,0,AI-1003WN
9,1,2,AirBox,臺中市立明正國小(2019),臺中市東勢區明正里東蘭路永盛巷57-1號,5,5,89,,24.28627747,27.3,120.7923227,2020-09-25,08BEAC0A000E,,01:20:29,3,2020-09-25T01:20:29Z,5,SVR/30/11.27,0,acelink.edimax,0,v1.06,0,AI-1003WN
9,1,2,AirBox,臺中市立臺中特教(2019),臺中市南屯區公益路二段296號,7,7,67,,24.1513897,30.1,120.6415875,2020-09-25,08BEAC0A0010,,01:20:33,5,2020-09-25T01:20:33Z,7,SVR/30/0.09,0,acelink.edimax,0,v1.06,0,AI-1003WN
9,1,2,AirBox,臺中市立鐵山國小(2019),臺中市外埔區鐵山里長生路576號,8,8,74,,24.34897917,27.5,120.6563627,2020-09-25,08BEAC0A0012,,01:23:07,5,2020-09-25T01:23:07Z,8,SVR/30/11.06,0,acelink.edimax,0,v1.06,0,AI-1003WN
9,1,2,AirBox,臺中市立神岡國小(2019),臺中市神岡區神圳路1號,8,8,89,,24.2582999921,27.3,120.659777038,2020-09-25,08BEAC0A0014,,01:21:41,6,2020-09-25T01:21:41Z,8,SVR/30/11.97,0,acelink.edimax,0,v1.06,0,AI-1003WN
9,1,2,AirBox,臺中市立中科國小(2019),臺中市東勢區東崎路4段92巷16號,7,8,84,,24.25709577,26.2,120.8513417,2020-09-25,08BEAC0A0016,,01:20:58,5,2020-09-25T01:20:58Z,7,SVR/30/16.84,0,acelink.edimax,0,v1.06,0,AI-1003WN
9,1,2,AirBox,臺中市立頭家國小(2019),臺中市潭子區得福街185號,5,5,66,,24.19707582,30,120.6952037,2020-09-25,08BEAC0A0018,,01:21:00,3,2020-09-25T01:21:00Z,5,SVR/30/7.44,0,acelink.edimax,0,v1.06,0,AI-1003WN
9,1,2,AirBox,臺中市立豐陽國中(2019),臺中市豐原區朝陽路33號,2,2,80,,24.2619444,28,120.7448641,2020-09-25,08BEAC0A001A,,01:22:56,1,2020-09-25T01:22:56Z,2,SVR/30/13.54,0,acelink.edimax,0,v1.06,0,AI-1003WN
9,1,2,AirBox,臺中市立新興國小(2019),臺中市潭子區潭興路一段25號,5,6,69,,24.20350999,29.1,120.7254766,2020-09-25,08BEAC0A0020,,01:24:56,3,2020-09-25T01:24:56Z,5,SVR/30/10.31,0,acelink.edimax,0,v1.06,0,AI-1003WN
9,1,2,AirBox,雲林縣縣立拯民國小(2019),雲林縣虎尾鎮建國三村十號,63,68,79,,23.70868492,27.8,120.4080129,2020-09-25,08BEAC0A0022,,00:56:48,20,2020-09-25T00:56:48Z,45.66,GAM/7/13.95,0,acelink.edimax,0,v1.06,0,AI-1003WN
9,1,2,AirBox,臺中市立大明國小(2019),臺中市大雅區中清路四段158號,7,7,81,,24.22917825,28.5,120.6435736,2020-09-25,08BEAC0A0024,,01:23:02,5,2020-09-25T01:23:02Z,7,SVR/30/8.59,0,acelink.edimax,0,v1.06,0,AI-1003WN
9,1,2,AirBox,臺中市立鹿寮國中(2019),臺中市沙鹿區光華路385號,11,12,72,,24.2440695486,27.6,120.566820391,2020-09-25,08BEAC0A0026,,01:20:33,7,2020-09-25T01:20:33Z,11,SVR/30/12.7,0,acelink.edimax,0,v1.06,0,AI-1003WN
9,1,2,AirBox,臺中市立立人國中(2019),臺中市北區北平路一段62號,7,7,71,,24.1714032,27.8,120.6699684,2020-09-25,08BEAC0A0028,,00:25:38,5,2020-09-25T00:25:38Z,7,SVR/30/3.65,0,acelink.edimax,0,v1.06,0,AI-1003WN
9,1,2,AirBox,臺中市立新成國小(2019),臺中市東勢區上城街260號,9,10,84,,24.22119886,26.6,120.8394636,2020-09-25,08BEAC0A002A,,01:24:13,6,2020-09-25T01:24:13Z,9,SVR/30/19.75,0,acelink.edimax,0,v1.06,0,AI-1003WN
9,1,2,AirBox,臺中市立大元國小(2019),臺中市大里區現岱路60號,8,10,72,,24.10036882,30,120.6899251,2020-09-25,08BEAC0A002E,,01:12:47,5,2020-09-25T01:12:47Z,8,SVR/30/7.59,0,acelink.edimax,0,v1.06,0,AI-1003WN
9,1,2,AirBox,臺中市立潭陽國小(2019),臺中市潭子區潭陽路19號,5,5,73,,24.21252,28.7,120.7099783,2020-09-25,08BEAC0A0030,,01:20:01,3,2020-09-25T01:20:01Z,5,SVR/30/9.71,0,acelink.edimax,0,v1.06,0,AI-1003WN
9,1,2,AirBox,臺中市立大甲國中(2019),臺中市大甲區育英路186號,10,10,100,,24.3536577069,25.2,120.622685105,2020-09-25,08BEAC0A0032,,01:23:14,6,2020-09-25T01:23:14Z,10,SVR/30/14.19,0,acelink.edimax,0,v1.06,0,AI-1003WN
9,1,2,AirBox,臺中市立東勢高工(2019),臺中市東勢區東關路6段1328號,8,9,81,,24.24222934,27.3,120.8343828,2020-09-25,08BEAC0A0034,,01:23:15,5,2020-09-25T01:23:15Z,8,SVR/30/17.42,0,acelink.edimax,0,v1.06,0,AI-1003WN
9,1,2,AirBox,臺中市立陽明國小(2019),臺中市大雅區秀山里秀山路365號,8,9,95,,24.22136186,28.1,120.6320624,2020-09-25,08BEAC0A0038,,01:22:53,6,2020-09-25T01:22:53Z,8,SVR/30/7.77,0,acelink.edimax,0,v1.06,0,AI-1003WN
9,1,2,AirBox,臺中市立梧棲國中(2019),臺中市梧棲區文化里民生街12號,13,14,81,,24.2526294,28.2,120.532425,2020-09-25,08BEAC0A003A,,01:23:04,9,2020-09-25T01:23:04Z,7.93,SVR/30/15.7,0,acelink.edimax,0,v1.06,0,AI-1003WN
9,1,2,AirBox,臺中市立惠文高中(2019),臺中市南屯區公益路二段298號,9,10,64,,24.15153028,29.6,120.6398623,2020-09-25,08BEAC0A003E,,01:23:34,6,2020-09-25T01:23:34Z,9,SVR/30/0.13,0,acelink.edimax,0,v1.06,0,AI-1003WN
9,1,2,AirBox,臺南市市立東光國小(2019),臺南市東區東光路一段39號,31,35,78,,22.9916357271,30,120.229852796,2020-09-25,08BEAC0A0040,,01:19:50,19,2020-09-25T01:19:50Z,18.29,GAM/14/2.85,0,acelink.edimax,0,v1.06,0,AI-1003WN
9,1,2,AirBox,桃園市市立內定國小(2019),桃園市中壢區內定里定寧路31號,44,54,100,,24.99374166,25.3,121.2503433,2020-09-25,08BEAC0A0044,,01:24:38,29,2020-09-25T01:24:38Z,N/A,N/A,0,acelink.edimax,0,v1.06,0,AI-1003WN
9,1,2,AirBox,雲林縣縣立大屯國小(2019),雲林縣虎尾鎮東屯里一四七號,19,19,81,,23.70169916,29.2,120.38822,2020-09-25,08BEAC0A0046,,01:21:35,11,2020-09-25T01:21:35Z,14.26,GAM/7/16.0,0,acelink.edimax,0,v1.06,0,AI-1003WN
9,1,2,AirBox,雲林縣縣立台西國中(2019),雲林縣台西鄉中山路四○八號,16,17,100,,23.7015476,29.5,120.1918441,2020-09-25,08BEAC0A004C,,01:19:46,11,2020-09-25T01:19:46Z,6.55,SVR/30/26.7,0,acelink.edimax,0,v1.06,0,AI-1003WN
9,1,2,AirBox,臺中市立文雅國小(2019),臺中市大雅區中山北路235號,10,11,80,,24.21958833,28.2,120.6459116,2020-09-25,08BEAC0A004E,,01:19:53,6,2020-09-25T01:19:53Z,10,SVR/30/7.53,0,acelink.edimax,0,v1.06,0,AI-1003WN
9,1,2,AirBox,臺中市立梨山國中小(2019),臺中市和平區梨山里福壽路10號,1,1,85,,24.2552694,19.6,121.2591337,2020-09-25,08BEAC0A0050,,01:25:03,0,2020-09-25T01:25:03Z,1,SVR/14/46.86,0,acelink.edimax,0,v1.06,0,AI-1003WN
9,1,2,AirBox,臺中市立長億國小(2019),臺中市太平區太平三街295號,8,9,62,,24.11301006,29.6,120.7216618,2020-09-25,08BEAC0A0052,,01:21:31,6,2020-09-25T01:21:31Z,8,SVR/30/9.26,0,acelink.edimax,0,v1.06,0,AI-1003WN
9,1,2,AirBox,臺中市立育英國中(2019),臺中市東區育英路30號,7,7,70,,24.13585153,30.1,120.698321,2020-09-25,08BEAC0A0058,,01:22:35,4,2020-09-25T01:22:35Z,7,SVR/30/6.09,0,acelink.edimax,0,v1.06,0,AI-1003WN
9,1,2,AirBox,臺中市立新社高中(2019),臺中市新社區復盛里中和街三段國中巷10號,6,6,74,,24.1780836,25.8,120.8208018,2020-09-25,08BEAC0A005A,,01:21:50,3,2020-09-25T01:21:50Z,6,SVR/30/18.47,0,acelink.edimax,0,v1.06,0,AI-1003WN
9,1,2,AirBox,臺中市立白冷國小(2019),臺中市和平區天輪里東關路二段天輪巷42號,8,9,80,,24.1834371,26.7,120.930137,2020-09-25,08BEAC0A005C,,01:22:18,5,2020-09-25T01:22:18Z,8,SVR/30/28.17,0,acelink.edimax,0,v1.06,0,AI-1003WN
9,1,2,AirBox,臺中市立梧南國小(2019),臺中市梧棲區文化路一段6號,12,15,100,,24.2526944537,28.2,120.530718863,2020-09-25,08BEAC0A005E,,01:23:13,8,2020-09-25T01:23:13Z,12,SVR/30/15.83,0,acelink.edimax,0,v1.06,0,AI-1003WN
9,1,2,AirBox,臺中市立清海國中(2019),臺中市清水區中央路51之60號,12,14,100,,24.27624814,27.3,120.5535381,2020-09-25,08BEAC0A0060,,01:23:34,8,2020-09-25T01:23:34Z,12,SVR/30/16.42,0,acelink.edimax,0,v1.06,0,AI-1003WN
9,1,2,AirBox,臺中市立清泉國中(2019),臺中市清水區菁埔里臨海路27-2號,9,10,100,,24.30587379,26.1,120.592725,2020-09-25,08BEAC0A0062,,01:21:34,6,2020-09-25T01:21:34Z,9,SVR/30/17.8,0,acelink.edimax,0,v1.06,0,AI-1003WN
9,1,2,AirBox,臺南市市立志開實驗小學(2019),臺南市南區南門路232號,0,0,73,,22.9747444,30.5,120.2041764,2020-09-25,08BEAC0A0064,,01:23:30,0,2020-09-25T01:23:30Z,0,GAM/14/1.15,0,acelink.edimax,0,v1.06,0,AI-1003WN
9,1,2,AirBox,臺中市立東峰國中(2019),臺中市東區仁和路330號,13,14,77,,24.1286832,29.7,120.6907009,2020-09-25,08BEAC0A0066,,01:23:45,7,2020-09-25T01:23:45Z,8.28,SVR/30/5.67,0,acelink.edimax,0,v1.06,0,AI-1003WN
9,1,2,AirBox,桃園市中壢高商(2019),桃園市中壢區中央西路二段141巷100號,36,41,72,,24.9626461,26.5,121.2143131,2020-09-25,08BEAC0A0068,,01:19:07,22,2020-09-25T01:19:07Z,18.9,SVR/7/1.49,0,acelink.edimax,0,v1.06,0,AI-1003WN
9,1,2,AirBox,雲林縣縣立陽明國小(2019),雲林縣崙背鄉水尾村頂街一號,13,14,100,,23.7852019,29.7,120.3556269,2020-09-25,08BEAC0A006A,,01:22:17,8,2020-09-25T01:22:17Z,9.88,GAM/7/20.92,0,acelink.edimax,0,v1.06,0,AI-1003WN
9,1,2,AirBox,臺中市立大里高中(2019),臺中市大里區國中路365號,7,7,79,,24.09485746,31,120.6790546,2020-09-25,08BEAC0A006C,,01:23:55,5,2020-09-25T01:23:55Z,7,SVR/30/7.44,0,acelink.edimax,0,v1.06,0,AI-1003WN
9,1,2,AirBox,臺中市立霧峰農工(2019),臺中市霧峰區中正路1222號,11,12,69,,24.07386045,30,120.7018616,2020-09-25,08BEAC0A006E,,01:19:39,7,2020-09-25T01:19:39Z,11,SVR/30/10.66,0,acelink.edimax,0,v1.06,0,AI-1003WN
9,1,2,AirBox,臺中市立坪林國小(2019),臺中市太平區坪林里坪林路45號,7,7,72,,24.14439782,29.1,120.6815866,2020-09-25,08BEAC0A0070,,01:20:54,4,2020-09-25T01:20:54Z,7,SVR/30/4.2,0,acelink.edimax,0,v1.06,0,AI-1003WN
9,1,2,AirBox,桃園市市立莊敬國小(2019),桃園市桃園區莊一街107號,44,52,77,,25.020471,26.3,121.292611,2020-09-25,08BEAC0A0072,,01:20:04,26,2020-09-25T01:20:04Z,N/A,N/A,0,acelink.edimax,0,v1.06,0,AI-1003WN
9,1,2,AirBox,臺中市立四維國小(2019),臺中市北屯區文心路四段956號,6,7,68,,24.17052666,28.5,120.695755,2020-09-25,08BEAC0A0074,,01:21:11,4,2020-09-25T01:21:11Z,6,SVR/30/5.92,0,acelink.edimax,0,v1.06,0,AI-1003WN
9,1,2,AirBox,桃園市市立林森國小(2019),桃園市中壢區林森路95號,42,51,100,,24.9452966,24,121.2266797,2020-09-25,08BEAC0A0078,,01:21:48,26,2020-09-25T01:21:48Z,20.63,SVR/7/2.44,0,acelink.edimax,0,v1.06,0,AI-1003WN
9,1,2,AirBox,臺中市立省三國小(2019),臺中市北區崇德路一段107號,5,7,71,,24.159763,28.7,120.684232,2020-09-25,08BEAC0A007A,,01:23:27,3,2020-09-25T01:23:27Z,5,SVR/30/4.47,0,acelink.edimax,0,v1.06,0,AI-1003WN
9,1,2,AirBox,雲林縣縣立大有國小(2019),雲林縣崙背鄉大有村大有路十四號,5,7,74,,23.7639764,29.6,120.3091388,2020-09-25,08BEAC0A007C,,01:21:37,2,2020-09-25T01:21:37Z,5,GAM/7/24.69,0,acelink.edimax,0,v1.06,0,AI-1003WN
9,1,2,AirBox,臺中市立合作國小(2019),臺中市豐原區西勢路410號,6,7,79,,24.24046202,28,120.7037366,2020-09-25,08BEAC0A007E,,01:22:27,4,2020-09-25T01:22:27Z,6,SVR/30/11.72,0,acelink.edimax,0,v1.06,0,AI-1003WN
9,1,2,AirBox,桃園市市立高榮國小(2019),桃園市楊梅區高山里高上路一段1號,35,45,100,,24.93685602,26,121.1640445,2020-09-25,08BEAC0A0080,,01:24:53,23,2020-09-25T01:24:53Z,17.58,SVR/7/4.41,0,acelink.edimax,0,v1.06,0,AI-1003WN
9,1,2,AirBox,臺中市立豐東國中(2019),臺中市豐原區豐東路75號,6,7,88,,24.2473302,28.5,120.7289769,2020-09-25,08BEAC0A0082,,01:22:52,3,2020-09-25T01:22:52Z,6,SVR/30/13.86,0,acelink.edimax,0,v1.06,0,AI-1003WN
9,1,2,AirBox,桃園市市立中山國小(2019),桃園市桃園區國際路一段1070號,39,50,97,,24.9864558,25.2,121.2899308,2020-09-25,08BEAC0A0084,,01:23:18,26,2020-09-25T01:23:18Z,N/A,N/A,0,acelink.edimax,0,v1.06,0,AI-1003WN
9,1,2,AirBox,臺中市立僑孝國小(2019),臺中市北屯區北屯路435號,5,5,71,,24.17798374,29.6,120.6993979,2020-09-25,08BEAC0A0086,,01:24:38,3,2020-09-25T01:24:38Z,5,SVR/30/6.59,0,acelink.edimax,0,v1.06,0,AI-1003WN
9,1,2,AirBox,雲林縣縣立興華國小(2019),雲林縣麥寮鄉興華村興化路一號,19,22,90,,23.7591234,28.8,120.2884052,2020-09-25,08BEAC0A0088,,01:23:15,12,2020-09-25T01:23:15Z,14.12,GAM/7/26.64,0,acelink.edimax,0,v1.06,0,AI-1003WN
9,1,2,AirBox,臺中市立東光國小(2019),臺中市北屯區東光路926號,5,6,67,,24.17158833,28.3,120.7016649,2020-09-25,08BEAC0A008A,,01:23:06,3,2020-09-25T01:23:06Z,5,SVR/30/6.53,0,acelink.edimax,0,v1.06,0,AI-1003WN
9,1,2,AirBox,臺中市立公明國中(2019),臺中市沙鹿區公明里中清路6段567號,8,8,98,,24.24918522,26.6,120.5991771,2020-09-25,08BEAC0A008C,,01:19:35,5,2020-09-25T01:19:35Z,8,SVR/30/11.61,0,acelink.edimax,0,v1.06,0,AI-1003WN
9,1,2,AirBox,臺中市立益民國小(2019),臺中市大里區益民路二段48號,6,7,66,,24.113309,31.1,120.683704,2020-09-25,08BEAC0A008E,,01:22:35,3,2020-09-25T01:22:35Z,6,SVR/30/6.11,0,acelink.edimax,0,v1.06,0,AI-1003WN
9,1,2,AirBox,臺中市立喀哩國小(2019),臺中市烏日區溪南路二段370號,14,14,75,,24.06201274,30.1,120.6426954,2020-09-25,08BEAC0A0090,,01:20:25,9,2020-09-25T01:20:25Z,8.78,SVR/30/10.01,0,acelink.edimax,0,v1.06,0,AI-1003WN
9,1,2,AirBox,桃園市市立青溪國中(2019),桃園市桃園區中山東路124號,36,45,92,,24.99677181,25.3,121.3198864,2020-09-25,08BEAC0A0094,,01:22:22,24,2020-09-25T01:22:22Z,N/A,N/A,0,acelink.edimax,0,v1.06,0,AI-1003WN
9,1,2,AirBox,臺中市立成功國小(2019),臺中市東勢區慶東里東關路五段600號,11,12,100,,24.20743674,28,120.8397486,2020-09-25,08BEAC0A0096,,01:20:38,7,2020-09-25T01:20:38Z,11,SVR/30/21.08,0,acelink.edimax,0,v1.06,0,AI-1003WN
9,1,2,AirBox,雲林縣縣立東興國小(2019),雲林縣崙背鄉羅厝村東興路一號,17,18,69,,23.7557317,29,120.3740824,2020-09-25,08BEAC0A0098,,01:21:00,11,2020-09-25T01:21:00Z,12.31,GAM/7/18.06,0,acelink.edimax,0,v1.06,0,AI-1003WN
9,1,2,AirBox,臺中市立大甲高工(2019),臺中市大甲區頂店里開元路71號,6,6,100,,24.346870289,26,120.640031286,2020-09-25,08BEAC0A009A,,01:23:34,4,2020-09-25T01:23:34Z,6,SVR/30/12.7,0,acelink.edimax,0,v1.06,0,AI-1003WN
9,1,2,AirBox,臺中市立泰安國小(2019),臺中市后里區泰安里安眉路五號,9,9,88,,24.325145,27.1,120.7493216,2020-09-25,08BEAC0A009C,,01:21:22,6,2020-09-25T01:21:22Z,9,SVR/30/6.51,0,acelink.edimax,0,v1.06,0,AI-1003WN
9,1,2,AirBox,臺中市立峰谷國小(2019),臺中市霧峰區峰谷路496號,14,15,95,,24.0351578,31.7,120.7244602,2020-09-25,08BEAC0A009E,,01:24:58,9,2020-09-25T01:24:58Z,9.95,GAM/30/14.16,0,acelink.edimax,0,v1.06,0,AI-1003WN
9,1,2,AirBox,桃園市市立祥安國小(2019),桃園市平鎮區湧安路45號,35,42,80,,24.8943698,26.3,121.2025083,2020-09-25,08BEAC0A00A0,,01:21:03,23,2020-09-25T01:21:03Z,17.79,SVR/7/6.52,0,acelink.edimax,0,v1.06,0,AI-1003WN
9,1,2,AirBox,臺中市立立人國小(2019),臺中市北區北平路一段60號,8,8,95,,24.17130183,28.8,120.6690099,2020-09-25,08BEAC0A00A6,,01:21:14,5,2020-09-25T01:21:14Z,8,SVR/30/3.56,0,acelink.edimax,0,v1.06,0,AI-1003WN
9,1,2,AirBox,桃園市市立興仁國小(2019),桃園市中壢區遠東路210號,36,43,74,,24.96775333,26.8,121.26127,2020-09-25,08BEAC0A00A8,,01:21:13,23,2020-09-25T01:21:13Z,N/A,N/A,0,acelink.edimax,0,v1.06,0,AI-1003WN
9,1,2,AirBox,臺中市立國安國小(2019),臺中市西屯區永安里國祥街1號,11,12,81,,24.1940608527,28,120.608397983,2020-09-25,08BEAC0A00AA,,01:22:34,7,2020-09-25T01:22:34Z,11,SVR/30/5.73,0,acelink.edimax,0,v1.06,0,AI-1003WN
9,1,2,AirBox,臺中市立公舘國小(2019),臺中市沙鹿區西勢里中航路二段1號,26,27,86,,24.26003344,27.8,120.5955112,2020-09-25,08BEAC0A00AC,,01:20:17,13,2020-09-25T01:20:17Z,13.51,SVR/30/12.87,0,acelink.edimax,0,v1.06,0,AI-1003WN
9,1,2,AirBox,臺中市立大甲國小(2019),臺中市大甲區育德路233號,9,9,68,,24.35142701,27.6,120.6259604,2020-09-25,08BEAC0A00AE,,01:21:04,6,2020-09-25T01:21:04Z,9,SVR/30/13.93,0,acelink.edimax,0,v1.06,0,AI-1003WN
9,1,2,AirBox,臺中市立北勢國小(2019),臺中市沙鹿區六路里南陽路376號,0,0,65,,24.21803155,28.2,120.5710915,2020-09-25,08BEAC0A00B0,,01:19:53,0,2020-09-25T01:19:53Z,0,SVR/30/10.21,0,acelink.edimax,0,v1.06,0,AI-1003WN
9,1,2,AirBox,雲林縣縣立忠孝國小(2019),雲林縣元長鄉龍岩村一四八號,12,13,84,,23.6209632,28.1,120.3148439,2020-09-25,08BEAC0A00B8,,01:21:22,8,2020-09-25T01:21:22Z,12,SVR/30/18.43,0,acelink.edimax,0,v1.06,0,AI-1003WN
9,1,2,AirBox,雲林縣縣立尚德國小(2019),雲林縣台西鄉溪頂村十二號,18,20,100,,23.683141,29.6,120.1893844,2020-09-25,08BEAC0A00BA,,01:24:57,12,2020-09-25T01:24:57Z,7.35,SVR/30/24.77,0,acelink.edimax,0,v1.06,0,AI-1003WN
9,1,2,AirBox,桃園市市立大崙國中(2019),桃園市中壢區月眉路一段50號,39,46,100,,24.99150931,26,121.1802184,2020-09-25,08BEAC0A00BC,,01:21:59,24,2020-09-25T01:21:59Z,21.23,SVR/7/4.91,0,acelink.edimax,0,v1.06,0,AI-1003WN
9,1,2,AirBox,雲林縣縣立林頭國小(2019),雲林縣斗六市林頭里榮譽路一七七號,25,26,94,,23.7049451,30.2,120.5576005,2020-09-25,08BEAC0A00BE,,01:24:07,15,2020-09-25T01:24:07Z,17.27,GAM/7/1.5,0,acelink.edimax,0,v1.06,0,AI-1003WN
9,1,2,AirBox,臺南市市立賀建國小(2019),臺南市下營區賀建里麻豆寮49號,20,20,96,,23.2541103,31.3,120.2964614,2020-09-25,08BEAC0A00C0,,01:23:19,12,2020-09-25T01:23:19Z,15.49,RFR/30/6.14,0,acelink.edimax,0,v1.06,0,AI-1003WN
9,1,2,AirBox,雲林縣縣立仁德國小(2019),雲林縣元長鄉內寮村內寮路六號,16,16,100,,23.6174322,27.5,120.3515269,2020-09-25,08BEAC0A00C2,,01:24:09,9,2020-09-25T01:24:09Z,N/A,N/A,0,acelink.edimax,0,v1.06,0,AI-1003WN
9,1,2,AirBox,雲林縣縣立內湖國小(2019),雲林縣四湖鄉內湖村三塊厝一二三號,16,17,100,,23.63004148,29.6,120.1942384,2020-09-25,08BEAC0A00C4,,01:21:27,11,2020-09-25T01:21:27Z,6.54,SVR/30/18.94,0,acelink.edimax,0,v1.06,0,AI-1003WN
9,1,2,AirBox,臺中市立仁美國小(2019),臺中市北屯區崇德路三段568號,5,6,66,,24.1915279737,28,120.687303208,2020-09-25,08BEAC0A00C6,,01:21:32,3,2020-09-25T01:21:32Z,5,SVR/30/6.43,0,acelink.edimax,0,v1.06,0,AI-1003WN
9,1,2,AirBox,臺中市立中正國小(2019),臺中市西區英才路423號,4,5,69,,24.1517195113,29.7,120.666274019,2020-09-25,08BEAC0A00C8,,01:23:02,3,2020-09-25T01:23:02Z,4,SVR/30/2.56,0,acelink.edimax,0,v1.06,0,AI-1003WN
9,1,2,AirBox,臺南市市立菁寮國小(2019),臺南市後壁區墨林里282號,28,29,84,,23.379029664,31.5,120.339182653,2020-09-25,08BEAC0A00CA,,01:24:32,18,2020-09-25T01:24:32Z,25.33,RFR/30/8.43,0,acelink.edimax,0,v1.06,0,AI-1003WN
9,1,2,AirBox,雲林縣縣立中山國小(2019),雲林縣西螺鎮廣福里新街路二號,12,13,89,,23.79530041,29.3,120.4655531,2020-09-25,08BEAC0A00CC,,01:23:37,8,2020-09-25T01:23:37Z,12,GAM/7/12.3,0,acelink.edimax,0,v1.06,0,AI-1003WN
9,1,2,AirBox,臺南市市立海佃國小(2019),臺南市安南區郡安路五段56號,29,35,74,,22.99793387,29.7,120.2346701,2020-09-25,08BEAC0A00CE,,01:19:43,16,2020-09-25T01:19:43Z,17.49,GAM/14/3.55,0,acelink.edimax,0,v1.06,0,AI-1003WN
9,1,2,AirBox,桃園市市立楊梅國小(2019),桃園市楊梅區校前路1號,33,38,92,,24.9058683,26.2,121.1446092,2020-09-25,08BEAC0A00D0,,01:23:40,22,2020-09-25T01:23:40Z,16.07,SVR/7/7.96,0,acelink.edimax,0,v1.06,0,AI-1003WN
9,1,2,AirBox,臺南市市立六甲國小(2019),臺南市六甲區中正路319號,23,24,98,,23.2258581,29,120.3502928,2020-09-25,08BEAC0A00D2,,01:23:08,13,2020-09-25T01:23:08Z,22.26,RFR/30/9.54,0,acelink.edimax,0,v1.06,0,AI-1003WN
9,1,2,AirBox,臺南市市立聖賢國小(2019),臺南市東山區聖賢里田尾29號,29,30,100,,23.3060984347,29,120.362503119,2020-09-25,08BEAC0A00D4,,01:22:29,18,2020-09-25T01:22:29Z,14.11,RFR/30/4.65,0,acelink.edimax,0,v1.06,0,AI-1003WN
9,1,2,AirBox,雲林縣縣立建華國小(2019),雲林縣四湖鄉羊稠村建華路卅五號,15,16,100,,23.6399402,29.7,120.2005182,2020-09-25,08BEAC0A00D6,,01:24:34,10,2020-09-25T01:24:34Z,6.15,SVR/30/19.83,0,acelink.edimax,0,v1.06,0,AI-1003WN
9,1,2,AirBox,臺南市市立安佃國小(2019),臺南市安南區海佃路四段493號,30,33,100,,23.0638325,29.5,120.1732611,2020-09-25,08BEAC0A00DA,,01:23:56,16,2020-09-25T01:23:56Z,17.96,GAM/14/9.28,0,acelink.edimax,0,v1.06,0,AI-1003WN
9,1,2,AirBox,臺南市市立新東國小(2019),臺南市後壁區仕安里81號,29,31,92,,23.34510512,27.8,120.3162232,2020-09-25,08BEAC0A00E0,,01:23:53,17,2020-09-25T01:23:53Z,20.07,RFR/30/4.35,0,acelink.edimax,0,v1.06,0,AI-1003WN
9,1,2,AirBox,臺中市立槺榔國小(2019),臺中市清水區中央路23-12號,10,10,100,,24.26408639,27.6,120.5454129,2020-09-25,08BEAC0A00E4,,01:19:55,7,2020-09-25T01:19:55Z,10,SVR/30/15.79,0,acelink.edimax,0,v1.06,0,AI-1003WN
9,1,2,AirBox,臺南市市立長安國小(2019),臺南市安南區長溪路三段249號,36,44,70,,23.0635214,29.7,120.2009613,2020-09-25,08BEAC0A00E6,,01:25:02,21,2020-09-25T01:25:02Z,19.37,GAM/14/8.73,0,acelink.edimax,0,v1.06,0,AI-1003WN
9,1,2,AirBox,臺南市市立中洲國小(2019),臺南市學甲區光華里645號,26,29,100,,23.2455639,27.6,120.159882,2020-09-25,08BEAC0A00EA,,01:20:46,15,2020-09-25T01:20:46Z,13.46,RFR/30/17.4,0,acelink.edimax,0,v1.06,0,AI-1003WN
9,1,2,AirBox,臺中市立瑞峰國小(2019),臺中市大肚區蔗廍里太平路一號,11,12,82,,24.16890711,26.7,120.5740796,2020-09-25,08BEAC0A00EE,,01:20:17,7,2020-09-25T01:20:17Z,11,SVR/30/7.04,0,acelink.edimax,0,v1.06,0,AI-1003WN
9,1,2,AirBox,臺南市市立新營國小(2019),臺南市新營區中正路4號,30,33,87,,23.3066693153,28.6,120.316803306,2020-09-25,08BEAC0A00F0,,01:24:09,18,2020-09-25T01:24:09Z,20.97,RFR/30/0.08,0,acelink.edimax,0,v1.06,0,AI-1003WN
9,1,2,AirBox,雲林縣縣立客厝國小(2019),雲林縣元長鄉頂寮村十一號,19,19,100,,23.62827658,27.5,120.3341907,2020-09-25,08BEAC0A00F2,,01:19:59,12,2020-09-25T01:19:59Z,7.95,SVR/30/19.97,0,acelink.edimax,0,v1.06,0,AI-1003WN
9,1,2,AirBox,桃園市市立快樂國小(2019),桃園市桃園區大有路789號,36,43,80,,25.01886,24.8,121.3149216,2020-09-25,08BEAC0A00F4,,01:20:35,22,2020-09-25T01:20:35Z,N/A,N/A,0,acelink.edimax,0,v1.06,0,AI-1003WN
9,1,2,AirBox,雲林縣縣立東光國小(2019),雲林縣四湖鄉溪底村成功路十一號,34,35,77,,23.6518196,29.1,120.2722556,2020-09-25,08BEAC0A00F6,,01:22:11,30,2020-09-25T01:22:11Z,22.12,SVR/30/20.7,0,acelink.edimax,0,v1.06,0,AI-1003WN
9,1,2,AirBox,臺南市市立日新國小(2019),臺南市南區金華路一段473號,38,47,96,,22.97315514,30.1,120.1900188,2020-09-25,08BEAC0A00F8,,01:23:48,22,2020-09-25T01:23:48Z,22.57,GAM/14/1.87,0,acelink.edimax,0,v1.06,0,AI-1003WN
9,1,2,AirBox,臺南市市立吉貝耍國小(2019),臺南市東山區東河里15號,17,23,80,,23.2946492,30.3,120.3860203,2020-09-25,08BEAC0A00FA,,01:22:52,11,2020-09-25T01:22:52Z,14.75,RFR/30/7.16,0,acelink.edimax,0,v1.06,0,AI-1003WN
9,1,2,AirBox,臺南市市立西勢國小(2019),臺南市永康區富強路一段278號,30,34,96,,23.0188516,29.6,120.2755474,2020-09-25,08BEAC0A00FE,,01:21:36,17,2020-09-25T01:21:36Z,18.01,GAM/14/8.33,0,acelink.edimax,0,v1.06,0,AI-1003WN
9,1,2,AirBox,嘉義縣縣立沙坑國小(2019),嘉義縣竹崎鄉沙坑村57之2號,32,35,77,,23.485855,28.2,120.563627,2020-09-25,08BEAC0A0100,,01:23:18,18,2020-09-25T01:23:18Z,N/A,N/A,0,acelink.edimax,0,v1.06,0,AI-1003WN
9,1,2,AirBox,臺中市立甲南國小(2019),臺中市清水區臨海路26號,11,11,70,,24.30474724,28.7,120.5955373,2020-09-25,08BEAC0A0104,,01:21:18,7,2020-09-25T01:21:18Z,11,SVR/30/17.6,0,acelink.edimax,0,v1.06,0,AI-1003WN
9,1,2,AirBox,臺中市立新光國小(2019),臺中市太平區新興里新興路200號,7,8,74,,24.15970731,28.1,120.7066892,2020-09-25,08BEAC0A0106,,01:23:42,5,2020-09-25T01:23:42Z,7,SVR/30/6.72,0,acelink.edimax,0,v1.06,0,AI-1003WN
9,1,2,AirBox,嘉義縣縣立永安國小(2019),嘉義縣布袋鎮永安里126之2號,15,16,100,,23.37129694,27.5,120.1820403,2020-09-25,08BEAC0A0108,,00:41:58,10,2020-09-25T00:41:58Z,6.26,SVR/30/12.59,0,acelink.edimax,0,v1.06,0,AI-1003WN
9,1,2,AirBox,臺中市立三田國小(2019),臺中市清水區田寮里三田路四號,10,11,100,,24.2898460217,27.2,120.581068285,2020-09-25,08BEAC0A010C,,01:19:23,8,2020-09-25T01:19:23Z,10,SVR/30/16.49,0,acelink.edimax,0,v1.06,0,AI-1003WN
9,1,2,AirBox,臺中市立西寧國小(2019),臺中市清水區西寧里五權東路50號,10,11,100,,24.27672829,27.2,120.5748482,2020-09-25,08BEAC0A010E,,01:21:33,6,2020-09-25T01:21:33Z,10,SVR/30/15.41,0,acelink.edimax,0,v1.06,0,AI-1003WN
9,1,2,AirBox,臺中市立石角國小(2019),臺中市東勢區隆興里東坑路西盛巷22號,9,10,97,,24.23771682,27.2,120.8510768,2020-09-25,08BEAC0A0112,,01:24:21,7,2020-09-25T01:24:21Z,9,SVR/30/18.66,0,acelink.edimax,0,v1.06,0,AI-1003WN
9,1,2,AirBox,臺中市立宜欣國小(2019),臺中市太平區新平路二段100號,7,8,68,,24.139548,29.5,120.715134,2020-09-25,08BEAC0A0114,,01:24:20,5,2020-09-25T01:24:20Z,7,SVR/30/7.65,0,acelink.edimax,0,v1.06,0,AI-1003WN
9,1,2,AirBox,臺中市立新平國小(2019),臺中市太平區樹孝路336巷9號,7,8,70,,24.15486847,29.3,120.7200819,2020-09-25,08BEAC0A0116,,01:19:57,5,2020-09-25T01:19:57Z,7,SVR/30/8.03,0,acelink.edimax,0,v1.06,0,AI-1003WN
9,1,2,AirBox,嘉義縣縣立溪口國小(2019),嘉義縣溪口鄉溪北村中山路53號,27,29,87,,23.60423288,28.1,120.393445,2020-09-25,08BEAC0A0118,,01:24:05,17,2020-09-25T01:24:05Z,N/A,N/A,0,acelink.edimax,0,v1.06,0,AI-1003WN
9,1,2,AirBox,臺中市立石城國小(2019),臺中市東勢區茂興里石城街182巷26號,6,6,74,,24.26330288,28,120.829574,2020-09-25,08BEAC0A011C,,01:23:32,4,2020-09-25T01:23:32Z,6,SVR/30/15.11,0,acelink.edimax,0,v1.06,0,AI-1003WN
9,1,2,AirBox,臺中市立吉峰國小(2019),臺中市霧峰區吉峰里民生路349號,10,11,74,,24.0784752,30,120.7184616,2020-09-25,08BEAC0A011E,,01:20:43,7,2020-09-25T01:20:43Z,10,SVR/30/11.34,0,acelink.edimax,0,v1.06,0,AI-1003WN
