SiteAddr,SiteName,adf_status,app,area,c_d0,c_d0_method,date,device_id,fw_ver,gps_alt,gps_fix,gps_lat,gps_lon,gps_num,hcho,model,name,odm,s_d0,s_d1,s_d2,s_g1,s_g8,s_gg,s_h0,s_t0,time,timestamp
雲林縣斗南鎮延平路二段六四二號,雲林縣縣立僑真國小,0,AirBox,,94.08,Theil-Sen/21/8.7,2020-05-24,08BEAC0A0270,v1.06,2.0,1.0,23.6676036,120.4744785,9.0,0,AI-1003WN,,acelink.edimax,56.0,70.0,32.0,0.0,0.0,0.0,100.0,28.1,01:36:17,2020-05-24T01:36:17Z
嘉義縣水上鄉大崙村111號,嘉義縣縣立大崙國小,0,AirBox,,33.47,Theil-Sen/30/8.66,2020-05-24,08BEAC0A06D8,v1.06,2.0,1.0,23.44376,120.358493,9.0,0,AI-1003WN,,acelink.edimax,50.0,63.0,29.0,0.0,0.0,0.0,99.0,28.3,01:34:41,2020-05-24T01:34:41Z
臺中市西區自由路一段97號,臺中市立居仁國中,0,AirBox,,11.84,BRR/30/4.16,2020-05-24,08BEAC0A0274,v1.06,2.0,1.0,24.1372706422,120.678788871,9.0,0,AI-1003WN,,acelink.edimax,20.0,22.0,11.0,0.0,0.0,0.0,75.0,29.6,01:35:15,2020-05-24T01:35:15Z
雲林縣斗南鎮新崙里港漧一號,雲林縣縣立大東國小,0,AirBox,,75.22,Theil-Sen/21/10.81,2020-05-24,08BEAC0A0276,v1.06,2.0,1.0,23.6763018,120.4461987,9.0,0,AI-1003WN,,acelink.edimax,44.0,55.0,27.0,0.0,0.0,0.0,97.0,29.6,01:35:50,2020-05-24T01:35:50Z
臺南市新營區太南里316號,臺南市市立新營區新興國小,0,AirBox,,N/A,N/A,2020-05-24,08BEAC0A06D4,v1.06,2.0,1.0,23.2867671,120.2762647,9.0,0,AI-1003WN,,acelink.edimax,50.0,62.0,31.0,0.0,0.0,0.0,99.0,27.8,01:36:50,2020-05-24T01:36:50Z
桃園市龍潭區神龍路346號,桃園市市立雙龍國小,0,AirBox,,N/A,N/A,2020-05-24,08BEAC0A0278,v1.06,2.0,1.0,24.8565817972,121.215067729,9.0,0,AI-1003WN,,acelink.edimax,7.0,8.0,4.0,0.0,0.0,0.0,82.0,26.1,01:38:54,2020-05-24T01:38:54Z
嘉義縣竹崎鄉竹崎村文化路23號,嘉義縣縣立竹崎高中附設國中,0,AirBox,,1.01,Theil-Sen/30/13.12,2020-05-24,08BEAC0A06D6,v1.06,2.0,1.0,23.5202646,120.55313,9.0,0,AI-1003WN,,acelink.edimax,0.0,0.0,0.0,0.0,0.0,0.0,100.0,28.2,01:35:25,2020-05-24T01:35:25Z
桃園市復興區霞雲里六鄰14號,桃園市市立霞雲國小,0,AirBox,,0.17,BRR/30/21.43,2020-05-24,08BEAC0A06D0,v1.06,2.0,1.0,24.81653666,121.3834933,9.0,0,AI-1003WN,,acelink.edimax,0.0,0.0,0.0,0.0,0.0,0.0,100.0,27.0,01:38:54,2020-05-24T01:38:54Z
臺南市仁德區後壁里中正路二段209號,臺南市市立德南國小,0,AirBox,,20.64,Theil-Sen/14/1.8,2020-05-24,08BEAC0A06D2,v1.06,2.0,1.0,22.97778288,120.1866072,9.0,0,AI-1003WN,,acelink.edimax,48.0,61.0,26.0,0.0,0.0,0.0,100.0,28.3,01:38:05,2020-05-24T01:38:05Z
N/A,08BEAC028B32,,AirBox,new_taipei,12.36,BRR/30/9.77,2020-05-24,08BEAC028B32,,2.0,1.0,25.06024561,121.3698173,9.0,,,A08站3月台,,18.0,21.0,11.0,,,,79.0,25.75,01:34:58,2020-05-24T01:34:58Z
臺中市北屯區文心路四段956號,臺中市立四維國小,0,AirBox,,6.93,BRR/30/5.92,2020-05-24,08BEAC0A0074,v1.06,2.0,1.0,24.17052666,120.695755,9.0,0,AI-1003WN,,acelink.edimax,13.0,14.0,7.0,0.0,0.0,0.0,83.0,29.1,01:35:16,2020-05-24T01:35:16Z
臺中市太平區坪林里坪林路45號,臺中市立坪林國小,0,AirBox,,7.4,BRR/30/4.19,2020-05-24,08BEAC0A0070,v1.06,2.0,1.0,24.14439782,120.6815866,9.0,0,AI-1003WN,,acelink.edimax,14.0,16.0,7.0,0.0,0.0,0.0,83.0,29.5,01:38:52,2020-05-24T01:38:52Z
N/A,74DA38B0538E,,AirBox,keelung,N/A,N/A,2020-05-24,74DA38B0538E,,2.0,1.0,25.143,121.734,9.0,,,神奇寶貝-流浪頭基地,,11.0,13.0,9.0,,,,100.0,25.12,01:34:20,2020-05-24T01:34:20Z
N/A,74DA38B0538A,,AirBox,taipei,5.84,BRR/14/4.88,2020-05-24,74DA38B0538A,,2.0,1.0,25.041,121.556,9.0,,,神奇寶貝-達芙妮上面,,9.0,10.0,6.0,,,,100.0,27.37,01:31:21,2020-05-24T01:31:21Z
桃園市中壢區林森路95號,桃園市市立林森國小,0,AirBox,,N/A,N/A,2020-05-24,08BEAC0A0078,v1.06,2.0,1.0,24.9452966,121.2266797,9.0,0,AI-1003WN,,acelink.edimax,10.0,12.0,5.0,0.0,0.0,0.0,100.0,26.1,01:32:11,2020-05-24T01:32:11Z
N/A,74DA38ED057C,,AirBox,kaohsiung,12.6,Theil-Sen/30/4.32,2020-05-24,74DA38ED057C,,2.0,1.0,22.636,120.33,9.0,,,IndoorSanmin,,10.0,10.0,7.0,,,,70.0,28.11,01:33:45,2020-05-24T01:33:45Z
臺南市南化區西埔里117號,臺南市市立西埔國小,0,AirBox,,14.63,Theil-Sen/30/20.06,2020-05-24,08BEAC0A061A,v1.06,2.0,1.0,23.04614931,120.4456755,9.0,0,AI-1003WN,,acelink.edimax,26.0,29.0,14.0,0.0,0.0,0.0,100.0,28.6,01:36:07,2020-05-24T01:36:07Z
N/A,74DA38F6FEF4,,AirBox,taipei,11.1,BRR/14/4.71,2020-05-24,74DA38F6FEF4,,2.0,1.0,25.035,121.553,9.0,,,EdiGreen,,6.0,7.0,4.0,,,,67.0,27.37,01:36:37,2020-05-24T01:36:37Z
嘉義縣溪口鄉坪頂村中正東路103號,嘉義縣縣立溪口國中,0,AirBox,,28.34,Theil-Sen/30/16.41,2020-05-24,08BEAC0A061E,v1.06,2.0,1.0,23.60394623,120.3939419,9.0,0,AI-1003WN,,acelink.edimax,43.0,53.0,26.0,0.0,0.0,0.0,100.0,29.2,01:39:49,2020-05-24T01:39:49Z
高雄市興糖國小 高雄市橋頭區興糖路19巷1號,高雄市市立興糖國小,,AirBox,kaohsiung,18.44,Theil-Sen/30/13.37,2020-05-24,74DA38F20B88,,2.0,1.0,22.75,120.316,9.0,,,興糖國小2,,38.0,47.0,22.0,,,,100.0,26.62,01:34:33,2020-05-24T01:34:33Z
N/A,74DA38E69BC0,,AirBox,kaohsiung,11.72,Theil-Sen/30/5.04,2020-05-24,74DA38E69BC0,,2.0,1.0,22.674,120.308,9.0,,,DT 室內,,9.0,10.0,6.0,,,,73.0,27.12,01:32:38,2020-05-24T01:32:38Z
N/A,74DA38B0514C,,AirBox,taipei,6.91,BRR/14/6.85,2020-05-24,74DA38B0514C,,2.0,1.0,25.002,121.555,9.0,,,PM2.5_box,,3.0,4.0,2.0,,,,80.0,26.37,01:36:59,2020-05-24T01:36:59Z
高雄市過埤國小 高雄市鳳山區過埤里過埤路176號,高雄市市立過埤國小,,AirBox,kaohsiung,16.91,Theil-Sen/30/8.88,2020-05-24,74DA38F20B84,,2.0,1.0,22.591,120.362,9.0,,,高雄市立過埤國小,,36.0,44.0,21.0,,,,100.0,28.5,01:31:33,2020-05-24T01:31:33Z
N/A,74DA38B0514E,,AirBox,taoyuan,4.58,BRR/30/2.52,2020-05-24,74DA38B0514E,,2.0,1.0,25.018,121.304,9.0,,,Ian,,3.0,3.0,2.0,,,,74.0,26.5,01:35:05,2020-05-24T01:35:05Z
高雄市溪洲國小 高雄市旗山區旗南二路126號,高雄市市立溪洲國小,,AirBox,kaohsiung,7.72,Theil-Sen/30/7.85,2020-05-24,74DA38F20B82,,2.0,1.0,22.847,120.465,9.0,,,高雄市旗山區溪洲國小,,12.0,13.0,8.0,,,,100.0,26.12,01:33:22,2020-05-24T01:33:22Z
高雄市中崙國小 高雄市鳳山區中崙四路25號,高雄市市立中崙國小,,AirBox,kaohsiung,20.24,Theil-Sen/30/7.37,2020-05-24,74DA38F20B80,,2.0,1.0,22.599,120.35,9.0,,,高雄市鳳山區中崙國小,,42.0,52.0,24.0,,,,100.0,26.75,01:33:01,2020-05-24T01:33:01Z
N/A,74DA38AF47E4,,AirBox,miaoli,4.01,BRR/30/13.96,2020-05-24,74DA38AF47E4,,2.0,1.0,24.682,120.871,9.0,,,AzureSky,,6.0,8.0,4.0,,,,100.0,26.12,01:33:59,2020-05-24T01:33:59Z
Yangming,陽明-2,,AirBox,yilan,6.86,BRR/14/3.7,2020-05-24,08BEAC028A6E,,2.0,1.0,25.0513097,121.5443192,9.0,,,手動站：陽明站-2（A6E）,,11.0,12.0,6.0,,,,100.0,23.37,01:34:47,2020-05-24T01:34:47Z
Yangming,陽明-1,,AirBox,yilan,8.0,BRR/14/3.66,2020-05-24,08BEAC028A6C,,2.0,1.0,25.051,121.544,9.0,,,手動站：陽明站-1（A6C）,,10.0,11.0,5.0,,,,92.0,23.12,01:35:35,2020-05-24T01:35:35Z
[912]屏東縣內埔鄉老埤村壽比路116號,屏東縣縣立泰安國小,,AirBox,pingtung,17.68,BRR/30/11.88,2020-05-24,74DA38F20A74,,2.0,1.0,22.63,120.594,9.0,,,屏東縣泰安國小,,34.0,40.0,21.0,,,,100.0,26.5,01:31:45,2020-05-24T01:31:45Z
N/A,74DA38B051F4,,AirBox,taipei,6.0,BRR/14/2.21,2020-05-24,74DA38B051F4,,2.0,1.0,25.034,121.525,9.0,,,James,,0.0,0.0,0.0,,,,77.0,27.87,01:33:03,2020-05-24T01:33:03Z
桃園市桃園區同德十一街48號,桃園市市立同安國小,0,AirBox,,13.79,BRR/30/2.98,2020-05-24,08BEAC09FFB4,v1.06,2.0,1.0,25.02174333,121.2991216,9.0,0,AI-1003WN,,acelink.edimax,20.0,21.0,12.0,0.0,0.0,0.0,78.0,28.8,01:37:54,2020-05-24T01:37:54Z
臺南市麻豆區南勢里86號,臺南市市立文正國小,0,AirBox,,N/A,N/A,2020-05-24,08BEAC0A0472,v1.06,2.0,1.0,23.18719587,120.2660892,9.0,0,AI-1003WN,,acelink.edimax,66.0,76.0,35.0,0.0,0.0,0.0,100.0,28.0,01:37:36,2020-05-24T01:37:36Z
桃園市楊梅區梅溪里19鄰三民北路26巷41號,桃園市市立瑞梅國小,0,AirBox,,N/A,N/A,2020-05-24,08BEAC0A0470,v1.06,2.0,1.0,24.91027731,121.1713391,9.0,0,AI-1003WN,,acelink.edimax,12.0,15.0,8.0,0.0,0.0,0.0,76.0,27.1,01:35:27,2020-05-24T01:35:27Z
嘉義縣東石鄉三家村16號,嘉義縣縣立三江國小,0,AirBox,,10.2,BRR/14/7.47,2020-05-24,08BEAC09FFB0,v1.06,2.0,1.0,23.46882076,120.1745889,9.0,0,AI-1003WN,,acelink.edimax,17.0,19.0,9.0,0.0,0.0,0.0,90.0,29.3,01:37:52,2020-05-24T01:37:52Z
N/A,74DA38AF47B4,,AirBox,changhua,0.0,LR/30/2.25,2020-05-24,74DA38AF47B4,,2.0,1.0,24.086,120.538,9.0,,,JUAN,,3.0,3.0,2.0,,,,91.0,26.75,01:36:44,2020-05-24T01:36:44Z
臺中市霧峰區北勢里豐正路五六六號,臺中市立光正國小,0,AirBox,,14.86,BRR/30/10.47,2020-05-24,08BEAC09FFB2,v1.06,2.0,1.0,24.06093892,120.6675654,9.0,0,AI-1003WN,,acelink.edimax,33.0,35.0,21.0,0.0,0.0,0.0,94.0,29.3,01:36:43,2020-05-24T01:36:43Z
N/A,74DA38AF47B6,,AirBox,kaohsiung,16.15,Theil-Sen/30/2.48,2020-05-24,74DA38AF47B6,,2.0,1.0,22.626,120.265,9.0,,,社科院室內,,28.0,31.0,19.0,,,,89.0,28.0,01:30:07,2020-05-24T01:30:07Z
Xizhi,汐止-2,,AirBox,yilan,9.11,BRR/14/3.7,2020-05-24,08BEAC028A66,,2.0,1.0,25.0513022,121.5443653,9.0,,,手動站：汐止站-2（A66）,,13.0,14.0,8.0,,,,94.0,24.87,01:36:16,2020-05-24T01:36:16Z
N/A,AirBox-NUS-08,,AirBox,,N/A,N/A,2020-05-24,08BEAC0286E4,,2.0,1.0,1.293,103.842,9.0,,,SG_CENTRAL _INDOOR,,6.0,7.0,4.0,,,,69.0,25.75,01:33:43,2020-05-24T01:33:43Z
N/A,74DA38B051FA,,AirBox,chiayi_county,29.65,Theil-Sen/30/15.14,2020-05-24,74DA38B051FA,,2.0,1.0,23.598,120.458,9.0,,,信義街,,44.0,63.0,30.0,,,,100.0,27.5,01:34:46,2020-05-24T01:34:46Z
Puzi,朴子-2,,AirBox,taipei,17.98,BRR/14/3.68,2020-05-24,08BEAC028A62,,2.0,1.0,25.04170237,121.5440922,9.0,,,手動站：朴子站-2（A62）,,26.0,32.0,15.0,,,,83.0,29.5,01:34:15,2020-05-24T01:34:15Z
Nantou,南投-1,,AirBox,yilan,20.84,BRR/14/3.68,2020-05-24,08BEAC028A60,,2.0,1.0,25.04170237,121.5440922,9.0,,,手動站：南投站-1（A60）,,28.0,31.0,15.0,,,,74.0,30.5,01:32:05,2020-05-24T01:32:05Z
臺南市七股區大埕里大寮36之2號,臺南市市立大文國小,0,AirBox,,54.34,Theil-Sen/14/19.1,2020-05-24,08BEAC0A047C,v1.04,2.0,1.0,23.15038132,120.1536375,9.0,0,AI-1003WN,,acelink.edimax,124.0,136.0,39.0,0.0,0.0,0.0,100.0,29.2,01:37:21,2020-05-24T01:37:21Z
臺中市霧峰區南柳里柳豐路535號,臺中市立光復國中小,0,AirBox,,12.41,BRR/30/12.99,2020-05-24,08BEAC09FFBE,v1.06,2.0,1.0,24.04397822,120.689895,9.0,0,AI-1003WN,,acelink.edimax,23.0,24.0,13.0,0.0,0.0,0.0,80.0,29.7,01:39:41,2020-05-24T01:39:41Z
桃園市八德區永豐路155號,桃園市市立茄苳國小,0,AirBox,,0.19,BRR/30/4.35,2020-05-24,08BEAC0A047A,v1.06,2.0,1.0,24.9645944,121.2777675,9.0,0,AI-1003WN,,acelink.edimax,0.0,0.0,0.0,0.0,0.0,0.0,100.0,27.3,01:39:53,2020-05-24T01:39:53Z
[955]臺東縣鹿野鄉瑞豐村中山路67號,台東縣縣立瑞豐國小,,AirBox,taitung,2.27,PA/14/24.79,2020-05-24,74DA38F20AAC,,2.0,1.0,22.978,121.137,9.0,,,臺東縣瑞豐國小觀測站,,0.0,0.0,0.0,,,,100.0,25.0,01:31:47,2020-05-24T01:31:47Z
臺中市神岡區豐洲路482號,臺中市立豐洲國小,0,AirBox,,114.91,LR/30/3.86,2020-05-24,08BEAC09FFBA,v1.06,2.0,1.0,24.26235666,120.70418,9.0,0,AI-1003WN,,acelink.edimax,9.0,10.0,5.0,0.0,0.0,0.0,80.0,28.6,01:35:32,2020-05-24T01:35:32Z
臺南市龍崎區新市子258號,臺南市市立龍崎國中,0,AirBox,,15.81,Theil-Sen/14/16.31,2020-05-24,08BEAC0A047E,v1.06,2.0,1.0,22.96851238,120.3609613,9.0,0,AI-1003WN,,acelink.edimax,37.0,45.0,19.0,0.0,0.0,0.0,100.0,28.0,01:34:54,2020-05-24T01:34:54Z
雲林縣崙背鄉豐榮村豐榮路廿一號,雲林縣縣立豐榮國小,0,AirBox,,30.19,Theil-Sen/21/25.35,2020-05-24,08BEAC09FFBC,v1.06,2.0,1.0,23.79183769,120.311746,9.0,0,AI-1003WN,,acelink.edimax,16.0,19.0,9.0,0.0,0.0,0.0,73.0,29.2,01:36:04,2020-05-24T01:36:04Z
嘉義縣水上鄉忠和村6之2號,嘉義縣縣立忠和國中,0,AirBox,,38.73,Theil-Sen/30/4.31,2020-05-24,08BEAC0A0612,v1.06,2.0,1.0,23.4252309,120.4514224,9.0,0,AI-1003WN,,acelink.edimax,53.0,66.0,29.0,0.0,0.0,0.0,87.0,28.1,01:39:00,2020-05-24T01:39:00Z
N/A,74DA38E69DA6,,AirBox,taichuang,5.38,BRR/30/2.49,2020-05-24,74DA38E69DA6,,2.0,1.0,24.157,120.665,9.0,,,科博館室內展示機,,0.0,0.0,0.0,,,,60.0,21.12,01:32:37,2020-05-24T01:32:37Z
臺南市東山區東中里青葉路一段132號,臺南市市立東山國中,0,AirBox,,N/A,N/A,2020-05-24,08BEAC0A0616,v1.06,2.0,1.0,23.31694659,120.4030698,9.0,0,AI-1003WN,,acelink.edimax,51.0,66.0,29.0,0.0,0.0,0.0,88.0,28.0,01:34:33,2020-05-24T01:34:33Z
桃園市桃園區南平路487號,桃園市市立同德國中,0,AirBox,,8.81,BRR/30/2.52,2020-05-24,08BEAC0A0614,v1.06,2.0,1.0,25.0158367,121.2936759,9.0,0,AI-1003WN,,acelink.edimax,10.0,12.0,7.0,0.0,0.0,0.0,72.0,28.1,01:38:57,2020-05-24T01:38:57Z
N/A,74DA38C7D1D6,,AirBox,pingtung,9.33,BRR/30/24.08,2020-05-24,74DA38C7D1D6,,2.0,1.0,22.46,120.446,9.0,,,東港鎮興漁里,,16.0,18.0,11.0,,,,95.0,28.36,01:31:29,2020-05-24T01:31:29Z
[358]苗栗縣苑裡鎮中正里111號,苗栗縣縣立中正國小,,AirBox,miaoli,0.77,LR/14/11.1,2020-05-24,74DA38F20852,,2.0,1.0,24.428,120.661,9.0,,,苗栗縣中正國小,,8.0,9.0,5.0,,,,100.0,26.12,01:34:35,2020-05-24T01:34:35Z
N/A,74DA38C7D1D4,,AirBox,taipei,8.55,BRR/14/2.58,2020-05-24,74DA38C7D1D4,,2.0,1.0,25.026,121.52,9.0,,,kjt,,3.0,4.0,2.0,,,,72.0,26.87,01:36:26,2020-05-24T01:36:26Z
[365]苗栗縣泰安鄉士林村5鄰26號,苗栗縣縣立士林國小,,AirBox,miaoli,0.0,LR/14/17.79,2020-05-24,74DA38F20B8C,,2.0,1.0,24.347,120.93,9.0,,,苗栗縣士林國小,,2.0,3.0,1.0,,,,100.0,23.62,01:31:49,2020-05-24T01:31:49Z
高雄市旗尾國小 高雄市旗山區延平二路19號,高雄市市立旗尾國小,,AirBox,kaohsiung,8.38,Theil-Sen/30/3.95,2020-05-24,74DA38F20B8A,,2.0,1.0,22.882,120.492,9.0,,,高雄市旗山區旗尾國小2,,13.0,15.0,10.0,,,,100.0,25.62,01:33:52,2020-05-24T01:33:52Z
高雄市明宗國小 高雄市湖內區公館里保生路103號,高雄市市立明宗國小,,AirBox,NA,23.35,Theil-Sen/14/8.96,2020-05-24,74DA38F20A34,,2.0,1.0,22.906,120.222,9.0,,,高雄市湖內區明宗國小,,53.0,70.0,29.0,,,,100.0,26.5,01:33:57,2020-05-24T01:33:57Z
臺中市豐原區西勢路410號,臺中市立合作國小,0,AirBox,,22.2,LR/30/4.25,2020-05-24,08BEAC0A007E,v1.06,2.0,1.0,24.24046202,120.7037366,9.0,0,AI-1003WN,,acelink.edimax,15.0,17.0,9.0,0.0,0.0,0.0,98.0,27.6,01:34:55,2020-05-24T01:34:55Z
雲林縣崙背鄉大有村大有路十四號,雲林縣縣立大有國小,0,AirBox,,14.25,Theil-Sen/21/24.7,2020-05-24,08BEAC0A007C,v1.06,2.0,1.0,23.7639764,120.3091388,9.0,0,AI-1003WN,,acelink.edimax,6.0,7.0,2.0,0.0,0.0,0.0,88.0,29.6,01:35:04,2020-05-24T01:35:04Z
N/A,新北市北大高中,,AirBox,new_taipei,8.84,BRR/30/8.61,2020-05-24,74DA38F20A30,,2.0,1.0,24.948,121.372,9.0,,,新北市北大高中,,12.0,14.0,7.0,,,,81.0,26.37,01:35:06,2020-05-24T01:35:06Z
臺中市北區崇德路一段107號,臺中市立省三國小,0,AirBox,,7.74,BRR/30/4.46,2020-05-24,08BEAC0A007A,v1.06,2.0,1.0,24.159763,120.684232,9.0,0,AI-1003WN,,acelink.edimax,14.0,16.0,8.0,0.0,0.0,0.0,81.0,29.7,01:36:05,2020-05-24T01:36:05Z
N/A,74DA38B05384,,AirBox,taichuang,7.17,BRR/30/8.25,2020-05-24,74DA38B05384,,2.0,1.0,24.17,120.72,9.0,,,YuYao Chang Living Room,,6.0,6.0,4.0,,,,63.0,28.36,01:37:03,2020-05-24T01:37:03Z
N/A,08BEAC028880,,AirBox,taichuang,9.41,BRR/30/7.69,2020-05-24,08BEAC028880,,2.0,1.0,24.21896993,120.6597032,9.0,,,民峰實業股份有限公司大雅預拌混凝土廠行車路徑,,12.0,13.0,8.0,,,,64.0,34.75,01:35:13,2020-05-24T01:35:13Z
雲林縣水林鄉大溝村一號,雲林縣縣立大興國小,0,AirBox,,11.16,BRR/14/11.63,2020-05-24,08BEAC0A027A,v1.06,2.0,1.0,23.56601178,120.2105462,9.0,0,AI-1003WN,,acelink.edimax,18.0,21.0,9.0,0.0,0.0,0.0,100.0,30.0,01:36:03,2020-05-24T01:36:03Z
臺中市東勢區東崎路5段415號,臺中市立東勢國中,0,AirBox,,45.72,LR/30/11.14,2020-05-24,08BEAC0A027C,v1.06,2.0,1.0,24.257442,120.851617,9.0,0,AI-1003WN,,acelink.edimax,10.0,11.0,6.0,0.0,0.0,0.0,93.0,27.6,01:38:18,2020-05-24T01:38:18Z
桃園市大溪區瑞興里一鄰大鶯路1125號,桃園市市立中興國小,0,AirBox,,5.67,BRR/30/7.86,2020-05-24,08BEAC0A027E,v1.06,2.0,1.0,24.92485458,121.3102443,9.0,0,AI-1003WN,,acelink.edimax,7.0,8.0,4.0,0.0,0.0,0.0,85.0,27.0,01:37:16,2020-05-24T01:37:16Z
N/A,74DA38AF475E,,AirBox,new_taipei,9.5,BRR/14/2.29,2020-05-24,74DA38AF475E,,2.0,1.0,25.064,121.496,9.0,,,SC-indoor,,0.0,0.0,0.0,,,,60.0,28.25,01:33:26,2020-05-24T01:33:26Z
嘉義縣阿里山鄉豐山村47號,嘉義縣縣立豐山實驗國(中)小,0,AirBox,,16.24,Theil-Sen/21/25.78,2020-05-24,08BEAC0A06DE,v1.06,2.0,1.0,23.5759516,120.7500601,9.0,0,AI-1003WN,,acelink.edimax,8.0,8.0,4.0,0.0,0.0,0.0,94.0,25.0,01:37:58,2020-05-24T01:37:58Z
臺南市永康區文賢街68巷1號,臺南市市立大灣高中附設國中,0,AirBox,,21.78,Theil-Sen/14/7.3,2020-05-24,08BEAC0A06DA,v1.06,2.0,1.0,23.02736947,120.2566919,9.0,0,AI-1003WN,,acelink.edimax,44.0,56.0,23.0,0.0,0.0,0.0,87.0,28.5,01:34:58,2020-05-24T01:34:58Z
N/A,74DA38AF4796,,AirBox,taoyuan,N/A,N/A,2020-05-24,74DA38AF4796,,2.0,1.0,24.911,121.151,9.0,,,桃園縣楊梅鎮自立街,,14.0,16.0,11.0,,,,100.0,25.25,01:32:46,2020-05-24T01:32:46Z
臺南市七股區義合里74之2號,臺南市市立竹橋國中,0,AirBox,,21.74,Theil-Sen/14/14.4,2020-05-24,08BEAC0A06DC,v1.06,2.0,1.0,23.10140477,120.1418082,9.0,0,AI-1003WN,,acelink.edimax,47.0,60.0,28.0,0.0,0.0,0.0,93.0,28.5,01:39:32,2020-05-24T01:39:32Z
N/A,新北市秀朗國小,,AirBox,new_taipei,6.47,BRR/14/5.55,2020-05-24,74DA38F7C368,,2.0,1.0,24.998,121.521,9.0,,,秀朗國小,,7.0,9.0,4.0,,,,92.0,24.62,01:32:54,2020-05-24T01:32:54Z
N/A,74DA38EBF656,,AirBox,taichuang,6.6,LR/14/14.63,2020-05-24,74DA38EBF656,,2.0,1.0,24.35,120.619,9.0,,,myPM2.5_56,,8.0,8.0,4.0,,,,76.0,29.11,01:33:57,2020-05-24T01:33:57Z
臺北市內湖區樂康里康樂街131號,市立東湖國中,,AirBox,taipei,5.32,LR/14/2.41,2020-05-24,74DA38F7C5BA,,2.0,1.0,25.072,121.619,9.0,,,台北市內湖區東湖國中2018,,9.0,10.0,5.0,,,,100.0,22.87,01:34:52,2020-05-24T01:34:52Z
雲林縣東勢鄉東南村東榮路廿九巷九號,雲林縣縣立東勢國小,0,AirBox,,8.86,BRR/14/23.04,2020-05-24,08BEAC0A02F6,v1.06,2.0,1.0,23.67411553,120.2570503,9.0,0,AI-1003WN,,acelink.edimax,11.0,13.0,6.0,0.0,0.0,0.0,97.0,31.2,01:34:42,2020-05-24T01:34:42Z
臺中市大肚區社腳里沙田路一段八五四巷二四號,臺中市立大忠國小,0,AirBox,,1.38,LR/30/7.74,2020-05-24,08BEAC0A02F4,v1.06,2.0,1.0,24.13430025,120.55636,9.0,0,AI-1003WN,,acelink.edimax,11.0,12.0,7.0,0.0,0.0,0.0,100.0,29.5,01:37:45,2020-05-24T01:37:45Z
臺中市大肚區福山村沙田路一段364號,臺中市立追分國小,0,AirBox,,8.96,LR/30/6.82,2020-05-24,08BEAC0A02F2,v1.06,2.0,1.0,24.12223999,120.568245,9.0,0,AI-1003WN,,acelink.edimax,18.0,21.0,9.0,0.0,0.0,0.0,100.0,29.1,01:39:37,2020-05-24T01:39:37Z
雲林縣斗六市莊敬路一一一號,雲林縣縣立雲林國小,0,AirBox,,83.03,Theil-Sen/21/1.06,2020-05-24,08BEAC0A02F0,v1.06,2.0,1.0,23.70283896,120.5483153,9.0,0,AI-1003WN,,acelink.edimax,49.0,63.0,28.0,0.0,0.0,0.0,90.0,28.8,01:35:37,2020-05-24T01:35:37Z
嘉義縣布袋鎮永安里126之2號,嘉義縣縣立永安國小,0,AirBox,,15.43,BRR/14/12.59,2020-05-24,08BEAC0A0108,v1.06,2.0,1.0,23.37129694,120.1820403,9.0,0,AI-1003WN,,acelink.edimax,31.0,39.0,19.0,0.0,0.0,0.0,100.0,27.8,01:36:12,2020-05-24T01:36:12Z
臺中市清水區臨海路26號,臺中市立甲南國小,0,AirBox,,114.24,LR/30/15.75,2020-05-24,08BEAC0A0104,v1.06,2.0,1.0,24.30474724,120.5955373,9.0,0,AI-1003WN,,acelink.edimax,8.0,10.0,5.0,0.0,0.0,0.0,80.0,29.6,01:37:35,2020-05-24T01:37:35Z
桃園市八德區興豐路222號,桃園市市立八德國小,0,AirBox,,6.84,BRR/30/7.78,2020-05-24,08BEAC0A02F8,v1.06,2.0,1.0,24.928085,121.2831983,9.0,0,AI-1003WN,,acelink.edimax,9.0,9.0,5.0,0.0,0.0,0.0,84.0,26.3,01:37:53,2020-05-24T01:37:53Z
嘉義縣竹崎鄉沙坑村57之2號,嘉義縣縣立沙坑國小,0,AirBox,,38.77,Theil-Sen/30/12.78,2020-05-24,08BEAC0A0100,v1.06,2.0,1.0,23.485855,120.563627,9.0,0,AI-1003WN,,acelink.edimax,53.0,69.0,28.0,0.0,0.0,0.0,88.0,27.3,01:34:39,2020-05-24T01:34:39Z
桃園市桃園區大有路789號,桃園市市立快樂國小,0,AirBox,,14.8,BRR/30/2.82,2020-05-24,08BEAC0A00F4,v1.06,2.0,1.0,25.01886,121.3149216,9.0,0,AI-1003WN,,acelink.edimax,22.0,24.0,14.0,0.0,0.0,0.0,78.0,27.3,01:37:44,2020-05-24T01:37:44Z
雲林縣四湖鄉溪底村成功路十一號,雲林縣縣立東光國小,0,AirBox,,10.97,BRR/14/20.69,2020-05-24,08BEAC0A00F6,v1.06,2.0,1.0,23.6518196,120.2722556,9.0,0,AI-1003WN,,acelink.edimax,20.0,23.0,11.0,0.0,0.0,0.0,94.0,28.5,01:39:04,2020-05-24T01:39:04Z
臺南市新營區中正路4號,臺南市市立新營國小,0,AirBox,,N/A,N/A,2020-05-24,08BEAC0A00F0,v1.06,2.0,1.0,23.3066693153,120.316803306,9.0,0,AI-1003WN,,acelink.edimax,57.0,70.0,32.0,0.0,0.0,0.0,95.0,28.0,01:36:43,2020-05-24T01:36:43Z
雲林縣虎尾鎮墾地里光復莊11鄰卅九號,雲林縣縣立光復國小,0,AirBox,,68.59,Theil-Sen/21/14.95,2020-05-24,08BEAC0A0296,v1.06,2.0,1.0,23.74082309,120.40158,9.0,0,AI-1003WN,,acelink.edimax,40.0,50.0,25.0,0.0,0.0,0.0,92.0,28.8,01:39:03,2020-05-24T01:39:03Z
雲林縣大埤鄉怡然村怡然路九二號,雲林縣縣立舊庄國小,0,AirBox,,71.61,Theil-Sen/21/17.02,2020-05-24,08BEAC0A0294,v1.06,2.0,1.0,23.63316893,120.4016321,9.0,0,AI-1003WN,,acelink.edimax,42.0,54.0,27.0,0.0,0.0,0.0,100.0,28.1,01:34:32,2020-05-24T01:34:32Z
臺南市南區金華路一段473號,臺南市市立日新國小,0,AirBox,,22.37,Theil-Sen/14/1.81,2020-05-24,08BEAC0A00F8,v1.06,2.0,1.0,22.97315514,120.1900188,9.0,0,AI-1003WN,,acelink.edimax,52.0,66.0,31.0,0.0,0.0,0.0,100.0,28.5,01:34:49,2020-05-24T01:34:49Z
臺南市左鎮區中正里7號,臺南市市立左鎮國小,0,AirBox,,15.2,Theil-Sen/14/22.1,2020-05-24,08BEAC0A0292,v1.06,2.0,1.0,23.05596794,120.4041667,9.0,0,AI-1003WN,,acelink.edimax,36.0,49.0,22.0,0.0,0.0,0.0,100.0,28.6,01:39:09,2020-05-24T01:39:09Z
雲林縣二崙鄉三和村二鄰十七號,雲林縣縣立三和國小,0,AirBox,,4.38,Theil-Sen/21/14.57,2020-05-24,08BEAC0A0290,v1.06,2.0,1.0,23.750533,120.4082809,9.0,0,AI-1003WN,,acelink.edimax,0.0,0.0,0.0,0.0,0.0,0.0,100.0,28.7,01:39:46,2020-05-24T01:39:46Z
N/A,08BEAC02862E,,AirBox,taichuang,11.62,BRR/30/4.21,2020-05-24,08BEAC02862E,,2.0,1.0,24.13984523,120.6018107,9.0,,,寶文,,16.0,17.0,11.0,,,,63.0,34.36,01:33:40,2020-05-24T01:33:40Z
N/A,74DA38C7CE8E,,AirBox,taichuang,7.6,BRR/30/15.25,2020-05-24,74DA38C7CE8E,,2.0,1.0,22.75,120.365,9.0,,,高雄市大社區嘉誠國小(中走廊),,6.0,7.0,4.0,,,,80.0,28.86,01:32:53,2020-05-24T01:32:53Z
N/A,74DA38C7D38E,,AirBox,hsinchu_city,8.2,PA/14/0.13,2020-05-24,74DA38C7D38E,,2.0,1.0,24.805,120.971,9.0,,,新竹市教育網路中心,,4.0,5.0,3.0,,,,69.0,26.5,01:31:22,2020-05-24T01:31:22Z
高雄市岡山國小 高雄市岡山區柳橋東路36號,高雄市市立岡山國小,,AirBox,kaohsiung,23.99,Theil-Sen/30/17.62,2020-05-24,74DA38F210B4,,2.0,1.0,22.791,120.293,9.0,,,高雄市岡山區岡山國小2,,50.0,65.0,29.0,,,,100.0,26.5,01:34:20,2020-05-24T01:34:20Z
臺中市西屯區永安里國祥街1號,臺中市立國安國小,0,AirBox,,10.16,BRR/30/5.74,2020-05-24,08BEAC0A00AA,v1.06,2.0,1.0,24.1940608527,120.608397983,9.0,0,AI-1003WN,,acelink.edimax,19.0,21.0,10.0,0.0,0.0,0.0,81.0,30.5,01:26:24,2020-05-24T01:26:24Z
高雄市金竹國小 高雄市內門區金竹里吉民28號,高雄市市立金竹國小,,AirBox,kaohsiung,5.42,Theil-Sen/30/14.05,2020-05-24,74DA38F210B6,,2.0,1.0,23.009,120.514,9.0,,,高雄市內門區金竹國小,,8.0,10.0,5.0,,,,100.0,26.75,01:32:53,2020-05-24T01:32:53Z
N/A,08BEAC028622,,AirBox,nantou,21.88,LR/30/0.97,2020-05-24,08BEAC028622,,2.0,1.0,23.905,120.689,9.0,,,佳音英語-南投分校,,29.0,32.0,14.0,,,,72.0,28.5,01:36:30,2020-05-24T01:36:30Z
高雄市忠義國小 高雄市大寮區忠義路1號,高雄市市立忠義國小,,AirBox,kaohsiung,21.65,Theil-Sen/30/10.02,2020-05-24,74DA38F210B0,,2.0,1.0,22.616,120.384,9.0,,,高雄市大寮區忠義國小,,45.0,57.0,27.0,,,,100.0,26.62,01:32:59,2020-05-24T01:32:59Z
高雄市昭明國小 高雄市大寮區鳳林一路300巷80號,高雄市市立昭明國小,,AirBox,NA,16.06,Theil-Sen/30/15.91,2020-05-24,74DA38F210B2,,2.0,1.0,22.542,120.408,9.0,,,高雄市大寮區昭明國小,,22.0,24.0,15.0,,,,78.0,28.25,01:34:13,2020-05-24T01:34:13Z
N/A,08BEAC028626,,AirBox,taichuang,2.33,BRR/30/10.4,2020-05-24,08BEAC028626,,2.0,1.0,24.0988032,120.7253972,9.0,,,myPM2.5_26,,11.0,12.0,7.0,,,,100.0,34.61,01:31:53,2020-05-24T01:31:53Z
高雄市景義國小 高雄市內門區永富里萊坑8號,高雄市市立景義國小,,AirBox,NA,8.95,Theil-Sen/30/8.92,2020-05-24,74DA38F210B8,,2.0,1.0,22.956,120.493,9.0,,,高雄市景義國小,,14.0,15.0,8.0,,,,100.0,25.5,01:32:59,2020-05-24T01:32:59Z
高雄市立大社國民中學 高雄市大社區神農里翠屏路100號,高雄市市立大社國中,,AirBox,kaohsiung,15.61,Theil-Sen/30/12.84,2020-05-24,74DA38F20C22,,2.0,1.0,22.729,120.357,9.0,,,高雄市立大社國中,,32.0,36.0,21.0,,,,100.0,26.87,01:33:00,2020-05-24T01:33:00Z
臺南市永康區富強路一段278號,臺南市市立西勢國小,0,AirBox,,18.19,Theil-Sen/14/8.38,2020-05-24,08BEAC0A00FE,v1.06,2.0,1.0,23.0188516,120.2755474,9.0,0,AI-1003WN,,acelink.edimax,43.0,55.0,24.0,0.0,0.0,0.0,100.0,29.1,01:39:33,2020-05-24T01:39:33Z
臺南市東山區東河里15號,臺南市市立吉貝耍國小,0,AirBox,,N/A,N/A,2020-05-24,08BEAC0A00FA,v1.06,2.0,1.0,23.2946492,120.3860203,9.0,0,AI-1003WN,,acelink.edimax,57.0,76.0,34.0,0.0,0.0,0.0,96.0,28.5,01:35:01,2020-05-24T01:35:01Z
N/A,新北市鶯歌國小,,AirBox,new_taipei,4.5,BRR/30/6.41,2020-05-24,74DA38F7C302,,2.0,1.0,24.951,121.345,9.0,,,鶯歌國小,,8.0,9.0,4.0,,,,100.0,25.12,01:33:32,2020-05-24T01:33:32Z
高雄市立鼎金國民中學 高雄市三民區灣成里007鄰鼎山街４４５號,高雄市市立鼎金國中,,AirBox,kaohsiung,11.1,Theil-Sen/30/4.2,2020-05-24,74DA38F20C24,,2.0,1.0,22.655,120.321,9.0,,,鼎金國中,,15.0,16.0,10.0,,,,86.0,27.5,01:33:37,2020-05-24T01:33:37Z
臺中市梧棲區大村里文明街100號,臺中市立中港國小,0,AirBox,,3.27,BRR/30/13.18,2020-05-24,08BEAC0A029E,v1.06,2.0,1.0,24.2410935,120.5553943,9.0,0,AI-1003WN,,acelink.edimax,6.0,7.0,3.0,0.0,0.0,0.0,84.0,29.0,01:35:49,2020-05-24T01:35:49Z
臺中市南區忠明南路653號,臺中市立崇倫國中,0,AirBox,,13.69,BRR/30/2.86,2020-05-24,08BEAC0A029C,v1.06,2.0,1.0,24.13197002,120.6588999,9.0,0,AI-1003WN,,acelink.edimax,25.0,28.0,14.0,0.0,0.0,0.0,79.0,28.6,01:39:30,2020-05-24T01:39:30Z
雲林縣莿桐鄉莿桐村中正路二○六號,雲林縣縣立莿桐國小,0,AirBox,,83.03,Theil-Sen/21/6.9,2020-05-24,08BEAC0A029A,v1.06,2.0,1.0,23.757105,120.4986287,9.0,0,AI-1003WN,,acelink.edimax,49.0,61.0,29.0,0.0,0.0,0.0,98.0,28.8,01:38:25,2020-05-24T01:38:25Z
N/A,74DA38F6FEF6,,AirBox,taipei,11.95,BRR/14/1.39,2020-05-24,74DA38F6FEF6,,2.0,1.0,25.039,121.519,9.0,,,08-16,,2.0,2.0,1.0,,,,53.0,25.62,01:37:12,2020-05-24T01:37:12Z
嘉義縣朴子市山通路11號,嘉義縣縣立朴子國小,0,AirBox,,14.68,BRR/14/0.03,2020-05-24,08BEAC0A02FA,v1.06,2.0,1.0,23.46733408,120.2475585,9.0,0,AI-1003WN,,acelink.edimax,29.0,34.0,16.0,0.0,0.0,0.0,100.0,28.0,01:36:55,2020-05-24T01:36:55Z
[952]臺東縣蘭嶼鄉東清村1號,台東縣縣立東清國小,,AirBox,taitung,2.91,BRR/14/80.64,2020-05-24,74DA38F20870,,2.0,1.0,22.056,121.564,9.0,,,臺東縣蘭嶼鄉東清國小,,1.0,1.0,0.0,,,,100.0,27.62,01:34:02,2020-05-24T01:34:02Z
臺中市清水區西寧里五權東路50號,臺中市立西寧國小,0,AirBox,,0.77,BRR/30/15.41,2020-05-24,08BEAC0A010E,v1.06,2.0,1.0,24.27672829,120.5748482,9.0,0,AI-1003WN,,acelink.edimax,7.0,8.0,4.0,0.0,0.0,0.0,100.0,29.8,01:35:47,2020-05-24T01:35:47Z
臺中市清水區田寮里三田路四號,臺中市立三田國小,0,AirBox,,0.95,BRR/30/16.5,2020-05-24,08BEAC0A010C,v1.06,2.0,1.0,24.2898460217,120.581068285,9.0,0,AI-1003WN,,acelink.edimax,7.0,8.0,4.0,0.0,0.0,0.0,100.0,27.8,01:34:35,2020-05-24T01:34:35Z
臺中市梧棲區民生街45號,臺中市立梧棲國小,0,AirBox,,7.61,BRR/30/15.39,2020-05-24,08BEAC0A010A,v1.06,2.0,1.0,24.2447870393,120.528528504,9.0,0,AI-1003WN,,acelink.edimax,12.0,15.0,8.0,0.0,0.0,0.0,77.0,28.2,01:38:59,2020-05-24T01:38:59Z
N/A,74DA38EBF65C,,AirBox,NA,31.63,LR/7/3.5,2020-05-24,74DA38EBF65C,,2.0,1.0,24.414,118.284,9.0,,,金門塔山電廠警衛室,,48.0,59.0,30.0,,,,100.0,26.12,01:31:25,2020-05-24T01:31:25Z
N/A,74DA38EBF5AE,,AirBox,taichuang,3.74,BRR/30/6.61,2020-05-24,74DA38EBF5AE,,2.0,1.0,24.195,120.686,9.0,,,Peterpen,,4.0,4.0,3.0,,,,77.0,27.0,01:35:15,2020-05-24T01:35:15Z
[959]臺東縣東河鄉北源村順那21號,台東縣縣立北源國小,,AirBox,taitung,2.3,PA/14/34.71,2020-05-24,74DA38F209E0,,2.0,1.0,23.039,121.292,9.0,,,臺東縣東河鄉北源國小,,0.0,0.0,0.0,,,,100.0,24.5,01:35:02,2020-05-24T01:35:02Z
N/A,74DA38ED068E,,AirBox,new_taipei,10.98,BRR/14/8.88,2020-05-24,74DA38ED068E,,2.0,1.0,24.979,121.555,9.0,,,Tao home,,9.0,15.0,10.0,,,,75.0,26.62,01:34:24,2020-05-24T01:34:24Z
N/A,74DA38EBF908,,AirBox,kaohsiung,11.32,Theil-Sen/30/2.38,2020-05-24,74DA38EBF908,,2.0,1.0,22.626,120.266,9.0,,,NSYSU MEM,,17.0,17.0,11.0,,,,88.0,28.11,01:35:44,2020-05-24T01:35:44Z
N/A,08BEAC028718,,AirBox,new_taipei,N/A,N/A,2020-05-24,08BEAC028718,,2.0,1.0,25.001,121.203,9.0,,,A19站1月台,,7.0,8.0,5.0,,,,82.0,25.87,01:31:09,2020-05-24T01:31:09Z
N/A,74DA38EBF902,,AirBox,chiayi_city,33.78,Theil-Sen/30/2.07,2020-05-24,74DA38EBF902,,2.0,1.0,23.477,120.454,9.0,,,third brother food,,49.0,61.0,30.0,,,,97.0,27.25,01:32:27,2020-05-24T01:32:27Z
N/A,74DA38AF47A2,,AirBox,taipei,5.18,BRR/14/1.48,2020-05-24,74DA38AF47A2,,2.0,1.0,25.057,121.517,9.0,,,Erick inhouse,,0.0,0.0,0.0,,,,81.0,27.25,01:35:19,2020-05-24T01:35:19Z
N/A,08BEAC028712,,AirBox,new_taipei,13.03,BRR/30/9.73,2020-05-24,08BEAC028712,,2.0,1.0,25.06618062,121.3611068,9.0,,,A09站2月台,,19.0,21.0,12.0,,,,78.0,25.87,01:33:45,2020-05-24T01:33:45Z
N/A,AirBox-NTUH-09,,AirBox,taipei,3.71,BRR/14/4.24,2020-05-24,74DA388FF4CA,,2.0,1.0,25.018,121.536,9.0,,,NTU10,,4.0,0.0,0.0,,,,98.0,24.75,01:34:51,2020-05-24T01:34:51Z
N/A,新北市永和幼兒園,,AirBox,new_taipei,9.34,BRR/14/5.62,2020-05-24,74DA38F7C4DA,,2.0,1.0,24.997,121.519,9.0,,,新北市立永和幼兒園,,9.0,10.0,5.0,,,,83.0,25.5,01:34:16,2020-05-24T01:34:16Z
Meinong,美濃-2,,AirBox,new_taipei,9.24,BRR/14/3.85,2020-05-24,74DA38EBF7C6,,2.0,1.0,25.038,121.545,9.0,,,手動站：美濃站-2（7C6）,,8.0,9.0,5.0,,,,81.0,28.25,01:33:55,2020-05-24T01:33:55Z
N/A,新北市鷺江國中,,AirBox,new_taipei,14.52,LR/14/5.64,2020-05-24,74DA38F7C4DE,,2.0,1.0,25.09,121.462,9.0,,,鷺江國中_空氣盒子,,16.0,17.0,10.0,,,,91.0,25.25,01:35:19,2020-05-24T01:35:19Z
N/A,74DA38EBF924,,AirBox,tainan,10.62,Theil-Sen/14/17.95,2020-05-24,74DA38EBF924,,2.0,1.0,23.115,120.306,9.0,,,陽光二路15巷LM,,26.0,32.0,13.0,,,,100.0,29.0,01:32:45,2020-05-24T01:32:45Z
嘉義縣中埔鄉同仁村24號,嘉義縣縣立同仁國小,0,AirBox,,38.59,Theil-Sen/30/9.84,2020-05-24,08BEAC0A05A8,v1.06,2.0,1.0,23.40327855,120.5122117,9.0,0,AI-1003WN,,acelink.edimax,58.0,79.0,32.0,0.0,0.0,0.0,100.0,27.7,01:35:25,2020-05-24T01:35:25Z
N/A,74DA38EBF83E,,AirBox,kaohsiung,20.45,Theil-Sen/30/4.71,2020-05-24,74DA38EBF83E,,2.0,1.0,22.66,120.323,9.0,,,明誠一路真愛大樓10F陽台(室外),,42.0,52.0,24.0,,,,98.0,27.62,01:35:43,2020-05-24T01:35:43Z
N/A,74DA38EBF83C,,AirBox,taipei,6.16,BRR/14/2.07,2020-05-24,74DA38EBF83C,,2.0,1.0,25.029,121.501,9.0,,,華南銀行,,8.0,9.0,5.0,,,,96.0,26.5,01:34:25,2020-05-24T01:34:25Z
臺中市和平區南勢里東關路三段崑崙巷62號,臺中市立和平國中,0,AirBox,,27.6,LR/30/16.77,2020-05-24,08BEAC0A019E,v1.06,2.0,1.0,24.17844518,120.88321,9.0,0,AI-1003WN,,acelink.edimax,7.0,8.0,3.0,0.0,0.0,0.0,96.0,25.5,01:35:04,2020-05-24T01:35:04Z
N/A,新北市欽賢國中,,AirBox,new_taipei,N/A,N/A,2020-05-24,74DA38F7C548,,2.0,1.0,25.107,121.815,9.0,,,myPM2.5_48,,11.0,13.0,6.0,,,,98.0,24.37,01:36:52,2020-05-24T01:36:52Z
雲林縣口湖鄉下崙村福安路九一號,雲林縣縣立下崙國小,0,AirBox,,8.78,BRR/14/18.56,2020-05-24,08BEAC0A05A2,v1.06,2.0,1.0,23.6129488,120.1592585,9.0,0,AI-1003WN,,acelink.edimax,15.0,15.0,8.0,0.0,0.0,0.0,80.0,28.6,01:38:43,2020-05-24T01:38:43Z
臺南市安平區郡平路310號,臺南市市立億載國小,0,AirBox,,22.95,Theil-Sen/14/4.07,2020-05-24,08BEAC0A05A6,v1.06,2.0,1.0,22.990522,120.1634051,9.0,0,AI-1003WN,,acelink.edimax,53.0,69.0,31.0,0.0,0.0,0.0,100.0,28.0,01:38:12,2020-05-24T01:38:12Z
[358]苗栗縣苑裡鎮水坡里70號,苗栗縣縣立林森國小,,AirBox,miaoli,43.82,LR/14/10.14,2020-05-24,74DA38F20904,,2.0,1.0,24.438,120.679,9.0,,,苗栗縣林森國小,,6.0,7.0,3.0,,,,0.0,-4.0,01:30:21,2020-05-24T01:30:21Z
N/A,74DA38E2B4FA,,AirBox,nantou,5.19,BRR/30/3.08,2020-05-24,74DA38E2B4FA,,2.0,1.0,24.148,120.611,9.0,,,文山區(室內),,3.0,4.0,2.0,,,,66.0,27.75,01:36:27,2020-05-24T01:36:27Z
N/A,74DA38E2B4FC,,AirBox,taipei,10.67,BRR/14/4.05,2020-05-24,74DA38E2B4FC,,2.0,1.0,25.016,121.53,9.0,,,tony pm2.5,,10.0,12.0,7.0,,,,79.0,26.12,01:36:57,2020-05-24T01:36:57Z
[263]宜蘭縣壯圍鄉吉祥村壯五路55號,宜蘭縣縣立壯圍國小,,AirBox,yilan,0.0,LR/14/4.44,2020-05-24,74DA38F20900,,2.0,1.0,24.743,121.79,9.0,,,宜蘭縣壯圍國小,,1.0,2.0,0.0,,,,100.0,24.75,01:36:52,2020-05-24T01:36:52Z
[941]屏東縣枋山鄉楓港村舊庄280號,屏東縣縣立獅子國中,,AirBox,pingtung,5.41,BRR/14/28.84,2020-05-24,74DA38F20902,,2.0,1.0,22.204,120.7,9.0,,,屏東縣獅子國中,,6.0,6.0,3.0,,,,100.0,26.75,01:31:41,2020-05-24T01:31:41Z
N/A,THU_USR_15,,AirBox,taichuang,6.71,BRR/30/10.22,2020-05-24,74DA38EBF928,,2.0,1.0,24.227,120.583,9.0,,,THUUSR-15,,5.0,8.0,5.0,,,,60.0,34.11,01:32:23,2020-05-24T01:32:23Z
N/A,74DA38C7CF36,,AirBox,nantou,12.63,LR/30/20.31,2020-05-24,74DA38C7CF36,,2.0,1.0,23.918,120.885,9.0,,,林試所蓮華池研究中心,,18.0,21.0,10.0,,,,92.0,24.87,01:33:46,2020-05-24T01:33:46Z
N/A,74DA38B050B6,,AirBox,tainan,15.59,Theil-Sen/14/4.22,2020-05-24,74DA38B050B6,,2.0,1.0,22.995,120.163,9.0,,,原住民文化會館_4G,,36.0,45.0,24.0,,,,100.0,27.12,01:34:55,2020-05-24T01:34:55Z
N/A,74DA38F70196,,AirBox,new_taipei,10.57,BRR/30/7.95,2020-05-24,74DA38F70196,,2.0,1.0,24.192,120.706,9.0,,,川順五工區,,14.0,16.0,10.0,,,,66.0,28.86,01:32:15,2020-05-24T01:32:15Z
桃園市龜山區文昌五街95號,桃園市市立文欣國小,0,AirBox,,12.15,BRR/30/9.7,2020-05-24,08BEAC0A07C2,v1.06,2.0,1.0,25.0576701,121.3717622,9.0,0,AI-1003WN,,acelink.edimax,18.0,19.0,11.0,0.0,0.0,0.0,81.0,25.8,01:39:39,2020-05-24T01:39:39Z
桃園市觀音區上大里大湖路一段540號,桃園市市立上大國小,0,AirBox,,N/A,N/A,2020-05-24,08BEAC0A07C4,v1.06,2.0,1.0,24.97919964,121.1466079,9.0,0,AI-1003WN,,acelink.edimax,8.0,9.0,5.0,0.0,0.0,0.0,86.0,27.0,01:39:37,2020-05-24T01:39:37Z
[913]屏東縣萬丹鄉新鐘村新鐘路8號,屏東縣縣立萬新國中,,AirBox,pingtung,19.73,BRR/30/12.36,2020-05-24,74DA38F2090A,,2.0,1.0,22.562,120.492,9.0,,,萬新國中空氣盒子,,39.0,47.0,22.0,,,,100.0,27.0,01:37:03,2020-05-24T01:37:03Z
桃園市蘆竹區富國路二段850號,桃園市市立蘆竹國小,0,AirBox,,9.04,BRR/30/7.21,2020-05-24,08BEAC0A07C6,v1.06,2.0,1.0,25.05065364,121.2670755,9.0,0,AI-1003WN,,acelink.edimax,15.0,17.0,9.0,0.0,0.0,0.0,95.0,26.6,01:39:18,2020-05-24T01:39:18Z
N/A,AirBox-ASEAN-05 (Vietnam),,AirBox,,N/A,N/A,2020-05-24,74DA3895C446,,2.0,1.0,21.0,105.847,9.0,,,Hust,,39.0,43.0,31.0,,,,81.0,29.75,01:36:45,2020-05-24T01:36:45Z
N/A,74DA38B050BA,,AirBox,tainan,20.41,Theil-Sen/14/2.21,2020-05-24,74DA38B050BA,,2.0,1.0,22.991,120.223,9.0,,,東寧社區_4G,,47.0,61.0,32.0,,,,100.0,27.5,01:36:13,2020-05-24T01:36:13Z
[929]屏東縣琉球鄉中正路158號,屏東縣縣立琉球國中,,AirBox,pingtung,13.94,Theil-Sen/30/34.12,2020-05-24,74DA38F20ED6,,2.0,1.0,22.335,120.369,9.0,,,琉球國中2,,25.0,27.0,16.0,,,,94.0,26.75,01:34:21,2020-05-24T01:34:21Z
N/A,74DA3895C440,,AirBox,pingtung,14.25,BRR/30/1.03,2020-05-24,74DA3895C440,,2.0,1.0,22.674,120.478,9.0,,,PEIU,,29.0,34.0,22.0,,,,100.0,28.5,01:35:29,2020-05-24T01:35:29Z
N/A,74DA38B050BE,,AirBox,taoyuan,0.0,BRR/30/23.03,2020-05-24,74DA38B050BE,,2.0,1.0,24.809,121.404,9.0,,,桃園市環教學會庫志站,,0.0,0.0,0.0,,,,100.0,24.0,01:35:59,2020-05-24T01:35:59Z
N/A,74DA38EBF836,,AirBox,new_taipei,6.94,BRR/14/2.86,2020-05-24,74DA38EBF836,,2.0,1.0,25.013,121.487,9.0,,,Namm,,8.0,8.0,5.0,,,,85.0,26.25,01:34:09,2020-05-24T01:34:09Z
N/A,74DA38AF47B0,,AirBox,chiayi_city,10.23,Theil-Sen/30/2.43,2020-05-24,74DA38AF47B0,,2.0,1.0,23.464,120.417,9.0,,,KT,,1.0,1.0,1.0,,,,70.0,27.0,01:34:07,2020-05-24T01:34:07Z
嘉義縣布袋鎮光復里六棟寮40號,嘉義縣縣立布袋國中,0,AirBox,,15.27,BRR/14/13.71,2020-05-24,08BEAC0A05AA,v1.06,2.0,1.0,23.360372,120.180582,9.0,0,AI-1003WN,,acelink.edimax,30.0,35.0,16.0,0.0,0.0,0.0,100.0,28.2,01:36:54,2020-05-24T01:36:54Z
臺南市仁德區中洲里中洲1之126號,臺南市市立依仁國小,0,AirBox,,25.04,Theil-Sen/14/9.96,2020-05-24,08BEAC0A05AC,v1.06,2.0,1.0,22.91307073,120.2611485,9.0,0,AI-1003WN,,acelink.edimax,57.0,69.0,37.0,0.0,0.0,0.0,98.0,28.6,01:37:49,2020-05-24T01:37:49Z
臺南市北區長榮路五段277號,臺南市市立大光國小,0,AirBox,,26.58,Theil-Sen/14/1.46,2020-05-24,08BEAC0A05AE,v1.06,2.0,1.0,22.98548962,120.2168919,9.0,0,AI-1003WN,,acelink.edimax,53.0,66.0,31.0,0.0,0.0,0.0,83.0,29.0,01:37:08,2020-05-24T01:37:08Z
N/A,74DA38EBF838,,AirBox,taipei,4.32,BRR/14/5.15,2020-05-24,74DA38EBF838,,2.0,1.0,25.012,121.542,9.0,,,公館國小,,6.0,6.0,4.0,,,,100.0,25.25,01:34:33,2020-05-24T01:34:33Z
N/A,74DA38AF474C,,AirBox,tainan,N/A,N/A,2020-05-24,74DA38AF474C,,2.0,1.0,23.182,120.258,9.0,,,TNh,,1.0,1.0,0.0,,,,87.0,26.62,01:31:41,2020-05-24T01:31:41Z
N/A,74DA3895C2F4,,AirBox,taipei,14.33,BRR/14/4.87,2020-05-24,74DA3895C2F4,,2.0,1.0,25.033,121.554,9.0,,,freshair1,,16.0,17.0,13.0,,,,76.0,26.5,01:35:09,2020-05-24T01:35:09Z
N/A,74DA3895C2F2,,AirBox,taichuang,6.77,LR/30/17.35,2020-05-24,74DA3895C2F2,,2.0,1.0,24.299,120.577,9.0,,,sanmei,,8.0,10.0,5.0,,,,100.0,26.5,01:34:43,2020-05-24T01:34:43Z
N/A,新北市積穗國小,,AirBox,new_taipei,27.07,BRR/14/2.72,2020-05-24,74DA38F7C4D4,,2.0,1.0,24.998,121.48,9.0,,,積穗國小02,,9.0,10.0,5.0,,,,0.0,-4.0,01:27:50,2020-05-24T01:27:50Z
N/A,74DA3895C2F0,,AirBox,hsinchu_city,0.0,PA/14/3.33,2020-05-24,74DA3895C2F0,,2.0,1.0,24.786,120.997,9.0,,,adslAirBox,,0.0,1.0,0.0,,,,100.0,25.75,01:33:35,2020-05-24T01:33:35Z
雲林縣古坑鄉朝陽路三號,雲林縣縣立古坑國小,0,AirBox,,68.38,Theil-Sen/21/7.71,2020-05-24,08BEAC0A0476,v1.06,2.0,1.0,23.6451428,120.5656985,9.0,0,AI-1003WN,,acelink.edimax,40.0,50.0,22.0,0.0,0.0,0.0,88.0,28.0,01:35:09,2020-05-24T01:35:09Z
N/A,08BEAC02890E,,AirBox,miaoli,4.79,LR/14/21.22,2020-05-24,08BEAC02890E,,2.0,1.0,24.372,120.968,9.0,,,iTribe大安部落,,2.0,2.0,1.0,,,,79.0,25.25,01:31:12,2020-05-24T01:31:12Z
N/A,74DA38F7C2DA,,AirBox,taichuang,11.12,BRR/30/2.76,2020-05-24,74DA38F7C2DA,,2.0,1.0,24.176,120.648,9.0,,,BIEM BIG BIRD,,18.0,20.0,11.0,,,,74.0,28.61,01:36:11,2020-05-24T01:36:11Z
N/A,74DA38EBF90C,,AirBox,tainan,23.09,Theil-Sen/14/18.31,2020-05-24,74DA38EBF90C,,2.0,1.0,23.119,120.306,9.0,,,LM_目加溜灣,,53.0,66.0,31.0,,,,100.0,27.5,01:33:28,2020-05-24T01:33:28Z
N/A,74DA38EBF90A,,AirBox,taichuang,4.8,BRR/30/4.47,2020-05-24,74DA38EBF90A,,2.0,1.0,24.185,120.616,9.0,,,靖業一號,,15.0,15.0,9.0,,,,100.0,29.25,01:33:02,2020-05-24T01:33:02Z
N/A,AirBox-UChicago-43,,AirBox,,N/A,N/A,2020-05-24,74DA38ED07F4,,2.0,1.0,41.748,-87.67,9.0,,,Pphi-us-edimax,,19.0,37.0,22.0,,,,50.0,26.87,01:36:47,2020-05-24T01:36:47Z
N/A,08BEAC02871A,,AirBox,new_taipei,16.38,BRR/14/5.27,2020-05-24,08BEAC02871A,,2.0,1.0,25.0620528,121.4585188,9.0,,,A03站3月台,,18.0,18.0,12.0,,,,71.0,27.25,01:36:54,2020-05-24T01:36:54Z
N/A,AirBox-UChicago-55,,AirBox,,N/A,N/A,2020-05-24,74DA38ED07F2,,2.0,1.0,40.702,-89.616,9.0,,,demonstration,,1.0,1.0,0.0,,,,51.0,23.62,01:32:04,2020-05-24T01:32:04Z
N/A,08BEAC02871C,,AirBox,new_taipei,N/A,N/A,2020-05-24,08BEAC02871C,,2.0,1.0,25.03634591,121.2156238,9.0,,,A16站1月台,,10.0,11.0,6.0,,,,79.0,27.12,01:36:15,2020-05-24T01:36:15Z
N/A,74DA38E69E3E,,AirBox,kaohsiung,21.2,Theil-Sen/30/7.4,2020-05-24,74DA38E69E3E,,2.0,1.0,23.496,120.378,9.0,,,po po yu,,20.0,20.0,14.0,,,,74.0,27.5,01:36:19,2020-05-24T01:36:19Z
Chiayi,嘉義-2,,AirBox,taipei,28.98,BRR/14/3.7,2020-05-24,08BEAC028A64,,2.0,1.0,25.0512993,121.5443498,9.0,,,手動站：嘉義站-2（A64）,,42.0,53.0,25.0,,,,69.0,32.25,01:34:21,2020-05-24T01:34:21Z
N/A,74DA38C7D4BC,,AirBox,pingtung,20.13,BRR/30/1.25,2020-05-24,74DA38C7D4BC,,2.0,1.0,22.662,120.49,9.0,,,Rainbow,,40.0,51.0,25.0,,,,93.0,29.86,01:32:52,2020-05-24T01:32:52Z
N/A,74DA38E69B80,,AirBox,chiayi_county,2.91,BRR/14/3.49,2020-05-24,74DA38E69B80,,2.0,1.0,23.468,120.282,9.0,,,宏都文化魔界村,,4.0,5.0,3.0,,,,100.0,27.37,01:33:57,2020-05-24T01:33:57Z
N/A,74DA38C7CEC2,,AirBox,chiayi_county,28.45,Theil-Sen/30/9.47,2020-05-24,74DA38C7CEC2,,2.0,1.0,23.54,120.48,9.0,,,松仔腳２,,42.0,56.0,25.0,,,,100.0,27.25,01:32:48,2020-05-24T01:32:48Z
雲林縣林內鄉烏塗村華興路一號,雲林縣縣立民生國小,0,AirBox,,66.96,Theil-Sen/21/8.17,2020-05-24,08BEAC09FF0C,v1.06,2.0,1.0,23.7676275,120.597256,9.0,0,AI-1003WN,,acelink.edimax,39.0,48.0,21.0,0.0,0.0,0.0,99.0,28.7,01:35:55,2020-05-24T01:35:55Z
N/A,74DA38C7CEC0,,AirBox,changhua,0.89,LR/30/10.92,2020-05-24,74DA38C7CEC0,,2.0,1.0,24.063,120.434,9.0,,,Changhua 30 室外,,7.0,8.0,5.0,,,,93.0,27.87,01:36:39,2020-05-24T01:36:39Z
N/A,74DA38E69B82,,AirBox,chiayi_county,27.59,Theil-Sen/30/11.63,2020-05-24,74DA38E69B82,,2.0,1.0,23.562,120.477,9.0,,,CCU-CSIE-CHUNG,,38.0,47.0,23.0,,,,94.0,27.0,01:34:57,2020-05-24T01:34:57Z
[600]嘉義市東區民族路235號,嘉義市立民族國小,,AirBox,chiayi_city,20.86,Theil-Sen/30/1.98,2020-05-24,74DA38C7CEC6,,2.0,1.0,23.475,120.455,9.0,,,嘉義市民族國小,,28.0,50.0,17.0,,,,94.0,27.75,01:34:53,2020-05-24T01:34:53Z
雲林縣二崙鄉港後村港後路六十號,雲林縣縣立油車國小,0,AirBox,,65.65,Theil-Sen/21/18.15,2020-05-24,08BEAC09FF0E,v1.06,2.0,1.0,23.7954898,120.3918404,9.0,0,AI-1003WN,,acelink.edimax,38.0,45.0,22.0,0.0,0.0,0.0,100.0,29.8,01:38:17,2020-05-24T01:38:17Z
高雄市立楠梓國民中學 高雄市楠梓區東寧里楠梓路336號,高雄市市立楠梓國中,,AirBox,kaohsiung,20.36,Theil-Sen/30/12.07,2020-05-24,74DA38F20D5C,,2.0,1.0,22.735,120.327,9.0,,,楠梓國中,,42.0,52.0,26.0,,,,100.0,26.37,01:31:59,2020-05-24T01:31:59Z
高雄市立橋頭國民中學 高雄市橋頭區橋頭里新興路70號,高雄市市立橋頭國中,,AirBox,chiayi_city,45.45,BRR/14/5.51,2020-05-24,74DA38F20D5A,,2.0,1.0,25.062,121.451,9.0,,,高雄市立橋頭國中,,48.0,61.0,28.0,,,,0.0,-4.0,01:36:02,2020-05-24T01:36:02Z
高雄市立燕巢國民中學 高雄市燕巢區南燕里中興路267號,高雄市市立燕巢國中,,AirBox,kaohsiung,11.35,BRR/30/18.02,2020-05-24,74DA38F20D5E,,2.0,1.0,22.786,120.362,9.0,,,燕巢國中,,11.0,11.0,7.0,,,,74.0,28.61,01:34:09,2020-05-24T01:34:09Z
N/A,74DA38E69DBA,,AirBox,taoyuan,6.81,BRR/30/1.56,2020-05-24,74DA38E69DBA,,2.0,1.0,24.982,121.309,9.0,,,HuangHome,,12.0,13.0,8.0,,,,100.0,26.25,01:31:13,2020-05-24T01:31:13Z
N/A,08BEAC028D44,,AirBox,miaoli,11.87,PA/14/12.89,2020-05-24,08BEAC028D44,,2.0,1.0,24.7039415,120.9108468,9.0,,,b44,,6.0,7.0,4.0,,,,68.0,27.25,01:34:29,2020-05-24T01:34:29Z
N/A,74DA38F6FF76,,AirBox,keelung,N/A,N/A,2020-05-24,74DA38F6FF76,,2.0,1.0,25.143,121.702,9.0,,,大武崙工業區,,14.0,15.0,9.0,,,,100.0,24.87,01:36:22,2020-05-24T01:36:22Z
嘉義縣中埔鄉裕民村石頭厝17之1號,嘉義縣縣立大有國小,0,AirBox,,33.13,Theil-Sen/30/8.25,2020-05-24,08BEAC0A0820,v1.06,2.0,1.0,23.42870386,120.5127023,9.0,0,AI-1003WN,,acelink.edimax,50.0,65.0,28.0,0.0,0.0,0.0,100.0,28.5,01:34:42,2020-05-24T01:34:42Z
N/A,74DA38E2B58C,,AirBox,changhua,5.09,BRR/30/7.76,2020-05-24,74DA38E2B58C,,2.0,1.0,24.087,120.669,9.0,,,aa,,10.0,11.0,6.0,,,,86.0,26.87,01:35:31,2020-05-24T01:35:31Z
嘉義縣中埔鄉中埔村中正路1號,嘉義縣縣立中埔國小,0,AirBox,,39.84,Theil-Sen/30/9.61,2020-05-24,08BEAC0A0822,v1.06,2.0,1.0,23.42271414,120.5242571,9.0,0,AI-1003WN,,acelink.edimax,57.0,72.0,30.0,0.0,0.0,0.0,93.0,27.7,01:35:45,2020-05-24T01:35:45Z
N/A,74DA38E69D00,,AirBox,pingtung,13.85,BRR/30/2.35,2020-05-24,74DA38E69D00,,2.0,1.0,22.658,120.472,9.0,,,HSJH-AO,,23.0,24.0,14.0,,,,92.0,27.25,01:31:18,2020-05-24T01:31:18Z
臺南市關廟區新光街76號,臺南市市立新光國小,0,AirBox,,17.88,Theil-Sen/14/15.47,2020-05-24,08BEAC0A0824,v1.06,2.0,1.0,22.97240652,120.3531793,9.0,0,AI-1003WN,,acelink.edimax,42.0,54.0,23.0,0.0,0.0,0.0,100.0,28.6,01:34:41,2020-05-24T01:34:41Z
臺南市新市區大社里39號,臺南市市立大社國小,0,AirBox,,21.98,Theil-Sen/14/16.46,2020-05-24,08BEAC0A0826,v1.06,2.0,1.0,23.0866633,120.319169,9.0,0,AI-1003WN,,acelink.edimax,51.0,66.0,28.0,0.0,0.0,0.0,100.0,28.3,01:38:24,2020-05-24T01:38:24Z
N/A,74DA38F7C2D6,,AirBox,taichuang,7.2,BRR/30/9.28,2020-05-24,74DA38F7C2D6,,2.0,1.0,24.161,120.732,9.0,,,明日,,12.0,12.0,6.0,,,,79.0,28.75,01:33:39,2020-05-24T01:33:39Z
臺南市七股區塩埕里塩埕1號,臺南市市立光復生態實驗小學,0,AirBox,,18.27,Theil-Sen/14/20.81,2020-05-24,08BEAC0A0828,v1.06,2.0,1.0,23.14965152,120.1067805,9.0,0,AI-1003WN,,acelink.edimax,43.0,53.0,26.0,0.0,0.0,0.0,100.0,28.8,01:34:55,2020-05-24T01:34:55Z
[958]臺東縣池上鄉萬安村一鄰5之2號,台東縣縣立萬安國小,,AirBox,new_taipei,3.8,PA/14/38.39,2020-05-24,74DA38F20AAE,,2.0,1.0,23.095,121.218,9.0,,,台東縣池上鄉萬安國小,,3.0,3.0,3.0,,,,100.0,24.87,01:36:30,2020-05-24T01:36:30Z
嘉義縣中埔鄉沄水村五鄰16號,嘉義縣縣立沄水國小,0,AirBox,,33.63,Theil-Sen/30/12.85,2020-05-24,08BEAC0A082A,v1.06,2.0,1.0,23.38172401,120.5306296,9.0,0,AI-1003WN,,acelink.edimax,50.0,65.0,28.0,0.0,0.0,0.0,100.0,27.2,01:36:50,2020-05-24T01:36:50Z
桃園市蘆竹區海山路319號,桃園市市立山腳國中,0,AirBox,,7.82,BRR/30/10.64,2020-05-24,08BEAC0A082C,v1.06,2.0,1.0,25.08814781,121.278711,9.0,0,AI-1003WN,,acelink.edimax,12.0,13.0,7.0,0.0,0.0,0.0,91.0,27.0,01:35:29,2020-05-24T01:35:29Z
N/A,74DA38EBF6A2,,AirBox,miaoli,6.83,BRR/30/0.83,2020-05-24,74DA38EBF6A2,,2.0,1.0,24.992,121.297,9.0,,,A061,,12.0,13.0,8.0,,,,100.0,26.5,01:33:01,2020-05-24T01:33:01Z
臺南市楠西區中興路107號,臺南市市立楠西國中,0,AirBox,,N/A,N/A,2020-05-24,08BEAC0A082E,v1.06,2.0,1.0,23.18203633,120.4845063,9.0,0,AI-1003WN,,acelink.edimax,29.0,33.0,14.0,0.0,0.0,0.0,94.0,27.7,01:35:26,2020-05-24T01:35:26Z
雲林縣西螺鎮河南里埔心路二一○號,雲林縣縣立安定國小,0,AirBox,,79.8,Theil-Sen/21/14.39,2020-05-24,08BEAC0A0198,v1.06,2.0,1.0,23.79795118,120.4394053,9.0,0,AI-1003WN,,acelink.edimax,47.0,61.0,28.0,0.0,0.0,0.0,100.0,28.7,01:35:42,2020-05-24T01:35:42Z
[884]澎湖縣白沙鄉後寮村218號,澎湖縣縣立後寮國小,,AirBox,NA,34.17,LR/14/10.34,2020-05-24,74DA38F20FD4,,2.0,1.0,23.662,119.569,9.0,,,澎湖縣白沙鄉後寮國小,,14.0,17.0,8.0,,,,0.0,-4.0,01:32:02,2020-05-24T01:32:02Z
N/A,74DA38E2B61A,,AirBox,kaohsiung,7.31,Theil-Sen/30/9.05,2020-05-24,74DA38E2B61A,,2.0,1.0,22.848,120.61,9.0,,,屏東縣舊寮國小,,11.0,12.0,8.0,,,,100.0,25.62,01:37:00,2020-05-24T01:37:00Z
N/A,74DA38E69DB8,,AirBox,taipei,10.69,BRR/14/1.95,2020-05-24,74DA38E69DB8,,2.0,1.0,25.029,121.507,9.0,,,egg,,6.0,7.0,5.0,,,,69.0,27.25,01:32:35,2020-05-24T01:32:35Z
[366]苗栗縣銅鑼鄉九湖村10鄰91之1號,苗栗縣縣立九湖國小,,AirBox,miaoli,0.45,LR/14/10.16,2020-05-24,74DA38F20A68,,2.0,1.0,24.473,120.776,9.0,,,苗栗縣九湖國小,,6.0,6.0,3.0,,,,100.0,24.87,01:31:28,2020-05-24T01:31:28Z
[959]臺東縣東河鄉都蘭村431號,台東縣縣立都蘭國小,,AirBox,taitung,2.78,PA/14/15.73,2020-05-24,74DA38F20D56,,2.0,1.0,22.878,121.227,9.0,,,臺東縣都蘭國小,,1.0,1.0,0.0,,,,100.0,25.0,01:36:35,2020-05-24T01:36:35Z
Keelung,基隆-2,,AirBox,yilan,9.45,BRR/14/3.69,2020-05-24,08BEAC028A68,,2.0,1.0,25.0513092,121.5442497,9.0,,,手動站：基隆站-2（A68）,,8.0,9.0,5.0,,,,80.0,26.62,01:34:23,2020-05-24T01:34:23Z
桃園市龜山區自強西路66號,桃園市市立龜山國中,0,AirBox,,6.66,BRR/30/3.47,2020-05-24,08BEAC0A01F0,v1.06,2.0,1.0,24.9979049,121.3386703,9.0,0,AI-1003WN,,acelink.edimax,8.0,8.0,4.0,0.0,0.0,0.0,81.0,27.0,01:38:50,2020-05-24T01:38:50Z
[302]新竹縣竹北市竹仁里仁和街1號,新竹縣縣立竹仁國小,,AirBox,hsinchu_county,12.2,PA/14/5.34,2020-05-24,74DA38F20D58,,2.0,1.0,24.836,121.013,9.0,,,cjesairbox,,7.0,7.0,5.0,,,,81.0,26.62,01:36:14,2020-05-24T01:36:14Z
N/A,74DA38E69DB4,,AirBox,yunlin,36.02,Theil-Sen/21/12.38,2020-05-24,74DA38E69DB4,,2.0,1.0,23.753,120.432,9.0,,,雲林縣西螺鎮九隆,,20.0,22.0,13.0,,,,92.0,27.0,01:37:09,2020-05-24T01:37:09Z
桃園市蘆竹區南山路三段440號,桃園市市立山腳國小,0,AirBox,,7.55,BRR/30/10.48,2020-05-24,08BEAC0A0874,v1.06,2.0,1.0,25.08838924,121.2875087,9.0,0,AI-1003WN,,acelink.edimax,11.0,12.0,7.0,0.0,0.0,0.0,88.0,26.5,01:35:24,2020-05-24T01:35:24Z
N/A,74DA38E2B4CC,,AirBox,keelung,7.08,LR/14/6.7,2020-05-24,74DA38E2B4CC,,2.0,1.0,25.11,121.689,9.0,,,基隆市瑪陵國小,,11.0,12.0,8.0,,,,100.0,24.87,01:35:11,2020-05-24T01:35:11Z
N/A,74DA38EBF95C,,AirBox,changhua,0.0,LR/30/10.8,2020-05-24,74DA38EBF95C,,2.0,1.0,24.048,120.437,9.0,,,街尾里地藏廟東北,,7.0,8.0,4.0,,,,100.0,29.11,01:32:34,2020-05-24T01:32:34Z
臺南市北門區文山里4鄰溪底寮50號,臺南市市立文山國小,0,AirBox,,N/A,N/A,2020-05-24,08BEAC0A0872,v1.06,2.0,1.0,23.2410786,120.1261162,9.0,0,AI-1003WN,,acelink.edimax,36.0,43.0,22.0,0.0,0.0,0.0,100.0,29.5,01:38:29,2020-05-24T01:38:29Z
桃園市楊梅區中山北路一段390巷50號,桃園市市立楊明國小,0,AirBox,,N/A,N/A,2020-05-24,08BEAC0A0610,v1.06,2.0,1.0,24.9113853035,121.158530451,9.0,0,AI-1003WN,,acelink.edimax,16.0,17.0,9.0,0.0,0.0,0.0,78.0,26.3,01:29:38,2020-05-24T01:29:38Z
N/A,74DA38E69B40,,AirBox,taichuang,16.55,BRR/30/0.53,2020-05-24,74DA38E69B40,,2.0,1.0,24.151,120.636,9.0,,,Chang,,29.0,33.0,20.0,,,,74.0,29.11,01:36:33,2020-05-24T01:36:33Z
N/A,74DA38E69E34,,AirBox,taichuang,12.03,BRR/30/5.14,2020-05-24,74DA38E69E34,,2.0,1.0,24.106,120.636,9.0,,,台中市明道中學PM2.5觀測站,,19.0,20.0,13.0,,,,72.0,28.11,01:31:38,2020-05-24T01:31:38Z
N/A,74DA38E2B626,,AirBox,nantou,20.8,LR/30/8.67,2020-05-24,74DA38E2B626,,2.0,1.0,23.99,120.672,9.0,,,nantou12,,34.0,41.0,21.0,,,,100.0,27.75,01:32:35,2020-05-24T01:32:35Z
臺北市士林區明勝里通河街16號,市立劍潭國小,,AirBox,taipei,7.19,BRR/14/3.36,2020-05-24,74DA38F21094,,2.0,1.0,25.075,121.519,9.0,,,台北市士林區劍潭國小2018,,8.0,9.0,4.0,,,,91.0,24.75,01:31:26,2020-05-24T01:31:26Z
臺中市大肚區大東里仁德路60號,臺中市立大道國中,0,AirBox,,15.3,LR/30/9.04,2020-05-24,08BEAC0A044E,v1.06,2.0,1.0,24.14685427,120.5507138,9.0,0,AI-1003WN,,acelink.edimax,10.0,10.0,6.0,0.0,0.0,0.0,78.0,28.8,01:38:02,2020-05-24T01:38:02Z
N/A,74DA38E2B622,,AirBox,taichuang,87.39,LR/30/14.96,2020-05-24,74DA38E2B622,,2.0,1.0,24.334,120.621,9.0,,,Markmark,,0.0,0.0,0.0,,,,84.0,26.12,01:33:00,2020-05-24T01:33:00Z
雲林縣二崙鄉永定村永定路五五號,雲林縣縣立永定國小,0,AirBox,,81.35,Theil-Sen/21/15.9,2020-05-24,08BEAC0A044C,v1.06,2.0,1.0,23.7965476,120.4191355,9.0,0,AI-1003WN,,acelink.edimax,48.0,60.0,28.0,0.0,0.0,0.0,87.0,28.5,01:39:24,2020-05-24T01:39:24Z
N/A,74DA38E2B620,,AirBox,pingtung,9.88,BRR/30/14.92,2020-05-24,74DA38E2B620,,2.0,1.0,22.692,120.632,9.0,,,pm2.5,,9.0,10.0,7.0,,,,80.0,27.25,01:32:24,2020-05-24T01:32:24Z
臺中市北屯區昌平路二段12號,臺中市立松竹國小,0,AirBox,,7.86,BRR/30/5.95,2020-05-24,08BEAC0A044A,v1.06,2.0,1.0,24.18113559,120.6902817,9.0,0,AI-1003WN,,acelink.edimax,19.0,21.0,10.0,0.0,0.0,0.0,93.0,31.7,01:37:36,2020-05-24T01:37:36Z
桃園市平鎮區平東路一段185號,桃園市市立東勢國小,0,AirBox,,N/A,N/A,2020-05-24,08BEAC09FFCE,v1.06,2.0,1.0,24.9110842619,121.232276447,9.0,0,AI-1003WN,,acelink.edimax,7.0,8.0,4.0,0.0,0.0,0.0,87.0,27.2,01:38:37,2020-05-24T01:38:37Z
臺中市大甲區中山路二段69-11號,臺中市立日南國中,0,AirBox,,0.0,LR/14/10.9,2020-05-24,08BEAC09FFCC,v1.06,2.0,1.0,24.37843883,120.6513366,9.0,0,AI-1003WN,,acelink.edimax,0.0,0.0,0.0,0.0,0.0,0.0,100.0,30.6,01:39:04,2020-05-24T01:39:04Z
臺中市霧峰區中正路736號,臺中市立霧峰國小,0,AirBox,,13.68,BRR/30/11.56,2020-05-24,08BEAC09FFCA,v1.06,2.0,1.0,24.0619544983,120.698135376,9.0,0,AI-1003WN,,acelink.edimax,28.0,31.0,15.0,0.0,0.0,0.0,87.0,29.0,01:37:48,2020-05-24T01:37:48Z
[205]基隆市暖暖區寧靜街3號,基隆市立暖江國小,,AirBox,keelung,N/A,N/A,2020-05-24,74DA38F20ABE,,2.0,1.0,25.105,121.737,9.0,,,NJPS,,8.0,9.0,5.0,,,,100.0,24.75,01:37:09,2020-05-24T01:37:09Z
高雄市立梓官國民中學 高雄市梓官區梓信里17鄰中學路71號,高雄市市立梓官國中,,AirBox,kaohsiung,21.2,Theil-Sen/30/14.62,2020-05-24,74DA38F20DFE,,2.0,1.0,22.762,120.263,9.0,,,高雄市梓官區梓官國中,,44.0,54.0,25.0,,,,100.0,26.62,01:31:24,2020-05-24T01:31:24Z
[305]新竹縣新埔鎮寶石里九鄰關埔路內立段672號,新竹縣縣立寶石國小,,AirBox,taoyuan,8.55,BRR/14/8.45,2020-05-24,74DA38F20DFA,,2.0,1.0,24.816,121.078,9.0,,,新竹縣寶石國小,,10.0,10.0,5.0,,,,100.0,25.62,01:34:05,2020-05-24T01:34:05Z
[883]澎湖縣七美鄉中和村4號,澎湖縣縣立七美國中,,AirBox,penghu,1.5,LR/14/42.83,2020-05-24,74DA38F21194,,2.0,1.0,23.205,119.429,9.0,,,澎湖縣立七美國中,,13.0,13.0,7.0,,,,100.0,25.0,01:34:11,2020-05-24T01:34:11Z
N/A,74DA38E69AD0,,AirBox,taichuang,8.37,BRR/30/7.05,2020-05-24,74DA38E69AD0,,2.0,1.0,24.205,120.603,9.0,,,科園三路（宿舍）右,,18.0,19.0,12.0,,,,89.0,28.61,01:34:46,2020-05-24T01:34:46Z
N/A,74DA38E69AD6,,AirBox,hsinchu_city,12.7,PA/14/1.62,2020-05-24,74DA38E69AD6,,2.0,1.0,24.796,120.96,9.0,,,puyuma_indoor,,7.0,7.0,5.0,,,,81.0,28.36,01:32:10,2020-05-24T01:32:10Z
[265]宜蘭縣羅東鎮興東南路201號,宜蘭縣縣立東光國中,,AirBox,yilan,0.0,LR/14/8.78,2020-05-24,74DA38F20BFA,,2.0,1.0,24.671,121.766,9.0,,,宜蘭縣東光國中,,1.0,2.0,1.0,,,,100.0,25.25,01:36:14,2020-05-24T01:36:14Z
桃園市龍潭區神龍路155號,桃園市龍潭高中,0,AirBox,,N/A,N/A,2020-05-24,08BEAC0A059A,v1.06,2.0,1.0,24.86112541,121.2132885,9.0,0,AI-1003WN,,acelink.edimax,9.0,10.0,5.0,0.0,0.0,0.0,85.0,25.7,01:37:53,2020-05-24T01:37:53Z
嘉義縣民雄鄉松山村松仔腳43之1號,嘉義縣縣立松山國小,0,AirBox,,27.97,Theil-Sen/30/9.27,2020-05-24,08BEAC0A059C,v1.06,2.0,1.0,23.54003857,120.4751084,9.0,0,AI-1003WN,,acelink.edimax,42.0,54.0,22.0,0.0,0.0,0.0,100.0,28.5,01:35:45,2020-05-24T01:35:45Z
高雄市忠孝國小 高雄市鹽埕區大智路71號,高雄市市立忠孝國小,,AirBox,kaohsiung,15.02,Theil-Sen/30/1.32,2020-05-24,74DA38F20BFE,,2.0,1.0,22.621,120.285,9.0,,,高雄市鹽珵區忠孝國小new,,22.0,24.0,14.0,,,,83.0,27.62,01:35:19,2020-05-24T01:35:19Z
嘉義縣番路鄉下坑村菜公店91號,嘉義縣縣立民和國小,0,AirBox,,35.36,Theil-Sen/30/11.45,2020-05-24,08BEAC0A059E,v1.06,2.0,1.0,23.46382632,120.5530691,9.0,0,AI-1003WN,,acelink.edimax,51.0,66.0,26.0,0.0,0.0,0.0,96.0,27.2,01:35:46,2020-05-24T01:35:46Z
雲林縣西螺鎮廣興里廣興路五九號,雲林縣縣立廣興國小,0,AirBox,,78.14,Theil-Sen/21/10.73,2020-05-24,08BEAC0A0208,v1.04,2.0,1.0,23.76658144,120.4581439,9.0,0,AI-1003WN,,acelink.edimax,46.0,60.0,29.0,0.0,0.0,0.0,91.0,28.5,01:35:42,2020-05-24T01:35:42Z
[957]臺東縣海端鄉加拿村加南5號,台東縣縣立加拿國小,,AirBox,taitung,5.37,PA/14/27.39,2020-05-24,74DA38F20850,,2.0,1.0,23.001,121.13,9.0,,,臺東縣加拿國小,,6.0,7.0,3.0,,,,100.0,24.12,01:33:35,2020-05-24T01:33:35Z
[962]臺東縣長濱鄉長濱村五鄰11號,台東縣縣立長濱國小,,AirBox,taitung,4.32,PA/14/69.51,2020-05-24,74DA38F209F6,,2.0,1.0,23.316,121.451,9.0,,,臺東縣長濱國小,,4.0,4.0,2.0,,,,100.0,24.62,01:35:39,2020-05-24T01:35:39Z
Xinying,新營-2,,AirBox,taipei,27.04,BRR/14/3.85,2020-05-24,74DA38E2B48C,,2.0,1.0,25.038,121.545,9.0,,,手動站：新營站-2（48C）,,41.0,51.0,23.0,,,,76.0,29.11,01:36:05,2020-05-24T01:36:05Z
桃園市桃園區新埔六街2號,桃園市市立慈文國小,0,AirBox,,12.36,BRR/30/1.89,2020-05-24,08BEAC0A04C4,v1.06,2.0,1.0,25.01235008,121.3046085,9.0,0,AI-1003WN,,acelink.edimax,17.0,19.0,10.0,0.0,0.0,0.0,76.0,29.1,01:39:43,2020-05-24T01:39:43Z
臺中市大里區美村街196號,臺中市立瑞城國小,0,AirBox,,12.36,BRR/30/11.23,2020-05-24,08BEAC0A04C2,v1.06,2.0,1.0,24.08992474,120.7284131,9.0,0,AI-1003WN,,acelink.edimax,25.0,26.0,15.0,0.0,0.0,0.0,86.0,29.1,01:39:51,2020-05-24T01:39:51Z
雲林縣斗六市梅林里梅林路五二號,雲林縣縣立梅林國小,0,AirBox,,68.51,Theil-Sen/21/5.85,2020-05-24,08BEAC0A04C0,v1.06,2.0,1.0,23.7028568,120.6016563,9.0,0,AI-1003WN,,acelink.edimax,40.0,50.0,23.0,0.0,0.0,0.0,97.0,28.5,01:38:23,2020-05-24T01:38:23Z
臺南市北門區永華里1之1號,臺南市市立北門國中,0,AirBox,,N/A,N/A,2020-05-24,08BEAC0A06EE,v1.06,2.0,1.0,23.2534289,120.1289325,9.0,0,AI-1003WN,,acelink.edimax,35.0,48.0,23.0,0.0,0.0,0.0,100.0,29.5,01:36:07,2020-05-24T01:36:07Z
高雄市正義國小 高雄市鳳山區正義里南昌街55號,高雄市市立正義國小,,AirBox,kaohsiung,55.33,Theil-Sen/30/6.26,2020-05-24,74DA38F207DE,,2.0,1.0,22.603,120.34,9.0,,,高雄市正義國小,,42.0,53.0,27.0,,,,0.0,-4.0,01:30:16,2020-05-24T01:30:16Z
桃園市復興區三民里十一鄰57號,桃園市市立三民國小,0,AirBox,,3.14,BRR/30/18.26,2020-05-24,08BEAC0A06EC,v1.06,2.0,1.0,24.8328721,121.3308522,9.0,0,AI-1003WN,,acelink.edimax,3.0,4.0,1.0,0.0,0.0,0.0,87.0,25.7,01:39:45,2020-05-24T01:39:45Z
臺南市安平區怡平路392號,臺南市市立安平國小,0,AirBox,,22.34,Theil-Sen/14/2.88,2020-05-24,08BEAC0A06EA,v1.06,2.0,1.0,22.9938894,120.1764043,9.0,0,AI-1003WN,,acelink.edimax,52.0,65.0,30.0,0.0,0.0,0.0,100.0,28.6,01:34:47,2020-05-24T01:34:47Z
桃園市龍潭區佳安里文化路137號,桃園市市立石門國中,0,AirBox,,N/A,N/A,2020-05-24,08BEAC0A04C8,v1.06,2.0,1.0,24.8411451632,121.240112856,9.0,0,AI-1003WN,,acelink.edimax,7.0,9.0,4.0,0.0,0.0,0.0,92.0,26.1,01:35:04,2020-05-24T01:35:04Z
[354]苗栗縣獅潭鄉新店村129號,苗栗縣縣立獅潭國小,,AirBox,miaoli,2.89,BRR/30/10.51,2020-05-24,74DA38F209FE,,2.0,1.0,24.539,120.92,9.0,,,苗栗縣獅潭國小,,4.0,4.0,2.0,,,,100.0,25.5,01:33:29,2020-05-24T01:33:29Z
臺中市北屯區北坑巷60號,臺中市立逢甲國小,0,AirBox,,30.27,LR/30/9.97,2020-05-24,08BEAC0A04CC,v1.06,2.0,1.0,24.16832927,120.7592418,9.0,0,AI-1003WN,,acelink.edimax,11.0,13.0,6.0,0.0,0.0,0.0,96.0,29.3,01:39:35,2020-05-24T01:39:35Z
[358]苗栗縣苑裡鎮蕉埔里八鄰87之2號,苗栗縣縣立蕉埔國小,,AirBox,miaoli,0.0,LR/14/5.72,2020-05-24,74DA38F209FC,,2.0,1.0,24.413,120.713,9.0,,,苗栗縣蕉埔國小-Lass,,4.0,5.0,2.0,,,,100.0,25.87,01:31:58,2020-05-24T01:31:58Z
臺南市東山區東原里瓦厝70號,臺南市市立東原國中,0,AirBox,,N/A,N/A,2020-05-24,08BEAC0A06E8,v1.06,2.0,1.0,23.27258431,120.4522877,9.0,0,AI-1003WN,,acelink.edimax,45.0,58.0,25.0,0.0,0.0,0.0,90.0,28.7,01:09:48,2020-05-24T01:09:48Z
臺南市中西區府前路一段239號,臺南市市立建興國中,0,AirBox,,26.05,Theil-Sen/14/2.55,2020-05-24,08BEAC0A06E6,v1.06,2.0,1.0,22.97814106,120.2265148,9.0,0,AI-1003WN,,acelink.edimax,51.0,63.0,30.0,0.0,0.0,0.0,82.0,28.5,01:36:09,2020-05-24T01:36:09Z
臺南市西港區文化路41號,臺南市市立西港國中,0,AirBox,,21.27,Theil-Sen/14/15.51,2020-05-24,08BEAC0A06E4,v1.06,2.0,1.0,23.12408876,120.2051701,9.0,0,AI-1003WN,,acelink.edimax,49.0,63.0,30.0,0.0,0.0,0.0,100.0,27.6,01:38:58,2020-05-24T01:38:58Z
臺南市安南區安中路五段265號,臺南市市立土城高中附設國中,0,AirBox,,20.52,Theil-Sen/14/7.13,2020-05-24,08BEAC0A06E2,v1.06,2.0,1.0,23.04679807,120.1857712,9.0,0,AI-1003WN,,acelink.edimax,43.0,53.0,25.0,0.0,0.0,0.0,91.0,28.1,01:38:58,2020-05-24T01:38:58Z
桃園市新屋區中山西路三段96號,桃園市市立永安國中,0,AirBox,,N/A,N/A,2020-05-24,08BEAC0A06E0,v1.06,2.0,1.0,24.98774495,121.0439236,9.0,0,AI-1003WN,,acelink.edimax,10.0,10.0,6.0,0.0,0.0,0.0,83.0,29.2,01:35:36,2020-05-24T01:35:36Z
雲林縣四湖鄉蔡厝村蔡厝路九十號,雲林縣縣立南光國小,0,AirBox,,10.87,BRR/14/16.41,2020-05-24,08BEAC0A0590,v1.06,2.0,1.0,23.61236035,120.2193224,9.0,0,AI-1003WN,,acelink.edimax,18.0,20.0,10.0,0.0,0.0,0.0,100.0,29.6,01:37:38,2020-05-24T01:37:38Z
高雄巿立三民國民中學 高雄市三民區十全里十全一路200號,高雄市市立三民國中,,AirBox,kaohsiung,21.11,Theil-Sen/30/2.45,2020-05-24,74DA38F20BF0,,2.0,1.0,22.646,120.307,9.0,,,高雄市三民國中,,39.0,49.0,22.0,,,,91.0,26.75,01:31:28,2020-05-24T01:31:28Z
臺南市東區東光路一段39號,臺南市市立東光國小,0,AirBox,,22.97,Theil-Sen/14/2.9,2020-05-24,08BEAC0A0040,v1.06,2.0,1.0,22.9916357271,120.229852796,9.0,0,AI-1003WN,,acelink.edimax,47.0,59.0,28.0,0.0,0.0,0.0,88.0,28.2,01:36:00,2020-05-24T01:36:00Z
高雄市立小港國民中學 高雄市小港區港南里平和南路185號,高雄市市立小港國中,,AirBox,kaohsiung,17.1,Theil-Sen/30/8.94,2020-05-24,74DA38F20BF2,,2.0,1.0,22.566,120.337,9.0,,,高雄市小港國中,,25.0,27.0,15.0,,,,79.0,28.5,01:34:07,2020-05-24T01:34:07Z
雲林縣虎尾鎮東屯里一四七號,雲林縣縣立大屯國小,0,AirBox,,70.25,Theil-Sen/21/16.0,2020-05-24,08BEAC0A0046,v1.06,2.0,1.0,23.70169916,120.38822,9.0,0,AI-1003WN,,acelink.edimax,41.0,50.0,23.0,0.0,0.0,0.0,100.0,29.0,01:37:24,2020-05-24T01:37:24Z
高雄市立中山國民中學 高雄市小港區順苓里漢民路352號,高雄市市立中山國中,,AirBox,kaohsiung,16.86,Theil-Sen/30/10.17,2020-05-24,74DA38F20BF4,,2.0,1.0,22.566,120.356,9.0,,,高雄市立中山國民中學,,35.0,41.0,21.0,,,,100.0,27.25,01:34:20,2020-05-24T01:34:20Z
臺南市安南區安和路五段84巷66號,臺南市市立和順國中,0,AirBox,,25.46,Theil-Sen/14/7.47,2020-05-24,08BEAC0A0596,v1.06,2.0,1.0,23.0501697167,120.218520798,9.0,0,AI-1003WN,,acelink.edimax,54.0,69.0,31.0,0.0,0.0,0.0,91.0,28.0,01:38:40,2020-05-24T01:38:40Z
高雄市立明義國民中學 高雄市小港區孔宅里明義街2號,高雄市市立明義國中,,AirBox,kaohsiung,6.53,Theil-Sen/30/9.95,2020-05-24,74DA38F20BF6,,2.0,1.0,22.582,120.368,9.0,,,高雄市明義國中,,11.0,12.0,6.0,,,,96.0,28.25,01:36:37,2020-05-24T01:36:37Z
臺南市學甲區宅港里13號,臺南市市立宅港國小,0,AirBox,,N/A,N/A,2020-05-24,08BEAC0A0598,v1.06,2.0,1.0,23.2579709,120.2035746,9.0,0,AI-1003WN,,acelink.edimax,49.0,60.0,29.0,0.0,0.0,0.0,100.0,30.1,01:36:53,2020-05-24T01:36:53Z
[312]新竹縣橫山鄉內灣村三鄰110號,新竹縣縣立內灣國小,,AirBox,hsinchu_county,6.22,BRR/14/10.34,2020-05-24,74DA38F20BF8,,2.0,1.0,24.704,121.183,9.0,,,新竹縣內灣國小,,7.0,8.0,5.0,,,,94.0,24.12,01:32:13,2020-05-24T01:32:13Z
臺中市神岡區岸裡里中山路52號,臺中市立岸裡國小,0,AirBox,,7.44,LR/30/4.61,2020-05-24,08BEAC0A0048,v1.06,2.0,1.0,24.24967999,120.6968633,9.0,0,AI-1003WN,,acelink.edimax,9.0,10.0,5.0,0.0,0.0,0.0,100.0,29.5,01:35:14,2020-05-24T01:35:14Z
[306]新竹縣關西鎮石光里石岡子386號,新竹縣縣立石光國小,,AirBox,hsinchu_county,7.33,BRR/14/8.96,2020-05-24,74DA38F20DF4,,2.0,1.0,24.813,121.128,9.0,,,skes,,7.0,8.0,3.0,,,,82.0,27.0,01:32:45,2020-05-24T01:32:45Z
高雄市立蚵寮國民中學 高雄市梓官區智蚵里中正二街60號,高雄市市立蚵寮國中,,AirBox,kaohsiung,8.98,Theil-Sen/30/11.05,2020-05-24,74DA38F20DF0,,2.0,1.0,22.728,120.258,9.0,,, 蚵寮國中空氣盒子,,18.0,19.0,12.0,,,,100.0,27.5,01:34:07,2020-05-24T01:34:07Z
N/A,74DA38E69ADC,,AirBox,kaohsiung,11.03,Theil-Sen/30/14.02,2020-05-24,74DA38E69ADC,,2.0,1.0,22.531,120.369,9.0,,,上林街,,16.0,16.0,11.0,,,,87.0,28.36,01:31:25,2020-05-24T01:31:25Z
雲林縣水林鄉大山村大山路六號,雲林縣縣立尖山國小,0,AirBox,,10.87,BRR/14/10.69,2020-05-24,08BEAC0A0446,v1.06,2.0,1.0,23.5605605,120.2229384,9.0,0,AI-1003WN,,acelink.edimax,18.0,20.0,10.0,0.0,0.0,0.0,100.0,29.6,01:38:58,2020-05-24T01:38:58Z
桃園市中壢區永福路1200號,桃園市市立自立國小,0,AirBox,,N/A,N/A,2020-05-24,08BEAC0A0444,v1.06,2.0,1.0,24.96828666,121.2511033,9.0,0,AI-1003WN,,acelink.edimax,12.0,13.0,7.0,0.0,0.0,0.0,79.0,26.7,01:35:32,2020-05-24T01:35:32Z
N/A,74DA38E2B62E,,AirBox,new_taipei,13.21,BRR/14/0.36,2020-05-24,74DA38E2B62E,,2.0,1.0,25.01,121.46,9.0,,,念生客廳,,11.0,11.0,7.0,,,,64.0,27.62,01:33:02,2020-05-24T01:33:02Z
臺中市西屯區重慶路200號,臺中市立大仁國小,0,AirBox,,11.47,BRR/30/2.51,2020-05-24,08BEAC0A0442,v1.06,2.0,1.0,24.16781574,120.6587068,9.0,0,AI-1003WN,,acelink.edimax,23.0,25.0,14.0,0.0,0.0,0.0,85.0,30.0,01:38:01,2020-05-24T01:38:01Z
臺中市烏日區健行路501號,臺中市立旭光國小,0,AirBox,,16.38,BRR/30/6.63,2020-05-24,08BEAC09FFC8,v1.06,2.0,1.0,24.1104395165,120.594264083,9.0,0,AI-1003WN,,acelink.edimax,30.0,34.0,17.0,0.0,0.0,0.0,77.0,30.5,01:38:39,2020-05-24T01:38:39Z
[946]屏東縣恆春鎮大光里大光路8之6號,屏東縣縣立大光國小,,AirBox,pingtung,3.23,BRR/14/3.61,2020-05-24,74DA38F211A0,,2.0,1.0,21.966,120.755,9.0,,,大光國小空氣盒子,,1.0,1.0,0.0,,,,100.0,28.25,01:32:54,2020-05-24T01:32:54Z
臺中市北屯區景賢6路200號,臺中市立東山高中,0,AirBox,,6.85,BRR/30/7.48,2020-05-24,08BEAC09FFC6,v1.06,2.0,1.0,24.16621833,120.7131183,9.0,0,AI-1003WN,,acelink.edimax,10.0,11.0,5.0,0.0,0.0,0.0,75.0,29.7,01:35:39,2020-05-24T01:35:39Z
高雄市立甲仙國民中學 高雄市甲仙區東安里文化南路6號,高雄市市立甲仙國中,,AirBox,kaohsiung,10.5,Theil-Sen/30/22.73,2020-05-24,74DA38F211A2,,2.0,1.0,23.08,120.592,9.0,,,高雄市甲仙國中,,17.0,18.0,9.0,,,,100.0,25.75,01:31:27,2020-05-24T01:31:27Z
臺北市北投區文化里文化三路1號,市立文化國小,,AirBox,taipei,17.8,LR/14/4.02,2020-05-24,74DA38F211A4,,2.0,1.0,25.137,121.496,9.0,,,臺北市北投區文化國小2018,,18.0,19.0,12.0,,,,83.0,25.25,01:31:31,2020-05-24T01:31:31Z
雲林縣東勢鄉月眉村中山路十號,雲林縣縣立明倫國小,0,AirBox,,9.95,BRR/14/24.27,2020-05-24,08BEAC09FFC2,v1.06,2.0,1.0,23.68272006,120.284779,9.0,0,AI-1003WN,,acelink.edimax,15.0,17.0,9.0,0.0,0.0,0.0,100.0,30.2,01:35:52,2020-05-24T01:35:52Z
臺中市南屯區永春東路288號,臺中市立永春國小,0,AirBox,,15.28,BRR/30/2.0,2020-05-24,08BEAC0A0448,v1.06,2.0,1.0,24.135047,120.6479405,9.0,0,AI-1003WN,,acelink.edimax,28.0,30.0,16.0,0.0,0.0,0.0,78.0,29.6,01:34:52,2020-05-24T01:34:52Z
臺中市霧峰區甲寅里民生路156號,臺中市立僑榮國小,0,AirBox,,12.93,BRR/30/10.67,2020-05-24,08BEAC09FFC0,v1.06,2.0,1.0,24.07344177,120.7015437,9.0,0,AI-1003WN,,acelink.edimax,26.0,27.0,14.0,0.0,0.0,0.0,86.0,28.3,01:36:26,2020-05-24T01:36:26Z
N/A,THU_USR_04,,AirBox,taichuang,7.47,BRR/30/6.57,2020-05-24,74DA38EBF79A,,2.0,1.0,24.183,120.586,9.0,,,THUUSR-04,,20.0,21.0,12.0,,,,100.0,27.25,01:31:55,2020-05-24T01:31:55Z
Taoyuan,桃園-1,,AirBox,taoyuan,8.91,BRR/30/0.16,2020-05-24,08BEAC028A74,,2.0,1.0,24.994,121.305,9.0,,,手動站：桃園站-1（A74),,10.0,11.0,7.0,,,,72.0,29.5,01:31:10,2020-05-24T01:31:10Z
嘉義縣新港鄉月眉村20鄰123號,嘉義縣縣立月眉國小,0,AirBox,,27.21,Theil-Sen/30/11.18,2020-05-24,08BEAC0A0628,v1.06,2.0,1.0,23.52004522,120.3507122,9.0,0,AI-1003WN,,acelink.edimax,41.0,51.0,24.0,0.0,0.0,0.0,100.0,28.8,01:36:49,2020-05-24T01:36:49Z
N/A,74DA38EBF79E,,AirBox,taipei,8.43,BRR/14/1.27,2020-05-24,74DA38EBF79E,,2.0,1.0,25.041,121.519,9.0,,,台大醫院2,,6.0,7.0,4.0,,,,80.0,26.5,01:33:02,2020-05-24T01:33:02Z
臺南市新化區中山路173號,臺南市市立新化國小,0,AirBox,,19.2,Theil-Sen/14/12.57,2020-05-24,08BEAC0A0626,v1.04,2.0,1.0,23.0375752,120.3110539,9.0,0,AI-1003WN,,acelink.edimax,44.0,56.0,25.0,0.0,0.0,0.0,98.0,28.7,01:36:47,2020-05-24T01:36:47Z
嘉義縣新港鄉福德村福德路106號,嘉義縣縣立新港國中,0,AirBox,,18.71,BRR/14/14.01,2020-05-24,08BEAC0A0624,v1.06,2.0,1.0,23.557845,120.343112,9.0,0,AI-1003WN,,acelink.edimax,36.0,41.0,21.0,0.0,0.0,0.0,96.0,29.2,01:37:02,2020-05-24T01:37:02Z
雲林縣古坑鄉華山村四一號,雲林縣縣立華山國小,0,AirBox,,72.4,Theil-Sen/21/13.98,2020-05-24,08BEAC0A0622,v1.06,2.0,1.0,23.5953486,120.5967026,9.0,0,AI-1003WN,,acelink.edimax,43.0,65.0,22.0,0.0,0.0,0.0,100.0,25.0,01:37:23,2020-05-24T01:37:23Z
桃園市蘆竹區大新路380巷121號,桃園市市立新莊國小,0,AirBox,,8.09,BRR/30/6.84,2020-05-24,08BEAC0A0620,v1.06,2.0,1.0,25.02773493,121.2466369,9.0,0,AI-1003WN,,acelink.edimax,14.0,15.0,8.0,0.0,0.0,0.0,100.0,28.6,01:36:52,2020-05-24T01:36:52Z
[353]苗栗縣南庄鄉東河村三鄰132號,苗栗縣縣立東河國小,,AirBox,miaoli,3.01,BRR/14/16.4,2020-05-24,74DA38F20A38,,2.0,1.0,24.6,121.04,9.0,,,苗栗縣東河國小,,2.0,2.0,1.0,,,,100.0,23.37,01:34:40,2020-05-24T01:34:40Z
桃園市龍潭區三坑里永昌路51巷85號,桃園市市立三坑國小,0,AirBox,,N/A,N/A,2020-05-24,08BEAC0A03D8,v1.06,2.0,1.0,24.8366336823,121.248306274,9.0,0,AI-1003WN,,acelink.edimax,6.0,9.0,3.0,0.0,0.0,0.0,85.0,27.2,01:36:27,2020-05-24T01:36:27Z
N/A,74DA38E2B550,,AirBox,new_taipei,7.64,BRR/14/4.94,2020-05-24,74DA38E2B550,,2.0,1.0,24.996,121.504,9.0,,,南華路明禮街,,8.0,8.0,5.0,,,,82.0,26.75,01:32:43,2020-05-24T01:32:43Z
N/A,74DA38EBF818,,AirBox,taichuang,7.97,BRR/30/2.72,2020-05-24,74DA38EBF818,,2.0,1.0,24.176,120.636,9.0,,,JJboxK,,13.0,23.0,13.0,,,,78.0,27.75,01:32:13,2020-05-24T01:32:13Z
N/A,74DA38AF4798,,AirBox,taipei,4.23,LR/14/1.13,2020-05-24,74DA38AF4798,,2.0,1.0,25.115,121.519,9.0,,,振華公園,,4.0,6.0,3.0,,,,100.0,26.37,01:33:30,2020-05-24T01:33:30Z
Banqiao,板橋-2,,AirBox,NA,13.47,BRR/14/0.13,2020-05-24,08BEAC0286CE,,2.0,1.0,25.012,121.458,9.0,,,手動站：板橋站-2（6CE),,14.0,16.0,9.0,,,,69.0,29.61,01:35:32,2020-05-24T01:35:32Z
[900]屏東縣屏東市勝利里蘭州街2號,屏東縣縣立勝利國小,,AirBox,pingtung,19.15,BRR/30/0.8,2020-05-24,74DA38F20A44,,2.0,1.0,22.68,120.486,9.0,,,屏東市勝利國小,,37.0,46.0,21.0,,,,100.0,26.37,01:36:13,2020-05-24T01:36:13Z
[305]新竹縣新埔鎮新民里民生街28號,新竹縣縣立新星國小,,AirBox,hsinchu_county,7.14,BRR/14/9.94,2020-05-24,74DA38F20A48,,2.0,1.0,24.829,121.074,9.0,,,新竹縣新星國小,,8.0,9.0,5.0,,,,86.0,25.0,01:33:42,2020-05-24T01:33:42Z
臺中市南屯區大業路100號,臺中市立大業國中,0,AirBox,,14.62,BRR/30/1.17,2020-05-24,08BEAC0A013C,v1.06,2.0,1.0,24.1541760879,120.652356371,9.0,0,AI-1003WN,,acelink.edimax,28.0,31.0,16.0,0.0,0.0,0.0,82.0,28.8,01:37:10,2020-05-24T01:37:10Z
臺中市梧棲區中央路一段160號,臺中市立永寧國小,0,AirBox,,4.88,BRR/30/13.93,2020-05-24,08BEAC0A013A,v1.06,2.0,1.0,24.2291067913,120.532946438,9.0,0,AI-1003WN,,acelink.edimax,8.0,9.0,6.0,0.0,0.0,0.0,81.0,28.3,01:35:30,2020-05-24T01:35:30Z
臺中市清水區五權路336號,臺中市立大秀國小,0,AirBox,,1.9,BRR/30/16.5,2020-05-24,08BEAC0A013E,v1.06,2.0,1.0,24.2791619288,120.557328723,9.0,0,AI-1003WN,,acelink.edimax,9.0,11.0,5.0,0.0,0.0,0.0,100.0,28.3,01:35:25,2020-05-24T01:35:25Z
N/A,74DA38ED069C,,AirBox,taipei,16.11,BRR/14/1.28,2020-05-24,74DA38ED069C,,2.0,1.0,25.03725736,121.5004406,9.0,,,油香處,,11.0,12.0,7.0,,,,55.0,30.5,01:31:41,2020-05-24T01:31:41Z
N/A,THU_USR_41,,AirBox,changhua,12.77,LR/30/24.41,2020-05-24,74DA38F7C22C,,2.0,1.0,23.892,120.395,9.0,,,THUUSR-41興華國小,,13.0,15.0,7.0,,,,85.0,27.12,01:35:28,2020-05-24T01:35:28Z
[943]屏東縣獅子鄉內獅村1號,屏東縣縣立內獅國小,,AirBox,pingtung,11.09,BRR/14/41.3,2020-05-24,74DA38F20AFA,,2.0,1.0,22.304,120.643,9.0,,,屏東縣內獅國小,,16.0,23.0,7.0,,,,99.0,26.37,01:34:29,2020-05-24T01:34:29Z
N/A,74DA38AF4786,,AirBox,taoyuan,N/A,N/A,2020-05-24,74DA38AF4786,,2.0,1.0,25.008,121.212,9.0,,,Peihsi & Crius,,6.0,7.0,4.0,,,,98.0,26.37,01:31:47,2020-05-24T01:31:47Z
高雄市甲圍國小 高雄市橋頭區甲北里甲昌路250號,高雄市市立甲圍國小,,AirBox,kaohsiung,16.1,Theil-Sen/30/11.41,2020-05-24,74DA38F21046,,2.0,1.0,22.735,120.294,9.0,,,高雄市橋頭區甲圍國小,,25.0,26.0,15.0,,,,84.0,27.75,01:31:53,2020-05-24T01:31:53Z
N/A,74DA38EBF816,,AirBox,kaohsiung,19.27,Theil-Sen/30/5.16,2020-05-24,74DA38EBF816,,2.0,1.0,22.638,120.338,9.0,,,九如一路186巷,,34.0,39.0,20.0,,,,88.0,27.62,01:32:21,2020-05-24T01:32:21Z
N/A,74DA38ED066C,,AirBox,new_taipei,6.51,BRR/14/1.47,2020-05-24,74DA38ED066C,,2.0,1.0,25.05,121.522,9.0,,,林財旺,,1.0,0.0,0.0,,,,77.0,28.5,01:32:50,2020-05-24T01:32:50Z
N/A,THU_USR_32,,AirBox,changhua,5.14,LR/30/20.43,2020-05-24,74DA38F7C220,,2.0,1.0,23.959,120.378,9.0,,,THUUSR-32 草湖國中,,9.0,11.0,5.0,,,,89.0,26.5,01:37:11,2020-05-24T01:37:11Z
N/A,74DA38AF478A,,AirBox,tainan,7.38,Theil-Sen/14/2.0,2020-05-24,74DA38AF478A,,2.0,1.0,22.982,120.222,9.0,,,Tuair,,4.0,4.0,3.0,,,,72.0,28.36,01:36:38,2020-05-24T01:36:38Z
N/A,74DA38ED0696,,AirBox,taipei,8.03,BRR/14/2.8,2020-05-24,74DA38ED0696,,2.0,1.0,25.03,121.529,9.0,,,永康街,,4.0,6.0,3.0,,,,77.0,26.75,01:31:38,2020-05-24T01:31:38Z
N/A,74DA38AF478E,,AirBox,taipei,3.3,BRR/14/4.33,2020-05-24,74DA38AF478E,,2.0,1.0,25.024,121.543,9.0,,,Simenvi 5f,,4.0,5.0,3.0,,,,100.0,26.12,01:35:08,2020-05-24T01:35:08Z
[913]屏東縣萬丹鄉寶厝村萬新路1497號,屏東縣縣立萬丹國小,,AirBox,pingtung,19.73,BRR/30/10.13,2020-05-24,74DA38F20A4A,,2.0,1.0,22.582,120.488,9.0,,,萬丹國小空氣盒子,,39.0,48.0,22.0,,,,100.0,27.0,01:34:03,2020-05-24T01:34:03Z
臺中市外埔區水美里二崁路390巷63號,臺中市立水美國小,0,AirBox,,4.1,LR/30/13.2,2020-05-24,08BEAC0A0138,v1.06,2.0,1.0,24.32643173,120.6363685,9.0,0,AI-1003WN,,acelink.edimax,4.0,5.0,2.0,0.0,0.0,0.0,100.0,29.3,01:34:56,2020-05-24T01:34:56Z
臺中市大里區永隆五街2號,臺中市立永隆國小,0,AirBox,,11.15,BRR/30/5.44,2020-05-24,08BEAC0A0132,v1.06,2.0,1.0,24.114893,120.6761345,9.0,0,AI-1003WN,,acelink.edimax,23.0,26.0,15.0,0.0,0.0,0.0,87.0,29.5,01:38:40,2020-05-24T01:38:40Z
臺中市大里區立新街338號,臺中市立立新國小,0,AirBox,,7.18,BRR/30/7.86,2020-05-24,08BEAC0A0130,v1.06,2.0,1.0,24.10539918,120.6993297,9.0,0,AI-1003WN,,acelink.edimax,17.0,17.0,10.0,0.0,0.0,0.0,91.0,32.3,01:34:40,2020-05-24T01:34:40Z
臺中市神岡區神清路61號,臺中市立神圳國中,0,AirBox,,126.99,LR/30/8.48,2020-05-24,08BEAC0A0136,v1.06,2.0,1.0,24.26117071,120.6581744,9.0,0,AI-1003WN,,acelink.edimax,11.0,13.0,6.0,0.0,0.0,0.0,78.0,28.1,01:35:51,2020-05-24T01:35:51Z
Tainan,台南-2,,AirBox,tainan,25.31,Theil-Sen/14/0.09,2020-05-24,08BEAC0286C8,,2.0,1.0,22.984,120.202,9.0,,,手動站:臺南站-2（6C8),,47.0,63.0,27.0,,,,77.0,28.86,01:36:02,2020-05-24T01:36:02Z
高雄市鳳林國小 高雄市小港區鳳林路207號,高雄市市立鳳林國小,,AirBox,kaohsiung,12.28,Theil-Sen/30/13.08,2020-05-24,74DA38F20F6C,,2.0,1.0,22.526,120.342,9.0,,,小港區鳳林國小,,25.0,27.0,14.0,,,,100.0,27.25,01:34:05,2020-05-24T01:34:05Z
N/A,08BEAC028C7A,,AirBox,kaohsiung,15.72,Theil-Sen/30/11.23,2020-05-24,08BEAC028C7A,,2.0,1.0,22.73355,120.285265,9.0,,,NUKAIR_1,,16.0,17.0,10.0,,,,69.0,27.75,01:34:07,2020-05-24T01:34:07Z
N/A,28C2DDDD4532,,AirBox,hsinchu_county,5.15,BRR/14/7.28,2020-05-24,28C2DDDD4532,,2.0,1.0,24.683,121.123,9.0,,,max25,,5.0,0.0,0.0,,,,100.0,24.37,01:34:10,2020-05-24T01:34:10Z
N/A,taichung24,,AirBox,taichuang,N/A,N/A,2020-05-24,74DA3895C3E2,,2.0,1.0,34.749,135.392,9.0,,,Mukonoso,,15.0,17.0,12.0,,,,86.0,25.12,01:33:23,2020-05-24T01:33:23Z
N/A,新北市青潭國小,,AirBox,new_taipei,4.43,BRR/14/11.3,2020-05-24,74DA38F7C40A,,2.0,1.0,24.953,121.552,9.0,,,青潭國小,,5.0,6.0,3.0,,,,97.0,25.0,01:32:34,2020-05-24T01:32:34Z
N/A,74DA3895C4CE,,AirBox,changhua,9.01,LR/30/6.53,2020-05-24,74DA3895C4CE,,2.0,1.0,24.113,120.503,9.0,,,myPM2.5_CE,,9.0,10.0,6.0,,,,84.0,27.12,01:36:26,2020-05-24T01:36:26Z
雲林縣東勢鄉東榮路六五號,雲林縣縣立東勢國中,0,AirBox,,4.95,BRR/14/22.94,2020-05-24,08BEAC0A062E,v1.06,2.0,1.0,23.673242,120.2564741,9.0,0,AI-1003WN,,acelink.edimax,7.0,8.0,3.0,0.0,0.0,0.0,100.0,28.3,01:36:38,2020-05-24T01:36:38Z
雲林縣斗六市中和里西平路三號,雲林縣縣立鎮西國小,0,AirBox,,89.37,Theil-Sen/21/0.83,2020-05-24,08BEAC0A062C,v1.06,2.0,1.0,23.7073903,120.5384094,9.0,0,AI-1003WN,,acelink.edimax,53.0,66.0,30.0,0.0,0.0,0.0,97.0,28.5,01:35:37,2020-05-24T01:35:37Z
[905]屏東縣里港鄉玉田村八德路91號,屏東縣縣立玉田國小,,AirBox,pingtung,14.69,BRR/30/11.11,2020-05-24,74DA38F210C6,,2.0,1.0,22.773,120.49,9.0,,,屏東縣玉田國小,,27.0,29.0,15.0,,,,100.0,26.0,01:32:34,2020-05-24T01:32:34Z
[928]屏東縣東港鎮興東里長春二路15號,屏東縣縣立東光國小,,AirBox,pingtung,11.93,BRR/30/23.0,2020-05-24,74DA38F210C4,,2.0,1.0,22.468,120.459,9.0,,,DKES,,23.0,25.0,13.0,,,,100.0,27.62,01:34:29,2020-05-24T01:34:29Z
N/A,74DA38B050CC,,AirBox,changhua,0.0,LR/30/12.34,2020-05-24,74DA38B050CC,,2.0,1.0,23.992,120.451,9.0,,,彰化埔鹽_湖仔內,,0.0,0.0,0.0,,,,100.0,40.87,01:35:53,2020-05-24T01:35:53Z
N/A,74DA38C7CF4C,,AirBox,kaohsiung,10.13,Theil-Sen/30/7.25,2020-05-24,74DA38C7CF4C,,2.0,1.0,22.946,120.51,9.0,,,旗山五福的家,,8.0,8.0,6.0,,,,68.0,25.87,01:34:31,2020-05-24T01:34:31Z
[905]屏東縣里港鄉塔樓村塔樓路21之3號,屏東縣縣立塔樓國小,,AirBox,pingtung,16.25,BRR/30/10.23,2020-05-24,74DA38F210C8,,2.0,1.0,22.765,120.483,9.0,,,屏東縣塔樓國小,,33.0,39.0,18.0,,,,100.0,28.25,01:36:47,2020-05-24T01:36:47Z
N/A,新北市汐止國小,,AirBox,new_taipei,5.98,LR/14/1.29,2020-05-24,74DA38F7C55C,,2.0,1.0,25.066,121.655,9.0,,,新北市汐止國小,,9.0,10.0,4.0,,,,100.0,24.25,01:35:02,2020-05-24T01:35:02Z
N/A,新北市插角國小,,AirBox,new_taipei,2.53,BRR/14/16.58,2020-05-24,74DA38F7C314,,2.0,1.0,24.872,121.405,9.0,,,新北市插角國小-空氣盒子,,6.0,8.0,3.0,,,,100.0,24.87,01:32:26,2020-05-24T01:32:26Z
N/A,新北市建安國小,,AirBox,new_taipei,3.47,BRR/14/5.51,2020-05-24,74DA38F7C316,,2.0,1.0,25.062,121.451,9.0,,,建安國小,,8.0,9.0,5.0,,,,100.0,25.37,01:35:55,2020-05-24T01:35:55Z
N/A,新北市崇德國小,,AirBox,new_taipei,4.82,LR/14/2.59,2020-05-24,74DA38F7C55E,,2.0,1.0,25.068,121.668,9.0,,,新北市崇德國小,,7.0,8.0,4.0,,,,100.0,23.5,01:36:44,2020-05-24T01:36:44Z
N/A,新北市新興國小,,AirBox,new_taipei,N/A,N/A,2020-05-24,74DA38F7C312,,2.0,1.0,25.179,121.44,9.0,,,新北市淡水區新興國小,,5.0,7.0,3.0,,,,99.0,24.5,01:33:23,2020-05-24T01:33:23Z
N/A,08BEAC028908,,AirBox,changhua,24.72,LR/30/9.31,2020-05-24,08BEAC028908,,2.0,1.0,24.0,120.598,9.0,,,大葉大學-設計學院,,31.0,35.0,17.0,,,,97.0,27.62,01:31:20,2020-05-24T01:31:20Z
[954]臺東縣卑南鄉東興村東園一街40號,台東縣縣立大南國小,,AirBox,taitung,2.3,PA/14/11.06,2020-05-24,74DA38F20CA6,,2.0,1.0,22.764,121.043,9.0,,,臺東縣大南國民小學,,0.0,0.0,0.0,,,,100.0,24.5,01:32:07,2020-05-24T01:32:07Z
Yilan,宜蘭-1,,AirBox,taipei,7.44,BRR/14/3.7,2020-05-24,08BEAC028CF6,,2.0,1.0,25.0513065,121.5442898,9.0,,,手動站：宜蘭站-1（CF6）,,0.0,1.0,0.0,,,,70.0,29.86,01:33:50,2020-05-24T01:33:50Z
[953]臺東縣延平鄉武陵村一鄰明野路16號,台東縣縣立武陵國小,,AirBox,taitung,2.37,PA/14/24.02,2020-05-24,74DA38F20868,,2.0,1.0,22.969,121.116,9.0,,,台東縣武陵國小,,0.0,0.0,0.0,,,,100.0,23.5,01:37:07,2020-05-24T01:37:07Z
N/A,08BEAC028A98,,AirBox,tainan,24.28,Theil-Sen/14/2.63,2020-05-24,08BEAC028A98,,2.0,1.0,22.973,120.225,9.0,,,Chongming14st,,49.0,64.0,29.0,,,,88.0,26.62,01:33:51,2020-05-24T01:33:51Z
高雄市加昌國小 高雄市楠梓區樂群路220號,高雄市市立加昌國小,,AirBox,kaohsiung,17.4,Theil-Sen/30/9.76,2020-05-24,74DA38F20A0A,,2.0,1.0,22.72,120.296,9.0,,,加昌國小新空氣盒子,,33.0,39.0,17.0,,,,94.0,27.37,01:34:49,2020-05-24T01:34:49Z
Yilan,宜蘭-2,,AirBox,taipei,59.56,BRR/14/4.41,2020-05-24,08BEAC028CF8,,2.0,1.0,25.04164998,121.5513948,9.0,,,手動站：宜蘭站-2（CF8）,,103.0,104.0,101.0,,,,71.0,30.86,01:31:45,2020-05-24T01:31:45Z
[957]臺東縣海端鄉海端村七鄰5號,台東縣縣立初來國小,,AirBox,taitung,13.46,PA/14/40.26,2020-05-24,74DA38F20864,,2.0,1.0,23.117,121.169,9.0,,,台東縣初來國小,,22.0,22.0,21.0,,,,100.0,24.37,01:32:01,2020-05-24T01:32:01Z
臺北市中正區梅花里忠孝東路2段101號,市立忠孝國小,,AirBox,taipei,7.8,BRR/14/2.25,2020-05-24,74DA38F7C5C4,,2.0,1.0,25.043,121.53,9.0,,,臺北市中正區忠孝國小2018,,8.0,10.0,5.0,,,,88.0,25.37,01:35:49,2020-05-24T01:35:49Z
臺北市內湖區紫陽里陽光街1號,市立內湖國中,,AirBox,taipei,5.12,LR/14/5.56,2020-05-24,74DA38F7C5C0,,2.0,1.0,25.076,121.588,9.0,,,台北市內湖區內湖國中2018,,7.0,9.0,4.0,,,,100.0,24.12,01:33:35,2020-05-24T01:33:35Z
N/A,taichung133,,AirBox,taichuang,8.11,LR/30/7.06,2020-05-24,74DA38C7D3C8,,2.0,1.0,24.201,120.708,9.0,,,taichung133,,10.0,12.0,7.0,,,,100.0,27.75,01:34:53,2020-05-24T01:34:53Z
N/A,74DA38EBF662,,AirBox,nantou,6.63,LR/30/30.29,2020-05-24,74DA38EBF662,,2.0,1.0,23.947,120.981,9.0,,,慈恩社區,,10.0,12.0,6.0,,,,100.0,25.5,01:31:56,2020-05-24T01:31:56Z
N/A,74DA38EBF660,,AirBox,taipei,7.62,LR/14/1.39,2020-05-24,74DA38EBF660,,2.0,1.0,25.093,121.517,9.0,,,北市陽明高中,,9.0,9.0,6.0,,,,100.0,25.87,01:33:11,2020-05-24T01:33:11Z
N/A,74DA38EBF936,,AirBox,kaohsiung,19.06,Theil-Sen/30/1.29,2020-05-24,74DA38EBF936,,2.0,1.0,22.622,120.283,9.0,,,鹽埕香格里拉大樓室內,,28.0,30.0,17.0,,,,77.0,28.25,01:33:18,2020-05-24T01:33:18Z
N/A,74DA38C7D3CC,,AirBox,18,8.8,PA/14/3.2,2020-05-24,74DA38C7D3CC,,2.0,1.0,24.789,120.998,9.0,,,交大六家校區-大門口,,6.0,7.0,4.0,,,,100.0,26.62,01:34:27,2020-05-24T01:34:27Z
N/A,74DA38C7D3CE,,AirBox,12,8.95,PA/14/3.26,2020-05-24,74DA38C7D3CE,,2.0,1.0,24.787,120.997,9.0,,,綜合一館,,6.0,7.0,4.0,,,,100.0,27.12,01:32:13,2020-05-24T01:32:13Z
臺中市后里區廣福里三豐路三段968號,臺中市立后綜高中,0,AirBox,,5.44,LR/30/5.88,2020-05-24,08BEAC0A000A,v1.06,2.0,1.0,24.30660499,120.7227666,9.0,0,AI-1003WN,,acelink.edimax,6.0,7.0,4.0,0.0,0.0,0.0,100.0,29.5,01:34:34,2020-05-24T01:34:34Z
N/A,74DA38EBF66C,,AirBox,tainan,25.7,Theil-Sen/30/4.0,2020-05-24,74DA38EBF66C,,2.0,1.0,22.665,120.305,9.0,,,采華天,,55.0,68.0,36.0,,,,100.0,28.25,01:36:43,2020-05-24T01:36:43Z
N/A,74DA38EBF938,,AirBox,kaohsiung,10.68,Theil-Sen/30/4.31,2020-05-24,74DA38EBF938,,2.0,1.0,22.611,120.323,9.0,,,Sam house,,6.0,6.0,4.0,,,,70.0,28.36,01:34:52,2020-05-24T01:34:52Z
[974]花蓮縣壽豐鄉溪口村溪口路87號,花蓮縣立溪口國小,,AirBox,hualien,0.0,LR/14/21.28,2020-05-24,74DA38ED074E,,2.0,1.0,23.819,121.473,9.0,,,花蓮縣溪口國小,,9.0,10.0,4.0,,,,100.0,24.12,01:33:51,2020-05-24T01:33:51Z
N/A,74DA38EBF7B8,,AirBox,miaoli,8.83,LR/14/5.72,2020-05-24,74DA38EBF7B8,,2.0,1.0,24.413,120.713,9.0,,,苗栗縣蕉埔國小2,,4.0,4.0,2.0,,,,62.0,29.5,01:37:09,2020-05-24T01:37:09Z
N/A,08BEAC028A9E,,AirBox,new_taipei,N/A,N/A,2020-05-24,08BEAC028A9E,,2.0,1.0,25.107,121.843,9.0,,,九份國小後走廊,,9.0,11.0,5.0,,,,80.0,24.87,01:36:10,2020-05-24T01:36:10Z
N/A,74DA38EBF7B4,,AirBox,kaohsiung,20.69,Theil-Sen/30/6.38,2020-05-24,74DA38EBF7B4,,2.0,1.0,22.644,120.349,9.0,,,JA-戶外東陽台,,37.0,43.0,22.0,,,,88.0,27.5,01:31:17,2020-05-24T01:31:17Z
N/A,08BEAC028A9C,,AirBox,kaohsiung,18.19,Theil-Sen/30/4.21,2020-05-24,08BEAC028A9C,,2.0,1.0,22.63,120.329,9.0,,,Air2019,,24.0,26.0,15.0,,,,72.0,29.11,01:36:33,2020-05-24T01:36:33Z
N/A,08BEAC028A9A,,AirBox,taipei,10.05,BRR/14/7.69,2020-05-24,08BEAC028A9A,,2.0,1.0,24.99,121.552,9.0,,,Fushan,,10.0,10.0,6.0,,,,82.0,26.25,01:35:54,2020-05-24T01:35:54Z
N/A,新北市北峰國小,,AirBox,new_taipei,0.0,LR/14/1.13,2020-05-24,74DA38F7C552,,2.0,1.0,25.063,121.632,9.0,,,新北市北峰國小,,6.0,7.0,4.0,,,,81.0,26.0,01:33:11,2020-05-24T01:33:11Z
N/A,74DA38F6FFB0,,AirBox,new_taipei,6.94,BRR/14/6.01,2020-05-24,74DA38F6FFB0,,2.0,1.0,24.979,121.505,9.0,,,ChulinES,,8.0,9.0,5.0,,,,85.0,25.87,01:33:46,2020-05-24T01:33:46Z
N/A,74DA38AF47CE,,AirBox,NA,5.36,BRR/14/0.13,2020-05-24,74DA38AF47CE,,2.0,1.0,25.012,121.458,9.0,,,板橋比對2(CE),,12.0,14.0,9.0,,,,100.0,27.62,01:32:45,2020-05-24T01:32:45Z
N/A,新北市頭前國小,,AirBox,new_taipei,12.28,BRR/14/4.39,2020-05-24,74DA38F7C556,,2.0,1.0,25.053,121.465,9.0,,,新北市新莊區頭前國小,,16.0,17.0,10.0,,,,86.0,25.25,01:35:33,2020-05-24T01:35:33Z
臺中市龍井區山腳里中山一路一段六號,臺中市立龍山國小,0,AirBox,,0.0,BRR/30/11.46,2020-05-24,08BEAC0A02E2,v1.06,2.0,1.0,24.21390129,120.5507458,9.0,0,AI-1003WN,,acelink.edimax,1.0,1.0,0.0,0.0,0.0,0.0,90.0,29.5,01:34:27,2020-05-24T01:34:27Z
N/A,新北市三重國小,,AirBox,new_taipei,6.35,BRR/14/2.7,2020-05-24,74DA38F7C554,,2.0,1.0,25.069,121.498,9.0,,,三重國小,,10.0,12.0,7.0,,,,100.0,25.62,01:33:46,2020-05-24T01:33:46Z
N/A,新北市新莊幼兒園,,AirBox,new_taipei,6.3,BRR/14/3.75,2020-05-24,74DA38F7C558,,2.0,1.0,25.046,121.451,9.0,,,新北市立新莊幼兒園,,14.0,16.0,8.0,,,,100.0,25.87,01:34:25,2020-05-24T01:34:25Z
N/A,74DA38F70104,,AirBox,tainan,16.17,Theil-Sen/14/3.67,2020-05-24,74DA38F70104,,2.0,1.0,22.988,120.167,9.0,,,育平路(安平),,37.0,49.0,23.0,,,,100.0,26.62,01:31:23,2020-05-24T01:31:23Z
[900]屏東縣屏東市和平路429號,屏東縣縣立大同高中附設國中,,AirBox,pingtung,6.68,BRR/30/1.21,2020-05-24,74DA38F20916,,2.0,1.0,22.677,120.477,9.0,,,屏東縣立大同高中,,11.0,13.0,6.0,,,,100.0,27.0,01:37:01,2020-05-24T01:37:01Z
[357]苗栗縣通霄鎮內島里二鄰15號,苗栗縣縣立啟明國小,,AirBox,miaoli,6.81,BRR/30/11.27,2020-05-24,74DA38F20910,,2.0,1.0,24.559,120.709,9.0,,,苗栗縣立啟明國小,,11.0,12.0,7.0,,,,100.0,26.37,01:33:22,2020-05-24T01:33:22Z
N/A,74DA38C7CF40,,AirBox,taichuang,9.28,BRR/30/5.72,2020-05-24,74DA38C7CF40,,2.0,1.0,24.174,120.692,9.0,,,HK1621,,24.0,26.0,17.0,,,,100.0,29.36,01:36:11,2020-05-24T01:36:11Z
N/A,74DA38C7CF42,,AirBox,tainan,20.31,Theil-Sen/14/1.72,2020-05-24,74DA38C7CF42,,2.0,1.0,22.994,120.216,9.0,,,台南一中,,47.0,65.0,29.0,,,,100.0,27.87,01:33:28,2020-05-24T01:33:28Z
桃園市平鎮區環南路300號,桃園市市立平興國中,0,AirBox,,N/A,N/A,2020-05-24,08BEAC0A083C,v1.06,2.0,1.0,24.94954935,121.2059301,9.0,0,AI-1003WN,,acelink.edimax,18.0,20.0,11.0,0.0,0.0,0.0,88.0,26.6,01:39:18,2020-05-24T01:39:18Z
臺南市官田區隆田里中山路一段127號,臺南市市立隆田國小,0,AirBox,,N/A,N/A,2020-05-24,08BEAC0A07B2,v1.06,2.0,1.0,23.1924916,120.3147528,9.0,0,AI-1003WN,,acelink.edimax,55.0,69.0,33.0,0.0,0.0,0.0,100.0,28.5,01:37:15,2020-05-24T01:37:15Z
桃園市觀音區樹林里新里路二段12號,桃園市市立樹林國小,0,AirBox,,N/A,N/A,2020-05-24,08BEAC0A083A,v1.06,2.0,1.0,25.06249274,121.1281284,9.0,0,AI-1003WN,,acelink.edimax,6.0,8.0,3.0,0.0,0.0,0.0,100.0,28.0,01:35:31,2020-05-24T01:35:31Z
桃園市大園區中正東路二段539號,桃園市市立五權國小,0,AirBox,,7.54,BRR/30/8.03,2020-05-24,08BEAC0A07B0,v1.06,2.0,1.0,25.02365606,121.231099,9.0,0,AI-1003WN,,acelink.edimax,10.0,11.0,7.0,0.0,0.0,0.0,84.0,28.3,01:36:59,2020-05-24T01:36:59Z
桃園市觀音區坑尾里四鄰23之1號,桃園市市立育仁國小,0,AirBox,,N/A,N/A,2020-05-24,08BEAC0A07B6,v1.06,2.0,1.0,25.01338108,121.1027692,9.0,0,AI-1003WN,,acelink.edimax,3.0,4.0,1.0,0.0,0.0,0.0,80.0,30.0,01:37:22,2020-05-24T01:37:22Z
桃園市觀音區草漯里新生路1462號,桃園市市立草漯國小,0,AirBox,,N/A,N/A,2020-05-24,08BEAC0A083E,v1.06,2.0,1.0,25.0471238732,121.144432761,9.0,0,AI-1003WN,,acelink.edimax,8.0,8.0,4.0,0.0,0.0,0.0,85.0,27.2,01:37:26,2020-05-24T01:37:26Z
N/A,74DA38E69BF4,,AirBox,kaohsiung,16.86,Theil-Sen/30/7.69,2020-05-24,74DA38E69BF4,,2.0,1.0,22.685,120.337,9.0,,,北屋社區,,35.0,45.0,23.0,,,,100.0,27.25,01:32:14,2020-05-24T01:32:14Z
桃園市楊梅區上田里九鄰98號,桃園市市立上田國小,0,AirBox,,N/A,N/A,2020-05-24,08BEAC0A0556,v1.06,2.0,1.0,24.93800754,121.1265816,9.0,0,AI-1003WN,,acelink.edimax,12.0,15.0,7.0,0.0,0.0,0.0,91.0,27.8,01:34:56,2020-05-24T01:34:56Z
N/A,74DA38F7025A,,AirBox,taichuang,8.84,BRR/30/5.34,2020-05-24,74DA38F7025A,,2.0,1.0,24.19,120.609,9.0,,,台中市西屯區莫內花園,,13.0,14.0,8.0,,,,73.0,28.25,01:36:52,2020-05-24T01:36:52Z
N/A,74DA38F7025C,,AirBox,NA,N/A,N/A,2020-05-24,74DA38F7025C,,2.0,1.0,23.184,120.36,9.0,,,官田社子倉庫,,55.0,69.0,32.0,,,,100.0,27.62,01:31:30,2020-05-24T01:31:30Z
N/A,74DA38F7025E,,AirBox,yunlin,18.4,Theil-Sen/21/23.15,2020-05-24,74DA38F7025E,,2.0,1.0,23.757,120.323,9.0,,,myPM2.5_5E,,9.0,10.0,6.0,,,,80.0,27.12,01:35:39,2020-05-24T01:35:39Z
N/A,74DA38EBF804,,AirBox,new_taipei,7.88,BRR/14/3.36,2020-05-24,74DA38EBF804,,2.0,1.0,25.072,121.49,9.0,,,大智街179巷,,13.0,14.0,9.0,,,,100.0,27.75,01:31:23,2020-05-24T01:31:23Z
N/A,74DA38EBF808,,AirBox,changhua,25.09,LR/30/0.79,2020-05-24,74DA38EBF808,,2.0,1.0,24.073,120.543,9.0,,,V307,,13.0,14.0,9.0,,,,69.0,29.0,01:31:31,2020-05-24T01:31:31Z
N/A,74DA38E69D3E,,AirBox,yunlin,54.07,Theil-Sen/21/4.49,2020-05-24,74DA38E69D3E,,2.0,1.0,23.672,120.538,9.0,,,SkyAirBox-01,,31.0,35.0,20.0,,,,74.0,28.5,01:34:02,2020-05-24T01:34:02Z
臺中巿神岡區社南里社南街136號,臺中市立社口國小,0,AirBox,,63.85,LR/30/5.8,2020-05-24,08BEAC0A0000,v1.06,2.0,1.0,24.24584666,120.6857,9.0,0,AI-1003WN,,acelink.edimax,13.0,14.0,8.0,0.0,0.0,0.0,90.0,28.6,01:36:53,2020-05-24T01:36:53Z
N/A,74DA38AF48D0,,AirBox,kaohsiung,8.22,Theil-Sen/30/4.63,2020-05-24,74DA38AF48D0,,2.0,1.0,22.666,120.315,9.0,,,鼎祥街室內,,0.0,0.0,0.0,,,,69.0,28.25,01:31:23,2020-05-24T01:31:23Z
N/A,74DA38AF48D2,,AirBox,taipei,16.51,BRR/14/5.79,2020-05-24,74DA38AF48D2,,2.0,1.0,25.013,121.552,9.0,,,第二殯儀館,,30.0,35.0,24.0,,,,100.0,25.62,01:33:29,2020-05-24T01:33:29Z
N/A,08BEAC028DCA,,AirBox,hualien,4.05,PA/14/61.24,2020-05-24,08BEAC028DCA,,2.0,1.0,23.295,121.27,9.0,,,iTribe卓樂部落,,4.0,4.0,3.0,,,,97.0,27.0,01:34:44,2020-05-24T01:34:44Z
N/A,08BEAC028DCC,,AirBox,taichuang,9.71,BRR/30/6.15,2020-05-24,08BEAC028DCC,,2.0,1.0,24.206,120.654,9.0,,,總茂環保3,,10.0,10.0,6.0,,,,56.0,36.61,01:31:57,2020-05-24T01:31:57Z
N/A,74DA38C7D458,,AirBox,yilan,0.0,LR/14/11.92,2020-05-24,74DA38C7D458,,2.0,1.0,24.668,121.825,9.0,,,青天計畫2.0 - 五結鄉利澤南路,,3.0,4.0,2.0,,,,98.0,29.0,01:32:41,2020-05-24T01:32:41Z
臺北市文山區萬祥里興隆路1段68號,市立武功國小,,AirBox,taipei,5.84,BRR/14/5.76,2020-05-24,74DA38F7C3DC,,2.0,1.0,25.003,121.539,9.0,,,台北市文山區武功國小2018,,9.0,10.0,6.0,,,,100.0,24.62,01:09:57,2020-05-24T01:09:57Z
N/A,08BEAC028DC6,,AirBox,hualien,0.0,LR/14/34.66,2020-05-24,08BEAC028DC6,,2.0,1.0,23.71,121.414,9.0,,,iTribe馬里巴西部落,,0.0,0.0,0.0,,,,79.0,28.11,01:34:55,2020-05-24T01:34:55Z
N/A,08BEAC028DC8,,AirBox,pingtung,4.53,Theil-Sen/30/26.79,2020-05-24,08BEAC028DC8,,2.0,1.0,22.757,120.753,9.0,,,iTribe大武部落,,6.0,7.0,3.0,,,,100.0,26.0,01:35:36,2020-05-24T01:35:36Z
N/A,74DA388FF404,,AirBox,hsinchu_city,11.75,PA/14/6.95,2020-05-24,74DA388FF404,,2.0,1.0,24.768,121.027,9.0,,,coretrconicc,,8.0,0.0,0.0,,,,96.0,23.87,01:32:16,2020-05-24T01:32:16Z
N/A,新北市泰山國中,,AirBox,new_taipei,0.16,BRR/14/6.71,2020-05-24,74DA38F7C260,,2.0,1.0,25.065,121.425,9.0,,,新北市泰山區泰山國中,,0.0,0.0,0.0,,,,98.0,25.62,01:31:31,2020-05-24T01:31:31Z
Puzi,朴子-1,,AirBox,taipei,18.7,BRR/14/3.68,2020-05-24,08BEAC028A4C,,2.0,1.0,25.04170237,121.5440922,9.0,,,手動站：朴子站-1（A4C）,,25.0,28.0,14.0,,,,77.0,29.11,01:32:26,2020-05-24T01:32:26Z
[600]嘉義市東區宣信街266號,嘉義市立宣信國小,,AirBox,chiayi_city,26.42,Theil-Sen/30/2.02,2020-05-24,74DA38C7CEB4,,2.0,1.0,23.47,120.459,9.0,,,嘉義市宣信國小,,39.0,59.0,25.0,,,,100.0,27.5,01:37:12,2020-05-24T01:37:12Z
N/A,taichung45,,AirBox,taipei,0.0,LR/14/4.0,2020-05-24,74DA3895C294,,2.0,1.0,25.041,121.615,9.0,,,ASChem3,,9.0,11.0,6.0,,,,86.0,26.37,01:32:22,2020-05-24T01:32:22Z
N/A,74DA38AF48DA,,AirBox,tainan,N/A,N/A,2020-05-24,74DA38AF48DA,,2.0,1.0,23.181,120.254,9.0,,,indoot,,35.0,45.0,25.0,,,,94.0,28.36,01:34:28,2020-05-24T01:34:28Z
N/A,74DA38B05344,,AirBox,new_taipei,6.28,BRR/30/6.57,2020-05-24,74DA38B05344,,2.0,1.0,24.138,120.704,9.0,,,cht32,,15.0,16.0,10.0,,,,93.0,27.12,01:33:02,2020-05-24T01:33:02Z
[600]嘉義市西區垂楊路605號,嘉義市立垂楊國小,,AirBox,chiayi_city,31.13,Theil-Sen/30/1.07,2020-05-24,74DA38C7CEB8,,2.0,1.0,23.472,120.438,9.0,,,嘉義市垂楊國小,,46.0,61.0,28.0,,,,100.0,27.0,01:35:06,2020-05-24T01:35:06Z
N/A,74DA38EBF80C,,AirBox,hsinchu_county,13.68,PA/14/4.39,2020-05-24,74DA38EBF80C,,2.0,1.0,24.825,121.01,9.0,,,Seal’s,,7.0,8.0,5.0,,,,67.0,27.37,01:37:00,2020-05-24T01:37:00Z
N/A,74DA38EBF80E,,AirBox,hsinchu_city,9.24,PA/14/5.21,2020-05-24,74DA38EBF80E,,2.0,1.0,24.777,121.013,9.0,,,寶可夢,,6.0,6.0,4.0,,,,94.0,26.25,01:34:46,2020-05-24T01:34:46Z
N/A,74DA38ED06D8,,AirBox,taipei,9.25,BRR/14/0.95,2020-05-24,74DA38ED06D8,,2.0,1.0,25.044,121.517,9.0,,,台大醫院9,,6.0,7.0,3.0,,,,76.0,25.0,01:32:45,2020-05-24T01:32:45Z
桃園市大園區內海里2鄰學府路76巷32號,桃園市市立內海國小,0,AirBox,,N/A,N/A,2020-05-24,08BEAC0A07BC,v1.06,2.0,1.0,25.08650158,121.1908989,9.0,0,AI-1003WN,,acelink.edimax,8.0,8.0,5.0,0.0,0.0,0.0,100.0,29.5,01:35:59,2020-05-24T01:35:59Z
嘉義縣新港鄉古民村161號,嘉義縣縣立古民國小,0,AirBox,,23.14,Theil-Sen/30/14.46,2020-05-24,08BEAC0A0832,v1.06,2.0,1.0,23.56209603,120.3492351,9.0,0,AI-1003WN,,acelink.edimax,35.0,43.0,20.0,0.0,0.0,0.0,100.0,29.3,01:39:43,2020-05-24T01:39:43Z
臺南市新化區那拔里54號,臺南市市立那拔國小,0,AirBox,,20.14,Theil-Sen/14/17.69,2020-05-24,08BEAC0A07BA,v1.06,2.0,1.0,23.06836078,120.3496119,9.0,0,AI-1003WN,,acelink.edimax,47.0,60.0,25.0,0.0,0.0,0.0,100.0,28.5,01:35:31,2020-05-24T01:35:31Z
臺南市仁德區民安路一段363號,臺南市市立仁德國中,0,AirBox,,22.99,Theil-Sen/14/5.58,2020-05-24,08BEAC0A0830,v1.06,2.0,1.0,22.9561933732,120.247528553,9.0,0,AI-1003WN,,acelink.edimax,50.0,64.0,28.0,0.0,0.0,0.0,94.0,28.0,01:39:13,2020-05-24T01:39:13Z
臺南市仁德區保安里中正路一段185號,臺南市市立仁德文賢國中,0,AirBox,,23.7,Theil-Sen/14/7.66,2020-05-24,08BEAC0A0836,v1.06,2.0,1.0,22.92256458,120.235155,9.0,0,AI-1003WN,,acelink.edimax,51.0,69.0,26.0,0.0,0.0,0.0,92.0,28.7,01:35:56,2020-05-24T01:35:56Z
臺南市西港區營西里3號,臺南市市立後營國小,0,AirBox,,25.0,Theil-Sen/14/17.4,2020-05-24,08BEAC0A07BE,v1.06,2.0,1.0,23.1406702,120.2149521,9.0,0,AI-1003WN,,acelink.edimax,58.0,70.0,34.0,0.0,0.0,0.0,100.0,28.7,01:38:31,2020-05-24T01:38:31Z
臺南市山上區南洲里42號,臺南市市立山上國小,0,AirBox,,18.85,Theil-Sen/14/20.25,2020-05-24,08BEAC0A0834,v1.06,2.0,1.0,23.1006689,120.3550727,9.0,0,AI-1003WN,,acelink.edimax,44.0,58.0,25.0,0.0,0.0,0.0,100.0,28.3,01:36:36,2020-05-24T01:36:36Z
臺南市關廟區中山路二段172號,臺南市市立關廟國中,0,AirBox,,17.85,Theil-Sen/14/12.73,2020-05-24,08BEAC0A0838,v1.06,2.0,1.0,22.96140696,120.3243413,9.0,0,AI-1003WN,,acelink.edimax,42.0,53.0,23.0,0.0,0.0,0.0,100.0,28.7,01:35:31,2020-05-24T01:35:31Z
N/A,74DA38F6FE6A,,AirBox,changhua,18.94,LR/30/1.79,2020-05-24,74DA38F6FE6A,,2.0,1.0,24.082,120.54,9.0,,,joygold,,26.0,26.0,17.0,,,,98.0,28.5,01:33:46,2020-05-24T01:33:46Z
N/A,74DA38E69C8A,,AirBox,chiayi_county,2.9,BRR/30/6.19,2020-05-24,74DA38E69C8A,,2.0,1.0,24.155,120.702,9.0,,,Taichung90,,11.0,13.0,7.0,,,,100.0,28.25,01:31:33,2020-05-24T01:31:33Z
[352]苗栗縣三灣鄉三灣村忠信路17號,苗栗縣縣立三灣國中,,AirBox,miaoli,67.22,BRR/30/16.34,2020-05-24,74DA38F20D48,,2.0,1.0,24.649,120.953,9.0,,,苗栗縣立三灣國民中學,,115.0,116.0,115.0,,,,92.0,25.62,01:36:52,2020-05-24T01:36:52Z
N/A,74DA38E2B83C,,AirBox,new_taipei,0.0,LR/14/6.08,2020-05-24,74DA38E2B83C,,2.0,1.0,25.062013,121.582246,9.0,,,AI-1003Wv3,,3.0,3.0,2.0,,,,53.0,25.62,01:37:03,2020-05-24T01:37:03Z
[351]苗栗縣頭份市後庄里信中路36號,苗栗縣縣立信義國小,,AirBox,miaoli,9.52,PA/14/14.59,2020-05-24,74DA38F20A04,,2.0,1.0,24.697,120.891,9.0,,,苗栗縣信義國小,,6.0,7.0,4.0,,,,100.0,29.11,01:32:17,2020-05-24T01:32:17Z
[300]新竹市北區和平路1號,新竹市立竹光國中,,AirBox,hsinchu_city,8.7,PA/14/1.73,2020-05-24,74DA38B053F8,,2.0,1.0,24.807,120.955,9.0,,,新竹市竹光國中,,6.0,7.0,5.0,,,,100.0,26.25,01:31:37,2020-05-24T01:31:37Z
N/A,新北市桃子腳國中,,AirBox,new_taipei,7.3,BRR/30/9.37,2020-05-24,74DA38F7C30E,,2.0,1.0,24.949,121.382,9.0,,,新北市立桃子腳國中小,,13.0,15.0,7.0,,,,100.0,25.25,01:31:21,2020-05-24T01:31:21Z
臺中市大里區永隆3街1號,臺中市立爽文國中,0,AirBox,,10.62,BRR/30/6.19,2020-05-24,08BEAC0A01D6,v1.06,2.0,1.0,24.10759,120.677903,9.0,0,AI-1003WN,,acelink.edimax,23.0,26.0,15.0,0.0,0.0,0.0,90.0,29.2,01:37:43,2020-05-24T01:37:43Z
臺中市后里區廣福里三豐路三段936號,臺中市立臺中啟明學校,0,AirBox,,98.12,LR/30/5.68,2020-05-24,08BEAC09FF14,v1.06,2.0,1.0,24.30478166,120.7232066,9.0,0,AI-1003WN,,acelink.edimax,8.0,8.0,5.0,0.0,0.0,0.0,83.0,28.1,01:38:27,2020-05-24T01:38:27Z
臺中市潭子區中山路二段31號,臺中市立僑忠國小,0,AirBox,,54.44,LR/30/7.18,2020-05-24,08BEAC09FF16,v1.06,2.0,1.0,24.20236354,120.7032586,9.0,0,AI-1003WN,,acelink.edimax,15.0,18.0,9.0,0.0,0.0,0.0,92.0,28.2,01:35:19,2020-05-24T01:35:19Z
臺中市清水區中山路90號,臺中市立清水高中,0,AirBox,,4.43,BRR/30/14.3,2020-05-24,08BEAC09FF10,v1.06,2.0,1.0,24.2652284727,120.574407019,9.0,0,AI-1003WN,,acelink.edimax,6.0,6.0,3.0,0.0,0.0,0.0,78.0,28.3,01:38:29,2020-05-24T01:38:29Z
臺中市豐原區水源路150號,臺中市立豐原高中,0,AirBox,,98.12,LR/30/0.07,2020-05-24,08BEAC09FF12,v1.06,2.0,1.0,24.25719528,120.7418095,9.0,0,AI-1003WN,,acelink.edimax,8.0,8.0,4.0,0.0,0.0,0.0,83.0,27.6,01:37:50,2020-05-24T01:37:50Z
N/A,74DA38E2B778,,AirBox,kaohsiung,16.29,Theil-Sen/30/3.59,2020-05-24,74DA38E2B778,,2.0,1.0,22.609,120.312,9.0,,,台鋁十一巷,,26.0,27.0,19.0,,,,79.0,32.36,01:34:23,2020-05-24T01:34:23Z
臺中市豐原區圓環南路50號,臺中市立豐原高商,0,AirBox,,57.14,LR/30/2.98,2020-05-24,08BEAC09FF18,v1.06,2.0,1.0,24.24657,120.7145,9.0,0,AI-1003WN,,acelink.edimax,11.0,12.0,7.0,0.0,0.0,0.0,91.0,28.7,01:37:22,2020-05-24T01:37:22Z
N/A,74DA38E69E08,,AirBox,taipei,8.43,BRR/14/2.68,2020-05-24,74DA38E69E08,,2.0,1.0,25.023,121.502,9.0,,,kevin home,,6.0,6.0,4.0,,,,80.0,27.87,01:34:21,2020-05-24T01:34:21Z
高雄市鹽埕國小 高雄市鹽埕區五福四路183號,高雄市市立鹽埕國小,,AirBox,kaohsiung,15.86,Theil-Sen/30/1.23,2020-05-24,74DA38F20F2C,,2.0,1.0,22.623,120.282,9.0,,,高雄市鹽埕國小,,33.0,39.0,20.0,,,,100.0,27.5,01:34:23,2020-05-24T01:34:23Z
高雄市福康國小 高雄市苓雅區漢陽街17號,高雄市市立福康國小,,AirBox,kaohsiung,5.48,Theil-Sen/30/4.54,2020-05-24,74DA38F20F2E,,2.0,1.0,22.617,120.329,9.0,,,福康國小,,10.0,14.0,7.0,,,,100.0,27.0,01:32:01,2020-05-24T01:32:01Z
N/A,74DA38E69E04,,AirBox,miaoli,0.66,BRR/30/2.61,2020-05-24,74DA38E69E04,,2.0,1.0,24.543,120.812,9.0,,,TBS_影山樓,,0.0,0.0,0.0,,,,100.0,28.5,01:31:16,2020-05-24T01:31:16Z
高雄市六龜國小 高雄市六龜區義寶里光復路40號,高雄市市立六龜國小,,AirBox,kaohsiung,6.54,Theil-Sen/30/16.39,2020-05-24,74DA38F20F28,,2.0,1.0,22.996,120.634,9.0,,,admin,,9.0,10.0,5.0,,,,100.0,24.37,01:34:28,2020-05-24T01:34:28Z
高雄市中山國小 高雄市鼓山區美術東二路252號,高雄市市立中山國小,,AirBox,kaohsiung,19.82,Theil-Sen/30/2.61,2020-05-24,74DA38F20F20,,2.0,1.0,22.656,120.288,9.0,,,鼓山區中山國小,,41.0,50.0,23.0,,,,100.0,26.62,01:35:36,2020-05-24T01:35:36Z
高雄市龍肚國小 高雄市美濃區龍東街43號,高雄市市立龍肚國小,,AirBox,kaohsiung,8.95,Theil-Sen/30/4.97,2020-05-24,74DA38F20F22,,2.0,1.0,22.885,120.579,9.0,,,高雄市龍肚國小,,14.0,15.0,8.0,,,,100.0,25.5,01:37:12,2020-05-24T01:37:12Z
N/A,74DA38F6FF9C,,AirBox,taichuang,3.02,BRR/30/6.48,2020-05-24,74DA38F6FF9C,,2.0,1.0,24.198,120.602,9.0,,,科園二路（水塔）右,,12.0,13.0,8.0,,,,100.0,32.5,01:33:04,2020-05-24T01:33:04Z
臺中市東勢區東新里東環街123號,臺中市立東新國中,0,AirBox,,106.83,LR/30/8.97,2020-05-24,08BEAC09FF1E,v1.06,2.0,1.0,24.26335737,120.829858,9.0,0,AI-1003WN,,acelink.edimax,13.0,14.0,7.0,0.0,0.0,0.0,82.0,28.1,01:37:01,2020-05-24T01:37:01Z
桃園市中壢區榮民路329號,桃園市市立中正國小,0,AirBox,,4.65,BRR/30/5.61,2020-05-24,08BEAC09FF1A,v1.06,2.0,1.0,24.96187166,121.26277,9.0,0,AI-1003WN,,acelink.edimax,8.0,9.0,5.0,0.0,0.0,0.0,100.0,27.2,01:37:53,2020-05-24T01:37:53Z
雲林縣虎尾鎮民主路卅六號,雲林縣縣立安慶國小,0,AirBox,,81.51,Theil-Sen/21/11.41,2020-05-24,08BEAC09FF1C,v1.06,2.0,1.0,23.7029334,120.4333605,9.0,0,AI-1003WN,,acelink.edimax,48.0,61.0,29.0,0.0,0.0,0.0,86.0,29.1,01:39:23,2020-05-24T01:39:23Z
N/A,74DA38E69AE2,,AirBox,new_taipei,12.1,BRR/14/1.81,2020-05-24,74DA38E69AE2,,2.0,1.0,25.06,121.498,9.0,,,SC-GS outdoor,,12.0,12.0,8.0,,,,77.0,26.87,01:31:54,2020-05-24T01:31:54Z
臺中市西屯區漢口路一段54之1號,臺中市立漢口國中,0,AirBox,,13.05,BRR/30/2.0,2020-05-24,08BEAC09FF92,v1.06,2.0,1.0,24.1616899212,120.657665804,9.0,0,AI-1003WN,,acelink.edimax,23.0,25.0,12.0,0.0,0.0,0.0,76.0,30.7,01:39:03,2020-05-24T01:39:03Z
N/A,74DA38F70078,,AirBox,taoyuan,N/A,N/A,2020-05-24,74DA38F70078,,2.0,1.0,24.916,121.18,9.0,,,Williamairbox,,10.0,11.0,7.0,,,,76.0,25.25,01:32:51,2020-05-24T01:32:51Z
N/A,74DA38E2B6AC,,AirBox,taichuang,82.67,LR/30/10.12,2020-05-24,74DA38E2B6AC,,2.0,1.0,24.192,120.812,9.0,,,新社新五村,,9.0,9.0,4.0,,,,86.0,24.5,01:35:16,2020-05-24T01:35:16Z
高雄市誠正國小 高雄市鳳山區黃埔新村國校巷78號,高雄市市立誠正國小,,AirBox,kaohsiung,14.89,Theil-Sen/30/8.01,2020-05-24,74DA38F21154,,2.0,1.0,22.616,120.364,9.0,,,誠正國小2,,18.0,19.0,10.0,,,,74.0,29.25,01:37:10,2020-05-24T01:37:10Z
高雄市立田寮國民中學 高雄市田寮區南安里崗安路48號,高雄市市立田寮國中,,AirBox,kaohsiung,2.52,Theil-Sen/30/17.64,2020-05-24,74DA38F21156,,2.0,1.0,22.862,120.36,9.0,,,田寮國中,,0.0,0.0,0.0,,,,91.0,26.25,01:33:09,2020-05-24T01:33:09Z
N/A,74DA38E69C4C,,AirBox,new_taipei,9.48,BRR/14/4.23,2020-05-24,74DA38E69C4C,,2.0,1.0,24.994,121.495,9.0,,,Kanahei,,7.0,8.0,4.0,,,,72.0,27.75,01:36:18,2020-05-24T01:36:18Z
高雄市立寶來國民中學 高雄市六龜區寶來里中正路137號,高雄市市立寶來國中,,AirBox,NA,4.55,Theil-Sen/30/30.66,2020-05-24,74DA38F21150,,2.0,1.0,23.109,120.703,9.0,,,寶來國中,,5.0,6.0,3.0,,,,100.0,23.75,01:31:36,2020-05-24T01:31:36Z
[302]新竹縣竹北市竹北村中山路190號,新竹縣縣立中正國小,,AirBox,hsinchu_county,16.39,PA/14/5.24,2020-05-24,74DA38F20D4E,,2.0,1.0,24.815,121.023,9.0,,,新竹縣竹北市中正國民小學,,10.0,11.0,6.0,,,,91.0,26.75,01:31:58,2020-05-24T01:31:58Z
N/A,74DA38E2B830,,AirBox,taichuang,0.0,LR/14/12.62,2020-05-24,74DA38E2B830,,2.0,1.0,24.364,120.636,9.0,,,GPM,,5.0,6.0,3.0,,,,100.0,28.25,01:30:56,2020-05-24T01:30:56Z
[302]新竹縣竹北市中央路98號,新竹縣縣立竹北國小,,AirBox,hsinchu_county,16.41,PA/14/4.7,2020-05-24,74DA38F20D4A,,2.0,1.0,24.838,121.002,9.0,,,新竹縣竹北國小,,10.0,11.0,7.0,,,,92.0,27.12,01:35:12,2020-05-24T01:35:12Z
桃園市楊梅區高獅路5號,桃園市楊梅高中,0,AirBox,,N/A,N/A,2020-05-24,08BEAC09FF6E,v1.06,2.0,1.0,24.92166732,121.1487916,9.0,0,AI-1003WN,,acelink.edimax,17.0,18.0,11.0,0.0,0.0,0.0,91.0,27.0,01:37:22,2020-05-24T01:37:22Z
N/A,74DA38AF4934,,AirBox,kaohsiung,15.69,Theil-Sen/30/3.79,2020-05-24,74DA38AF4934,,2.0,1.0,22.648,120.321,9.0,,,建工路室內,,20.0,23.0,15.0,,,,74.0,29.61,01:31:20,2020-05-24T01:31:20Z
[360]苗栗縣苗栗市中正路241號,苗栗縣縣立建功國小,,AirBox,miaoli,3.45,BRR/30/0.41,2020-05-24,74DA38F207E8,,2.0,1.0,24.564,120.824,9.0,,,苗栗縣建功國小,,5.0,5.0,3.0,,,,100.0,25.37,01:33:56,2020-05-24T01:33:56Z
臺南市中西區南寧街45號,臺南市市立中山國中,0,AirBox,,19.16,Theil-Sen/14/0.07,2020-05-24,08BEAC0A06F8,v1.06,2.0,1.0,22.983984,120.202863,9.0,0,AI-1003WN,,acelink.edimax,45.0,58.0,26.0,0.0,0.0,0.0,100.0,28.8,01:37:08,2020-05-24T01:37:08Z
臺中市東區育英路30號,臺中市立育英國中,0,AirBox,,10.02,BRR/30/6.08,2020-05-24,08BEAC0A0058,v1.06,2.0,1.0,24.13585153,120.698321,9.0,0,AI-1003WN,,acelink.edimax,20.0,21.0,11.0,0.0,0.0,0.0,85.0,29.5,01:35:00,2020-05-24T01:35:00Z
臺南市安定區南安里62號,臺南市市立南安國小,0,AirBox,,20.11,Theil-Sen/14/12.88,2020-05-24,08BEAC0A06F2,v1.06,2.0,1.0,23.09862412,120.2249268,9.0,0,AI-1003WN,,acelink.edimax,47.0,59.0,28.0,0.0,0.0,0.0,100.0,28.6,01:36:35,2020-05-24T01:36:35Z
臺南市下營區新興里東興一街112號,臺南市市立東興國小,0,AirBox,,N/A,N/A,2020-05-24,08BEAC0A03C8,v1.06,2.0,1.0,23.2389496,120.2671732,9.0,0,AI-1003WN,,acelink.edimax,50.0,64.0,30.0,0.0,0.0,0.0,98.0,28.5,01:38:53,2020-05-24T01:38:53Z
桃園市新屋區社子里社福路235號,桃園市市立社子國小,0,AirBox,,N/A,N/A,2020-05-24,08BEAC0A06F0,v1.06,2.0,1.0,24.95676308,121.0818217,9.0,0,AI-1003WN,,acelink.edimax,14.0,15.0,10.0,0.0,0.0,0.0,100.0,28.2,01:37:54,2020-05-24T01:37:54Z
[366]苗栗縣銅鑼鄉福興村文化街1號,苗栗縣縣立銅鑼國小,,AirBox,miaoli,2.89,BRR/30/8.88,2020-05-24,74DA38F207E2,,2.0,1.0,24.49,120.791,9.0,,,苗栗縣銅鑼國小,,4.0,5.0,3.0,,,,100.0,25.0,01:34:37,2020-05-24T01:34:37Z
N/A,74DA38AF4938,,AirBox,taipei,3.81,BRR/14/4.83,2020-05-24,74DA38AF4938,,2.0,1.0,25.015,121.541,9.0,,,Greenhouse,,5.0,6.0,4.0,,,,100.0,27.12,01:34:09,2020-05-24T01:34:09Z
臺中市和平區梨山里福壽路10號,臺中市立梨山國中小,0,AirBox,,0.0,LR/14/46.82,2020-05-24,08BEAC0A0050,v1.06,2.0,1.0,24.2552694,121.2591337,9.0,0,AI-1003WN,,acelink.edimax,1.0,1.0,0.0,0.0,0.0,0.0,100.0,17.8,01:39:26,2020-05-24T01:39:26Z
臺中市太平區太平三街295號,臺中市立長億國小,0,AirBox,,9.54,BRR/30/9.25,2020-05-24,08BEAC0A0052,v1.06,2.0,1.0,24.11301006,120.7216618,9.0,0,AI-1003WN,,acelink.edimax,14.0,15.0,8.0,0.0,0.0,0.0,71.0,30.1,01:34:06,2020-05-24T01:34:06Z
臺南市安平區石門里安平路700號,臺南市市立石門國小,0,AirBox,,22.76,Theil-Sen/14/4.08,2020-05-24,08BEAC0A0582,v1.06,2.0,1.0,22.999735,120.1662995,9.0,0,AI-1003WN,,acelink.edimax,51.0,65.0,30.0,0.0,0.0,0.0,96.0,28.8,01:37:13,2020-05-24T01:37:13Z
[906]屏東縣高樹鄉新南村興店路5號,屏東縣縣立新南國小,,AirBox,pingtung,6.55,Theil-Sen/30/11.34,2020-05-24,74DA38F20A5A,,2.0,1.0,22.785,120.559,9.0,,,新南國小,,7.0,7.0,4.0,,,,89.0,26.25,01:36:46,2020-05-24T01:36:46Z
嘉義縣六腳鄉崙陽村122號,嘉義縣縣立北美國小,0,AirBox,,16.16,BRR/14/11.63,2020-05-24,08BEAC0A0580,v1.06,2.0,1.0,23.55837,120.303548,9.0,0,AI-1003WN,,acelink.edimax,31.0,35.0,19.0,0.0,0.0,0.0,86.0,28.8,01:39:52,2020-05-24T01:39:52Z
嘉義縣阿里山鄉山美村61號,嘉義縣縣立山美國小,0,AirBox,,13.4,Theil-Sen/30/24.8,2020-05-24,08BEAC0A0586,v1.06,2.0,1.0,23.38348058,120.6679781,9.0,0,AI-1003WN,,acelink.edimax,14.0,15.0,8.0,0.0,0.0,0.0,90.0,26.5,01:35:32,2020-05-24T01:35:32Z
嘉義縣梅山鄉瑞峰村生毛樹19號之1,嘉義縣縣立瑞峰國小,0,AirBox,,54.24,Theil-Sen/21/21.41,2020-05-24,08BEAC0A0584,v1.06,2.0,1.0,23.5564525,120.6690138,9.0,0,AI-1003WN,,acelink.edimax,32.0,54.0,16.0,0.0,0.0,0.0,100.0,23.1,01:37:21,2020-05-24T01:37:21Z
N/A,新北市新埔國小,,AirBox,new_taipei,10.15,BRR/14/0.94,2020-05-24,74DA38F7C424,,2.0,1.0,25.013,121.468,9.0,,,新埔國小主機房,,4.0,5.0,2.0,,,,63.0,19.62,01:31:27,2020-05-24T01:31:27Z
桃園市楊梅區民安路1號,桃園市市立瑞原國小,0,AirBox,,N/A,N/A,2020-05-24,08BEAC0A0588,v1.06,2.0,1.0,24.92634726,121.1042741,9.0,0,AI-1003WN,,acelink.edimax,10.0,11.0,7.0,0.0,0.0,0.0,100.0,30.0,01:34:35,2020-05-24T01:34:35Z
高雄市鎮昌國小 高雄市前鎮區樹人路261號,高雄市市立鎮昌國小,,AirBox,new_taipei,6.73,Theil-Sen/30/5.59,2020-05-24,74DA38F20DE2,,2.0,1.0,22.59,120.317,9.0,,,鎮昌國小,,13.0,14.0,8.0,,,,100.0,27.37,01:36:22,2020-05-24T01:36:22Z
高雄市瑞祥國小 高雄市前鎮區班超路20號,高雄市市立瑞祥國小,,AirBox,kaohsiung,20.41,Theil-Sen/30/6.34,2020-05-24,74DA38F20DE0,,2.0,1.0,22.589,120.328,9.0,,,高市瑞祥國小(2018),,43.0,52.0,26.0,,,,100.0,27.62,01:32:37,2020-05-24T01:32:37Z
高雄市灣內國小 高雄市仁武區仁心路31號,高雄市市立灣內國小,,AirBox,kaohsiung,22.82,Theil-Sen/30/9.03,2020-05-24,74DA38F20DE6,,2.0,1.0,22.683,120.357,9.0,,,灣內國小1071115,,47.0,60.0,29.0,,,,99.0,26.62,01:35:05,2020-05-24T01:35:05Z
高雄市東門國小 高雄市美濃區民族路36巷2號,高雄市市立東門國小,,AirBox,kaohsiung,5.52,Theil-Sen/30/2.87,2020-05-24,74DA38F20DE8,,2.0,1.0,22.899,120.553,9.0,,,高雄市美濃區東門國小01,,8.0,8.0,5.0,,,,100.0,26.37,01:35:15,2020-05-24T01:35:15Z
[613]嘉義縣朴子市雙溪里30號,嘉義縣立雙溪國小,,AirBox,chiayi_county,11.96,BRR/14/3.52,2020-05-24,74DA38E2B54A,,2.0,1.0,23.484,120.277,9.0,,,雙溪國民小學,,24.0,29.0,16.0,,,,100.0,27.37,01:31:32,2020-05-24T01:31:32Z
臺中市北屯區新興路20號,臺中市立新興國小,0,AirBox,,10.3,BRR/30/5.21,2020-05-24,08BEAC0A0450,v1.06,2.0,1.0,24.19464026,120.6623838,9.0,0,AI-1003WN,,acelink.edimax,19.0,20.0,10.0,0.0,0.0,0.0,81.0,29.0,01:39:12,2020-05-24T01:39:12Z
桃園市大溪區仁和二街50號,桃園市市立仁和國小,0,AirBox,,N/A,N/A,2020-05-24,08BEAC0A0452,v1.06,2.0,1.0,24.89731537,121.2771801,9.0,0,AI-1003WN,,acelink.edimax,6.0,8.0,4.0,0.0,0.0,0.0,90.0,26.8,01:39:07,2020-05-24T01:39:07Z
N/A,新北市深坑國中,,AirBox,new_taipei,0.0,LR/14/7.75,2020-05-24,74DA38F7C2FA,,2.0,1.0,25.001,121.618,9.0,,,深坑國中,,13.0,14.0,6.0,,,,90.0,24.5,01:33:52,2020-05-24T01:33:52Z
[951]臺東縣綠島鄉公館村98號,台東縣縣立公館國小,,AirBox,taitung,2.26,PA/14/36.28,2020-05-24,74DA38F20AC0,,2.0,1.0,22.674,121.493,9.0,,,綠島公館國小,,1.0,3.0,0.0,,,,93.0,28.86,01:36:25,2020-05-24T01:36:25Z
桃園市大溪區金山路50號,桃園市市立美華國小,0,AirBox,,4.59,BRR/30/12.72,2020-05-24,08BEAC0A0456,v1.06,2.0,1.0,24.88101545,121.3042217,9.0,0,AI-1003WN,,acelink.edimax,6.0,7.0,4.0,0.0,0.0,0.0,90.0,27.1,01:38:24,2020-05-24T01:38:24Z
嘉義縣朴子市大同路239號,嘉義縣縣立大同國小,0,AirBox,,15.48,BRR/14/0.99,2020-05-24,08BEAC0A063A,v1.04,2.0,1.0,23.461271,120.240491,9.0,0,AI-1003WN,,acelink.edimax,29.0,34.0,16.0,0.0,0.0,0.0,91.0,29.1,01:39:47,2020-05-24T01:39:47Z
桃園市楊梅區秀才路919號,桃園市市立楊梅國中秀才分校,0,AirBox,,N/A,N/A,2020-05-24,08BEAC0A0458,v1.06,2.0,1.0,24.8838299,121.13401,9.0,0,AI-1003WN,,acelink.edimax,10.0,11.0,6.0,0.0,0.0,0.0,89.0,25.7,01:36:50,2020-05-24T01:36:50Z
桃園市楊梅區水美里楊新路一段410號,桃園市市立水美國小,0,AirBox,,N/A,N/A,2020-05-24,08BEAC0A063C,v1.06,2.0,1.0,24.9191608429,121.137031555,9.0,0,AI-1003WN,,acelink.edimax,19.0,20.0,11.0,0.0,0.0,0.0,100.0,26.3,01:39:31,2020-05-24T01:39:31Z
嘉義縣朴子市竹村里36號,嘉義縣縣立竹村國小,0,AirBox,,17.83,BRR/14/3.57,2020-05-24,08BEAC0A063E,v1.06,2.0,1.0,23.43553724,120.2417302,9.0,0,AI-1003WN,,acelink.edimax,35.0,41.0,22.0,0.0,0.0,0.0,100.0,28.6,01:37:54,2020-05-24T01:37:54Z
N/A,74DA38ED051E,,AirBox,taipei,8.85,BRR/14/0.76,2020-05-24,74DA38ED051E,,2.0,1.0,25.044,121.515,9.0,,,台大醫院秘4,,4.0,6.0,3.0,,,,73.0,25.75,01:36:23,2020-05-24T01:36:23Z
N/A,08BEAC0A0524,0,AirBox,,16.26,BRR/30/4.69,2020-05-24,08BEAC0A0524,v1.06,2.0,1.0,24.109845,120.638621,9.0,0,AI-1003WN,,acelink.edimax,31.0,36.0,17.0,0.0,0.0,0.0,81.0,29.2,01:35:18,2020-05-24T01:35:18Z
基隆市,基隆市立建德幼兒園,,AirBox,keelung,N/A,N/A,2020-05-24,74DA38F20ACE,,2.0,1.0,25.121,121.723,9.0,,,基隆市立建德幼兒園,,8.0,8.0,5.0,,,,86.0,25.25,01:36:27,2020-05-24T01:36:27Z
臺南市佳里區仁愛路307號,臺南市市立仁愛國小,0,AirBox,,27.88,Theil-Sen/14/18.91,2020-05-24,08BEAC0A0638,v1.06,2.0,1.0,23.1532594,120.1788639,9.0,0,AI-1003WN,,acelink.edimax,59.0,70.0,39.0,0.0,0.0,0.0,89.0,29.0,01:34:34,2020-05-24T01:34:34Z
臺中市大里區立仁里甲堤路236號,臺中市立立新國中,0,AirBox,,9.75,BRR/30/5.82,2020-05-24,08BEAC0A045C,v1.06,2.0,1.0,24.11134716,120.6772764,9.0,0,AI-1003WN,,acelink.edimax,18.0,18.0,10.0,0.0,0.0,0.0,81.0,29.6,01:39:30,2020-05-24T01:39:30Z
臺南市鹽水區竹林里92-1號,臺南市市立竹埔國小,0,AirBox,,N/A,N/A,2020-05-24,08BEAC0A045E,v1.06,2.0,1.0,23.26686007,120.2457468,9.0,0,AI-1003WN,,acelink.edimax,48.0,61.0,29.0,0.0,0.0,0.0,100.0,29.1,01:37:16,2020-05-24T01:37:16Z
N/A,74DA38B0517E,,AirBox,taichuang,11.14,BRR/30/1.41,2020-05-24,74DA38B0517E,,2.0,1.0,24.141,120.648,9.0,,,大英西一街旁 室內,,23.0,27.0,17.0,,,,88.0,27.5,01:32:07,2020-05-24T01:32:07Z
雲林縣口湖鄉台子村台興路一二五號,雲林縣縣立臺興國小,0,AirBox,,6.64,BRR/14/15.12,2020-05-24,08BEAC0A0632,v1.06,2.0,1.0,23.56244444,120.1420962,9.0,0,AI-1003WN,,acelink.edimax,8.0,9.0,4.0,0.0,0.0,0.0,100.0,30.0,01:34:41,2020-05-24T01:34:41Z
桃園市中壢區龍勇路100號,桃園市市立龍興國中,0,AirBox,,N/A,N/A,2020-05-24,08BEAC0A0634,v1.06,2.0,1.0,24.93862833,121.235525,9.0,0,AI-1003WN,,acelink.edimax,11.0,13.0,6.0,0.0,0.0,0.0,82.0,26.0,01:39:42,2020-05-24T01:39:42Z
桃園市中壢區龍東路147號,桃園市市立龍岡國中,0,AirBox,,N/A,N/A,2020-05-24,08BEAC0A0636,v1.06,2.0,1.0,24.92954666,121.252165,9.0,0,AI-1003WN,,acelink.edimax,10.0,11.0,7.0,0.0,0.0,0.0,89.0,26.7,01:37:03,2020-05-24T01:37:03Z
高雄市楠梓國小 高雄市楠梓區楠梓路262號,高雄市市立楠梓國小,,AirBox,kaohsiung,19.94,Theil-Sen/30/11.86,2020-05-24,74DA38F20DEC,,2.0,1.0,22.733,120.327,9.0,,,KH-ntps-2,,41.0,50.0,25.0,,,,100.0,26.25,01:31:02,2020-05-24T01:31:02Z
N/A,74DA38F70308,,AirBox,kaohsiung,11.87,BRR/30/16.62,2020-05-24,74DA38F70308,,2.0,1.0,22.767,120.362,9.0,,,DerDer,,2.0,3.0,1.0,,,,59.0,25.87,01:31:33,2020-05-24T01:31:33Z
高雄市美濃國小 高雄市美濃區泰安里第五鄰永安路190號,高雄市市立美濃國小,,AirBox,kaohsiung,6.62,Theil-Sen/30/2.17,2020-05-24,74DA38F20DEE,,2.0,1.0,22.9,120.542,9.0,,,美濃國小(2),,10.0,11.0,6.0,,,,100.0,26.25,01:36:55,2020-05-24T01:36:55Z
N/A,74DA38E2B5C4,,AirBox,pingtung,40.79,BRR/30/14.09,2020-05-24,74DA38E2B5C4,,2.0,1.0,22.557,120.543,9.0,,,境界,,75.0,80.0,55.0,,,,80.0,27.0,01:32:53,2020-05-24T01:32:53Z
桃園市龜山區大坑路一段850號,桃園市市立大坑國小,0,AirBox,,7.58,BRR/30/5.59,2020-05-24,08BEAC0A058C,v1.06,2.0,1.0,25.0446929,121.3148917,9.0,0,AI-1003WN,,acelink.edimax,12.0,13.0,8.0,0.0,0.0,0.0,94.0,28.1,01:37:35,2020-05-24T01:37:35Z
嘉義縣民雄鄉秀林村林仔尾66號,嘉義縣縣立大崎國小,0,AirBox,,32.17,Theil-Sen/30/6.33,2020-05-24,08BEAC0A058A,v1.06,2.0,1.0,23.51209571,120.4717395,9.0,0,AI-1003WN,,acelink.edimax,49.0,61.0,28.0,0.0,0.0,0.0,100.0,29.3,01:39:37,2020-05-24T01:39:37Z
桃園市八德區廣興路601巷25號,桃園市市立廣興國小,0,AirBox,,6.91,BRR/30/5.98,2020-05-24,08BEAC0A058E,v1.06,2.0,1.0,24.94532333,121.28277,9.0,0,AI-1003WN,,acelink.edimax,9.0,9.0,5.0,0.0,0.0,0.0,84.0,27.3,01:39:23,2020-05-24T01:39:23Z
[900]屏東縣屏東市永安里復興南路376號,屏東縣縣立復興國小,,AirBox,pingtung,14.99,BRR/30/1.58,2020-05-24,74DA38F20A54,,2.0,1.0,22.659,120.486,9.0,,,屏東市復興國小Fsps_AirBox2019,,30.0,36.0,17.0,,,,100.0,28.0,01:32:59,2020-05-24T01:32:59Z
N/A,74DA38AF493C,,AirBox,new_taipei,19.69,BRR/14/3.36,2020-05-24,74DA38AF493C,,2.0,1.0,25.043,121.455,9.0,,,神奇寶貝＿WuJessi,,38.0,46.0,30.0,,,,91.0,29.0,01:34:44,2020-05-24T01:34:44Z
臺中市梧棲區文化路一段6號,臺中市立梧南國小,0,AirBox,,3.35,BRR/30/15.84,2020-05-24,08BEAC0A005E,v1.06,2.0,1.0,24.2526944537,120.530718863,9.0,0,AI-1003WN,,acelink.edimax,12.0,14.0,7.0,0.0,0.0,0.0,100.0,28.8,01:36:08,2020-05-24T01:36:08Z
N/A,74DA38E2B494,,AirBox,new_taipei,9.5,BRR/14/4.96,2020-05-24,74DA38E2B494,,2.0,1.0,25.002,121.511,9.0,,,永安站,,0.0,0.0,0.0,,,,60.0,28.75,01:34:41,2020-05-24T01:34:41Z
臺南市南化區南化里17號,臺南市市立南化國小,0,AirBox,,18.71,Theil-Sen/30/18.89,2020-05-24,08BEAC0A06FA,v1.06,2.0,1.0,23.04414428,120.4703868,9.0,0,AI-1003WN,,acelink.edimax,33.0,38.0,19.0,0.0,0.0,0.0,100.0,27.3,01:37:24,2020-05-24T01:37:24Z
臺中市新社區復盛里中和街三段國中巷10號,臺中市立新社高中,0,AirBox,,90.05,LR/30/11.85,2020-05-24,08BEAC0A005A,v1.06,2.0,1.0,24.1780836,120.8208018,9.0,0,AI-1003WN,,acelink.edimax,12.0,14.0,6.0,0.0,0.0,0.0,85.0,26.8,01:34:50,2020-05-24T01:34:50Z
