hcho,gps_num,app,gps_alt,s_d2,odm,s_d0,s_d1,s_h0,SiteName,gps_fix,s_gg,gps_lat,s_t0,timestamp,adf_status,gps_lon,SiteAddr,date,device_id,s_g8,c_d0,fw_ver,s_g1,time,model,c_d0_method,name,area
0,9,AirBox,2,20,acelink.edimax,41,54,100,雲林縣縣立僑真國小,1,0,23.6676036,27.5,2020-05-23T02:19:20Z,0,120.4744785,雲林縣斗南鎮延平路二段六四二號,2020-05-23,08BEAC0A0270,0,70.72,v1.06,0,02:19:20,AI-1003WN,Theil-Sen/21/8.7,,
0,9,AirBox,2,20,acelink.edimax,31,33,100,嘉義縣縣立大崙國小,1,0,23.44376,27.6,2020-05-23T02:16:17Z,0,120.358493,嘉義縣水上鄉大崙村111號,2020-05-23,08BEAC0A06D8,0,21.72,v1.06,0,02:16:17,AI-1003WN,BRR/30/8.66,,
0,9,AirBox,2,16,acelink.edimax,25,27,85,臺中市立居仁國中,1,0,24.1372706422,27.3,2020-05-23T02:16:40Z,0,120.678788871,臺中市西區自由路一段97號,2020-05-23,08BEAC0A0274,0,12.74,v1.06,0,02:16:40,AI-1003WN,BRR/30/4.16,,
0,9,AirBox,2,18,acelink.edimax,34,42,100,雲林縣縣立大東國小,1,0,23.6763018,28.2,2020-05-23T02:18:43Z,0,120.4461987,雲林縣斗南鎮新崙里港漧一號,2020-05-23,08BEAC0A0276,0,59.43,v1.06,0,02:18:43,AI-1003WN,Theil-Sen/21/10.81,,
0,9,AirBox,2,14,acelink.edimax,26,28,100,臺南市市立新營區新興國小,1,0,23.2867671,27.2,2020-05-23T02:19:08Z,0,120.2762647,臺南市新營區太南里316號,2020-05-23,08BEAC0A06D4,0,N/A,v1.06,0,02:19:08,AI-1003WN,N/A,,
0,9,AirBox,2,7,acelink.edimax,11,11,94,桃園市市立雙龍國小,1,0,24.8565817972,24.3,2020-05-23T02:17:40Z,0,121.215067729,桃園市龍潭區神龍路346號,2020-05-23,08BEAC0A0278,0,N/A,v1.06,0,02:17:40,AI-1003WN,N/A,,
0,9,AirBox,2,7,acelink.edimax,11,15,100,嘉義縣縣立竹崎高中附設國中,1,0,23.5202646,27.7,2020-05-23T02:19:38Z,0,120.55313,嘉義縣竹崎鄉竹崎村文化路23號,2020-05-23,08BEAC0A06D6,0,7.98,v1.06,0,02:19:38,AI-1003WN,BRR/30/13.12,,
0,9,AirBox,2,0,acelink.edimax,0,0,100,桃園市市立霞雲國小,1,0,24.81653666,24.5,2020-05-23T02:16:42Z,0,121.3834933,桃園市復興區霞雲里六鄰14號,2020-05-23,08BEAC0A06D0,0,0,v1.06,0,02:16:42,AI-1003WN,BRR/30/21.43,,
0,9,AirBox,2,20,acelink.edimax,37,45,100,臺南市市立德南國小,1,0,22.97778288,28.2,2020-05-23T02:19:20Z,0,120.1866072,臺南市仁德區後壁里中正路二段209號,2020-05-23,08BEAC0A06D2,0,17.77,v1.06,0,02:19:20,AI-1003WN,BRR/14/1.8,,
,9,AirBox,2,0,,2,2,87,08BEAC028B32,1,,25.06024561,24.12,2020-05-23T02:14:20Z,,121.3698173,N/A,2020-05-23,08BEAC028B32,,2.31,,,02:14:20,,BRR/30/9.77,A08站3月台,new_taipei
0,9,AirBox,2,19,acelink.edimax,30,32,93,臺中市立四維國小,1,0,24.17052666,27,2020-05-23T02:16:55Z,0,120.695755,臺中市北屯區文心路四段956號,2020-05-23,08BEAC0A0074,0,13.73,v1.06,0,02:16:55,AI-1003WN,BRR/30/5.92,,
0,9,AirBox,2,4,acelink.edimax,7,7,89,臺中市立坪林國小,1,0,24.14439782,27.8,2020-05-23T02:19:36Z,0,120.6815866,臺中市太平區坪林里坪林路45號,2020-05-23,08BEAC0A0070,0,3.32,v1.06,0,02:19:36,AI-1003WN,BRR/30/4.19,,
,9,AirBox,2,3,,4,5,100,74DA38B0538E,1,,25.143,23.37,2020-05-23T02:16:17Z,,121.734,N/A,2020-05-23,74DA38B0538E,,N/A,,,02:16:17,,N/A,神奇寶貝-流浪頭基地,keelung
,9,AirBox,2,3,,4,5,100,74DA38B0538A,1,,25.041,25.12,2020-05-23T02:15:28Z,,121.556,N/A,2020-05-23,74DA38B0538A,,3.48,,,02:15:28,,BRR/14/4.88,神奇寶貝-達芙妮上面,taipei
0,9,AirBox,2,4,acelink.edimax,6,7,100,桃園市市立林森國小,1,0,24.9452966,23.7,2020-05-23T02:15:04Z,0,121.2266797,桃園市中壢區林森路95號,2020-05-23,08BEAC0A0078,0,N/A,v1.06,0,02:15:04,AI-1003WN,N/A,,
,9,AirBox,2,8,,11,11,74,74DA38ED057C,1,,22.636,27.5,2020-05-23T02:13:08Z,,120.33,N/A,2020-05-23,74DA38ED057C,,12.15,,,02:13:08,,LR/30/4.32,IndoorSanmin,kaohsiung
0,9,AirBox,2,8,acelink.edimax,17,19,100,臺南市市立西埔國小,1,0,23.04614931,27.8,2020-05-23T02:19:38Z,0,120.4456755,臺南市南化區西埔里117號,2020-05-23,08BEAC0A061A,0,13.57,v1.06,0,02:19:38,AI-1003WN,BRR/30/20.06,,
,9,AirBox,2,2,,3,4,68,74DA38F6FEF4,1,,25.035,27.5,2020-05-23T02:14:41Z,,121.553,N/A,2020-05-23,74DA38F6FEF4,,10.77,,,02:14:41,,BRR/14/4.71,EdiGreen,taipei
0,9,AirBox,2,20,acelink.edimax,40,50,100,嘉義縣縣立溪口國中,1,0,23.60394623,27.7,2020-05-23T02:18:39Z,0,120.3939419,嘉義縣溪口鄉坪頂村中正東路103號,2020-05-23,08BEAC0A061E,0,27.87,v1.06,0,02:18:39,AI-1003WN,BRR/30/16.41,,
,9,AirBox,2,10,,19,20,100,高雄市市立興糖國小,1,,22.75,25.25,2020-05-23T02:16:07Z,,120.316,高雄市興糖國小 高雄市橋頭區興糖路19巷1號,2020-05-23,74DA38F20B88,,10.11,,,02:16:07,,LR/30/13.37,興糖國小2,kaohsiung
,9,AirBox,2,18,,25,28,92,74DA38EBF78A,1,,25.052,25.25,2020-05-23T02:12:58Z,,121.451,N/A,2020-05-23,74DA38EBF78A,,14.19,,,02:12:58,,LR/14/4.41,A039,miaoli
,9,AirBox,2,0,,0,0,81,74DA38B0514C,1,,25.002,26.5,2020-05-23T02:13:45Z,,121.555,N/A,2020-05-23,74DA38B0514C,,6.09,,,02:13:45,,BRR/14/6.85,PM2.5_box,taipei
,9,AirBox,2,16,,26,28,100,高雄市市立過埤國小,1,,22.591,26.75,2020-05-23T02:15:53Z,,120.362,高雄市過埤國小 高雄市鳳山區過埤里過埤路176號,2020-05-23,74DA38F20B84,,13.61,,,02:15:53,,LR/30/8.88,高雄市立過埤國小,kaohsiung
,9,AirBox,2,0,,0,0,75,74DA38B0514E,1,,25.018,26.62,2020-05-23T02:15:50Z,,121.304,N/A,2020-05-23,74DA38B0514E,,2.76,,,02:15:50,,BRR/30/2.52,Ian,taoyuan
,9,AirBox,2,8,,14,14,100,高雄市市立溪洲國小,1,,22.847,25.37,2020-05-23T02:12:54Z,,120.465,高雄市溪洲國小 高雄市旗山區旗南二路126號,2020-05-23,74DA38F20B82,,11.8,,,02:12:54,,BRR/30/7.85,高雄市旗山區溪洲國小,kaohsiung
,9,AirBox,2,13,,21,22,100,高雄市市立中崙國小,1,,22.599,24.87,2020-05-23T02:14:48Z,,120.35,高雄市中崙國小 高雄市鳳山區中崙四路25號,2020-05-23,74DA38F20B80,,11.11,,,02:14:48,,LR/30/7.37,高雄市鳳山區中崙國小,kaohsiung
,9,AirBox,2,6,,8,9,100,74DA38AF47E4,1,,24.682,24.5,2020-05-23T02:17:17Z,,120.871,N/A,2020-05-23,74DA38AF47E4,,3.46,,,02:17:17,,LR/14/13.96,AzureSky,miaoli
,9,AirBox,2,0,,0,0,100,陽明-2,1,,25.0513097,20.5,2020-05-23T02:16:33Z,,121.5443192,Yangming,2020-05-23,08BEAC028A6E,,2.91,,,02:16:33,,BRR/14/3.7,手動站：陽明站-2（A6E）,yilan
,9,AirBox,2,0,,0,0,100,陽明-1,1,,25.051,20.25,2020-05-23T02:13:32Z,,121.544,Yangming,2020-05-23,08BEAC028A6C,,2.99,,,02:13:32,,BRR/14/3.66,手動站：陽明站-1（A6C）,yilan
,9,AirBox,2,0,,0,0,82,74DA38B051F4,1,,25.034,28,2020-05-23T02:13:47Z,,121.525,N/A,2020-05-23,74DA38B051F4,,5.35,,,02:13:47,,BRR/14/2.21,James,taipei
0,9,AirBox,2,3,acelink.edimax,5,5,100,桃園市市立同安國小,1,0,25.02174333,25.5,2020-05-23T02:17:25Z,0,121.2991216,桃園市桃園區同德十一街48號,2020-05-23,08BEAC09FFB4,0,2.53,v1.06,0,02:17:25,AI-1003WN,BRR/30/2.98,,
0,9,AirBox,2,19,acelink.edimax,37,46,100,臺南市市立文正國小,1,0,23.18719587,27.6,2020-05-23T02:14:35Z,0,120.2660892,臺南市麻豆區南勢里86號,2020-05-23,08BEAC0A0472,0,N/A,v1.06,0,02:14:35,AI-1003WN,N/A,,
0,9,AirBox,2,6,acelink.edimax,8,11,90,桃園市市立瑞梅國小,1,0,24.91027731,24.6,2020-05-23T02:18:42Z,0,121.1713391,桃園市楊梅區梅溪里19鄰三民北路26巷41號,2020-05-23,08BEAC0A0470,0,N/A,v1.06,0,02:18:42,AI-1003WN,N/A,,
0,9,AirBox,2,5,acelink.edimax,8,8,100,嘉義縣縣立三江國小,1,0,23.46882076,28.3,2020-05-23T02:16:20Z,0,120.1745889,嘉義縣東石鄉三家村16號,2020-05-23,08BEAC09FFB0,0,5.62,v1.06,0,02:16:20,AI-1003WN,LR/14/7.47,,
0,9,AirBox,2,22,acelink.edimax,40,51,91,雲林縣縣立古坑國小,1,0,23.6451428,27.6,2020-05-23T02:16:05Z,0,120.5656985,雲林縣古坑鄉朝陽路三號,2020-05-23,08BEAC0A0476,0,69.11,v1.06,0,02:16:05,AI-1003WN,Theil-Sen/21/7.71,,
0,9,AirBox,2,10,acelink.edimax,16,16,98,臺中市立光正國小,1,0,24.06093892,27.3,2020-05-23T02:14:05Z,0,120.6675654,臺中市霧峰區北勢里豐正路五六六號,2020-05-23,08BEAC09FFB2,0,6.08,v1.06,0,02:14:05,AI-1003WN,BRR/30/10.47,,
,9,AirBox,2,6,,9,10,91,74DA38AF47B6,1,,22.626,27.37,2020-05-23T02:14:01Z,,120.265,N/A,2020-05-23,74DA38AF47B6,,7.19,,,02:14:01,,LR/30/2.48,社科院室內,kaohsiung
,9,AirBox,2,1,,1,2,100,汐止-2,1,,25.0513022,24,2020-05-23T02:14:35Z,,121.5443653,Xizhi,2020-05-23,08BEAC028A66,,2.31,,,02:14:35,,BRR/14/3.7,手動站：汐止站-2（A66）,yilan
,9,AirBox,2,6,,9,10,76,AirBox-NUS-08,1,,1.293,25.62,2020-05-23T02:12:23Z,,103.842,N/A,2020-05-23,08BEAC0286E4,,N/A,,,02:12:23,,N/A,SG_CENTRAL _INDOOR,
,9,AirBox,2,18,,31,36,89,嘉義-2,1,,25.0512993,26.37,2020-05-23T02:15:30Z,,121.5443498,Chiayi,2020-05-23,08BEAC028A64,,19.74,,,02:15:30,,BRR/14/3.7,手動站：嘉義站-2（A64）,taipei
,9,AirBox,2,12,,24,28,94,朴子-2,1,,25.04170237,27.37,2020-05-23T02:12:47Z,,121.5440922,Puzi,2020-05-23,08BEAC028A62,,14.53,,,02:12:47,,BRR/14/3.68,手動站：朴子站-2（A62）,taipei
,9,AirBox,2,12,,30,35,93,南投-1,1,,25.04170237,25.62,2020-05-23T02:14:54Z,,121.5440922,Nantou,2020-05-23,08BEAC028A60,,18.4,,,02:14:54,,BRR/14/3.68,手動站：南投站-1（A60）,yilan
0,9,AirBox,2,40,acelink.edimax,161,162,100,臺南市市立大文國小,1,0,23.15038132,28.5,2020-05-23T02:17:21Z,0,120.1536375,臺南市七股區大埕里大寮36之2號,2020-05-23,08BEAC0A047C,0,79.97,v1.04,0,02:17:21,AI-1003WN,BRR/14/19.1,,
0,9,AirBox,2,8,acelink.edimax,12,13,86,臺中市立光復國中小,1,0,24.04397822,27.7,2020-05-23T02:18:51Z,0,120.689895,臺中市霧峰區南柳里柳豐路535號,2020-05-23,08BEAC09FFBE,0,6.27,v1.06,0,02:18:51,AI-1003WN,BRR/30/12.99,,
0,9,AirBox,2,9,acelink.edimax,13,13,100,桃園市市立茄苳國小,1,0,24.9645944,24.8,2020-05-23T02:19:44Z,0,121.2777675,桃園市八德區永豐路155號,2020-05-23,08BEAC0A047A,0,6.94,v1.06,0,02:19:44,AI-1003WN,BRR/30/4.35,,
,9,AirBox,2,3,,3,3,100,台東縣縣立瑞豐國小,1,,22.978,28.36,2020-05-23T02:15:14Z,,121.137,[955]臺東縣鹿野鄉瑞豐村中山路67號,2020-05-23,74DA38F20AAC,,2.45,,,02:15:14,,BRR/14/24.79,臺東縣瑞豐國小觀測站,taitung
0,9,AirBox,2,5,acelink.edimax,10,11,83,臺中市立豐洲國小,1,0,24.26235666,27.2,2020-05-23T02:17:18Z,0,120.70418,臺中市神岡區豐洲路482號,2020-05-23,08BEAC09FFBA,0,8.25,v1.06,0,02:17:18,AI-1003WN,Theil-Sen/14/3.86,,
0,9,AirBox,2,14,acelink.edimax,30,34,100,臺南市市立龍崎國中,1,0,22.96851238,27.7,2020-05-23T02:17:10Z,0,120.3609613,臺南市龍崎區新市子258號,2020-05-23,08BEAC0A047E,0,14.36,v1.06,0,02:17:10,AI-1003WN,BRR/14/16.31,,
0,9,AirBox,2,22,acelink.edimax,37,45,82,雲林縣縣立豐榮國小,1,0,23.79183769,27.1,2020-05-23T02:19:22Z,0,120.311746,雲林縣崙背鄉豐榮村豐榮路廿一號,2020-05-23,08BEAC09FFBC,0,64.16,v1.06,0,02:19:22,AI-1003WN,Theil-Sen/21/25.35,,
0,9,AirBox,2,13,acelink.edimax,23,24,90,嘉義縣縣立忠和國中,1,0,23.4252309,27.1,2020-05-23T02:16:11Z,0,120.4514224,嘉義縣水上鄉忠和村6之2號,2020-05-23,08BEAC0A0612,0,17.68,v1.06,0,02:16:11,AI-1003WN,BRR/30/4.31,,
0,9,AirBox,2,3,acelink.edimax,7,7,80,桃園市市立楊明國小,1,0,24.9113853035,26.3,2020-05-23T02:13:54Z,0,121.158530451,桃園市楊梅區中山北路一段390巷50號,2020-05-23,08BEAC0A0610,0,N/A,v1.06,0,02:13:54,AI-1003WN,N/A,,
0,9,AirBox,2,5,acelink.edimax,7,7,89,臺中市立永安國小,1,0,24.18430409,27.1,2020-05-23T02:16:31Z,0,120.6248949,臺中市西屯區西屯路三段133號,2020-05-23,08BEAC0A0376,0,3.32,v1.06,0,02:16:31,AI-1003WN,BRR/30/3.95,,
0,9,AirBox,2,3,acelink.edimax,4,4,86,桃園市市立同德國中,1,0,25.0158367,25.7,2020-05-23T02:19:45Z,0,121.2936759,桃園市桃園區南平路487號,2020-05-23,08BEAC0A0614,0,3.63,v1.06,0,02:19:45,AI-1003WN,BRR/30/2.52,,
,9,AirBox,2,13,,17,18,95,74DA38C7D1D6,1,,22.46,28.36,2020-05-23T02:14:15Z,,120.446,N/A,2020-05-23,74DA38C7D1D6,,8.93,,,02:14:15,,Theil-Sen/30/24.08,東港鎮興漁里,pingtung
,9,AirBox,2,10,,14,15,91,08BEAC028D4A,1,,24.99927521,23.37,2020-05-23T02:14:13Z,,121.3409959,N/A,2020-05-23,08BEAC028D4A,,8.46,,,02:14:13,,BRR/30/3.72,AD4A,miaoli
,9,AirBox,2,0,,0,1,72,74DA38C7D1D4,1,,25.026,26.62,2020-05-23T02:14:24Z,,121.52,N/A,2020-05-23,74DA38C7D1D4,,8.46,,,02:14:24,,BRR/14/2.58,kjt,taipei
,9,AirBox,2,0,,0,0,100,苗栗縣縣立士林國小,1,,24.347,23.37,2020-05-23T02:12:21Z,,120.93,[365]苗栗縣泰安鄉士林村5鄰26號,2020-05-23,74DA38F20B8C,,0,,,02:12:21,,LR/14/17.79,苗栗縣士林國小,miaoli
,9,AirBox,2,11,,15,15,100,高雄市市立旗尾國小,1,,22.882,24.75,2020-05-23T02:17:47Z,,120.492,高雄市旗尾國小 高雄市旗山區延平二路19號,2020-05-23,74DA38F20B8A,,12.39,,,02:17:47,,BRR/30/3.95,高雄市旗山區旗尾國小2,kaohsiung
0,9,AirBox,2,9,acelink.edimax,14,15,100,臺中市立合作國小,1,0,24.24046202,26.3,2020-05-23T02:19:28Z,0,120.7037366,臺中市豐原區西勢路410號,2020-05-23,08BEAC0A007E,0,11.19,v1.06,0,02:19:28,AI-1003WN,Theil-Sen/14/4.25,,
0,9,AirBox,2,8,acelink.edimax,21,24,100,雲林縣縣立大有國小,1,0,23.7639764,28.1,2020-05-23T02:15:16Z,0,120.3091388,雲林縣崙背鄉大有村大有路十四號,2020-05-23,08BEAC0A007C,0,38.26,v1.06,0,02:15:16,AI-1003WN,Theil-Sen/21/24.7,,
,9,AirBox,2,7,,10,11,93,新北市北大高中,1,,24.948,24.87,2020-05-23T02:15:13Z,,121.372,N/A,2020-05-23,74DA38F20A30,,6.1,,,02:15:13,,BRR/30/8.61,新北市北大高中,new_taipei
0,9,AirBox,2,17,acelink.edimax,26,27,89,臺中市立省三國小,1,0,24.159763,27.5,2020-05-23T02:14:35Z,0,120.684232,臺中市北區崇德路一段107號,2020-05-23,08BEAC0A007A,0,12.51,v1.06,0,02:14:35,AI-1003WN,BRR/30/4.46,,
,9,AirBox,2,3,,4,4,67,74DA38B05384,1,,24.17,28.25,2020-05-23T02:14:21Z,,120.72,N/A,2020-05-23,74DA38B05384,,5.78,,,02:14:21,,BRR/30/8.25,YuYao Chang Living Room,taichuang
,9,AirBox,2,1,,3,5,0,新北市乾華國小,1,,25.269,-4,2020-05-23T02:10:28Z,,121.592,N/A,2020-05-23,74DA38F7C3C6,,N/A,,,02:10:28,,N/A,乾華國小107空氣盒子,new_taipei
,9,AirBox,2,7,,9,10,89,08BEAC028880,1,,24.21896993,25.62,2020-05-23T02:15:59Z,,120.6597032,N/A,2020-05-23,08BEAC028880,,4.27,,,02:15:59,,BRR/30/7.69,民峰實業股份有限公司大雅預拌混凝土廠行車路徑,taichuang
,9,AirBox,2,4,,6,8,100,74DA38AF4798,1,,25.115,25.25,2020-05-23T02:16:18Z,,121.519,N/A,2020-05-23,74DA38AF4798,,6.15,,,02:16:18,,BRR/14/1.13,振華公園,taipei
0,9,AirBox,2,3,acelink.edimax,4,4,100,臺中市立東勢國中,1,0,24.257442,25.5,2020-05-23T02:18:24Z,0,120.851617,臺中市東勢區東崎路5段415號,2020-05-23,08BEAC0A027C,0,4.73,v1.06,0,02:18:24,AI-1003WN,Theil-Sen/14/11.14,,
0,9,AirBox,2,3,acelink.edimax,5,5,93,桃園市市立中興國小,1,0,24.92485458,25.1,2020-05-23T02:15:40Z,0,121.3102443,桃園市大溪區瑞興里一鄰大鶯路1125號,2020-05-23,08BEAC0A027E,0,3.33,v1.06,0,02:15:40,AI-1003WN,BRR/30/7.86,,
,9,AirBox,2,0,,0,0,56,74DA38AF475E,1,,25.064,28.75,2020-05-23T02:12:26Z,,121.496,N/A,2020-05-23,74DA38AF475E,,12.06,,,02:12:26,,BRR/14/2.29,SC-indoor,new_taipei
0,9,AirBox,2,0,acelink.edimax,0,0,96,嘉義縣縣立豐山實驗國(中)小,1,0,23.5759516,24.3,2020-05-23T02:18:27Z,0,120.7500601,嘉義縣阿里山鄉豐山村47號,2020-05-23,08BEAC0A06DE,0,3.58,v1.06,0,02:18:27,AI-1003WN,Theil-Sen/21/25.78,,
0,9,AirBox,2,16,acelink.edimax,39,45,87,臺南市市立大灣高中附設國中,1,0,23.02736947,28.5,2020-05-23T02:15:46Z,0,120.2566919,臺南市永康區文賢街68巷1號,2020-05-23,08BEAC0A06DA,0,21.2,v1.06,0,02:15:46,AI-1003WN,BRR/14/7.3,,
,9,AirBox,2,5,,6,7,100,74DA38AF4796,1,,24.911,23.37,2020-05-23T02:17:35Z,,121.151,N/A,2020-05-23,74DA38AF4796,,N/A,,,02:17:35,,N/A,桃園縣楊梅鎮自立街,taoyuan
0,9,AirBox,2,9,acelink.edimax,18,19,98,臺南市市立竹橋國中,1,0,23.10140477,27.8,2020-05-23T02:16:25Z,0,120.1418082,臺南市七股區義合里74之2號,2020-05-23,08BEAC0A06DC,0,8.7,v1.06,0,02:16:25,AI-1003WN,BRR/14/14.4,,
,9,AirBox,2,2,,3,3,100,新北市秀朗國小,1,,24.998,23.5,2020-05-23T02:14:12Z,,121.521,N/A,2020-05-23,74DA38F7C368,,3.48,,,02:14:12,,BRR/14/5.55,秀朗國小,new_taipei
,9,AirBox,2,10,,13,14,92,74DA38EBF656,1,,24.35,26.75,2020-05-23T02:12:53Z,,120.619,N/A,2020-05-23,74DA38EBF656,,4.96,,,02:12:53,,LR/14/14.63,myPM2.5_56,taichuang
,9,AirBox,2,0,,0,0,100,市立東湖國中,1,,25.072,22.62,2020-05-23T02:13:03Z,,121.619,臺北市內湖區樂康里康樂街131號,2020-05-23,74DA38F7C5BA,,3.43,,,02:13:03,,LR/14/2.41,台北市內湖區東湖國中2018,taipei
0,9,AirBox,2,19,acelink.edimax,36,44,100,雲林縣縣立東勢國小,1,0,23.67411553,28.7,2020-05-23T02:17:29Z,0,120.2570503,雲林縣東勢鄉東南村東榮路廿九巷九號,2020-05-23,08BEAC0A02F6,0,20.55,v1.06,0,02:17:29,AI-1003WN,LR/14/23.04,,
0,9,AirBox,2,9,acelink.edimax,14,15,100,臺中市立大忠國小,1,0,24.13430025,28.1,2020-05-23T02:16:43Z,0,120.55636,臺中市大肚區社腳里沙田路一段八五四巷二四號,2020-05-23,08BEAC0A02F4,0,6.58,v1.06,0,02:16:43,AI-1003WN,LR/30/7.74,,
0,9,AirBox,2,5,acelink.edimax,8,9,100,臺中市立追分國小,1,0,24.12223999,28.2,2020-05-23T02:17:28Z,0,120.568245,臺中市大肚區福山村沙田路一段364號,2020-05-23,08BEAC0A02F2,0,0,v1.06,0,02:17:28,AI-1003WN,LR/30/6.82,,
0,9,AirBox,2,25,acelink.edimax,47,62,94,雲林縣縣立雲林國小,1,0,23.70283896,27.2,2020-05-23T02:18:46Z,0,120.5483153,雲林縣斗六市莊敬路一一一號,2020-05-23,08BEAC0A02F0,0,80.45,v1.06,0,02:18:46,AI-1003WN,Theil-Sen/21/1.06,,
0,9,AirBox,2,6,acelink.edimax,9,10,100,嘉義縣縣立永安國小,1,0,23.37129694,27.2,2020-05-23T02:19:27Z,0,120.1820403,嘉義縣布袋鎮永安里126之2號,2020-05-23,08BEAC0A0108,0,6.16,v1.06,0,02:19:27,AI-1003WN,LR/14/12.59,,
0,9,AirBox,2,8,acelink.edimax,11,12,90,臺中市立甲南國小,1,0,24.30474724,28,2020-05-23T02:19:00Z,0,120.5955373,臺中市清水區臨海路26號,2020-05-23,08BEAC0A0104,0,9.05,v1.06,0,02:19:00,AI-1003WN,Theil-Sen/14/15.75,,
0,9,AirBox,2,5,acelink.edimax,9,9,89,桃園市市立八德國小,1,0,24.928085,25.8,2020-05-23T02:19:14Z,0,121.2831983,桃園市八德區興豐路222號,2020-05-23,08BEAC0A02F8,0,6.07,v1.06,0,02:19:14,AI-1003WN,BRR/30/7.78,,
0,9,AirBox,2,13,acelink.edimax,29,31,87,嘉義縣縣立沙坑國小,1,0,23.485855,27.2,2020-05-23T02:17:56Z,0,120.563627,嘉義縣竹崎鄉沙坑村57之2號,2020-05-23,08BEAC0A0100,0,22.17,v1.06,0,02:17:56,AI-1003WN,BRR/30/12.78,,
0,9,AirBox,2,4,acelink.edimax,6,7,87,桃園市市立快樂國小,1,0,25.01886,25.7,2020-05-23T02:15:36Z,0,121.3149216,桃園市桃園區大有路789號,2020-05-23,08BEAC0A00F4,0,4.63,v1.06,0,02:15:36,AI-1003WN,BRR/30/2.82,,
0,9,AirBox,2,21,acelink.edimax,33,39,100,雲林縣縣立東光國小,1,0,23.6518196,27.7,2020-05-23T02:12:57Z,0,120.2722556,雲林縣四湖鄉溪底村成功路十一號,2020-05-23,08BEAC0A00F6,0,18.95,v1.06,0,02:12:57,AI-1003WN,LR/14/20.69,,
0,9,AirBox,2,17,acelink.edimax,33,39,99,臺南市市立新營國小,1,0,23.3066693153,27.1,2020-05-23T02:16:59Z,0,120.316803306,臺南市新營區中正路4號,2020-05-23,08BEAC0A00F0,0,N/A,v1.06,0,02:16:59,AI-1003WN,N/A,,
0,9,AirBox,2,15,acelink.edimax,20,20,95,雲林縣縣立光復國小,1,0,23.74082309,27.7,2020-05-23T02:14:46Z,0,120.40158,雲林縣虎尾鎮墾地里光復莊11鄰卅九號,2020-05-23,08BEAC0A0296,0,36.58,v1.06,0,02:14:46,AI-1003WN,Theil-Sen/21/14.95,,
0,9,AirBox,2,20,acelink.edimax,37,51,100,雲林縣縣立舊庄國小,1,0,23.63316893,27.1,2020-05-23T02:15:02Z,0,120.4016321,雲林縣大埤鄉怡然村怡然路九二號,2020-05-23,08BEAC0A0294,0,64.16,v1.06,0,02:15:02,AI-1003WN,Theil-Sen/21/17.02,,
0,9,AirBox,2,18,acelink.edimax,32,37,100,臺南市市立日新國小,1,0,22.97315514,27.7,2020-05-23T02:17:41Z,0,120.1900188,臺南市南區金華路一段473號,2020-05-23,08BEAC0A00F8,0,15.37,v1.06,0,02:17:41,AI-1003WN,BRR/14/1.81,,
0,9,AirBox,2,12,acelink.edimax,23,32,100,臺南市市立左鎮國小,1,0,23.05596794,28.2,2020-05-23T02:14:40Z,0,120.4041667,臺南市左鎮區中正里7號,2020-05-23,08BEAC0A0292,0,10.74,v1.06,0,02:14:40,AI-1003WN,BRR/14/22.1,,
0,9,AirBox,2,0,acelink.edimax,0,0,100,雲林縣縣立三和國小,1,0,23.750533,27.3,2020-05-23T02:18:08Z,0,120.4082809,雲林縣二崙鄉三和村二鄰十七號,2020-05-23,08BEAC0A0290,0,3.98,v1.06,0,02:18:08,AI-1003WN,Theil-Sen/21/14.57,,
,9,AirBox,2,19,,25,27,72,08BEAC02862E,1,,24.13984523,31,2020-05-23T02:15:27Z,,120.6018107,N/A,2020-05-23,08BEAC02862E,,15.07,,,02:15:27,,BRR/30/4.21,寶文,taichuang
,9,AirBox,2,5,,7,8,100,新北市樹林國小,1,,24.989,23.75,2020-05-23T02:12:22Z,,121.417,N/A,2020-05-23,74DA38F7C398,,4.85,,,02:12:22,,LR/14/4.97,樹林區樹林國小,new_taipei
,9,AirBox,2,14,,27,29,100,高雄市市立岡山國小,1,,22.791,26,2020-05-23T02:17:46Z,,120.293,高雄市岡山國小 高雄市岡山區柳橋東路36號,2020-05-23,74DA38F210B4,,14.11,,,02:17:46,,LR/30/17.62,高雄市岡山區岡山國小2,kaohsiung
0,9,AirBox,2,10,acelink.edimax,54,55,92,臺中市立國安國小,1,0,24.1940608527,27.5,2020-05-23T02:12:07Z,0,120.608397983,臺中市西屯區永安里國祥街1號,2020-05-23,08BEAC0A00AA,0,25.53,v1.06,0,02:12:07,AI-1003WN,BRR/30/5.74,,
,9,AirBox,2,4,,7,7,100,高雄市市立金竹國小,1,,23.009,26.75,2020-05-23T02:14:41Z,,120.514,高雄市金竹國小 高雄市內門區金竹里吉民28號,2020-05-23,74DA38F210B6,,7.66,,,02:14:41,,BRR/30/14.05,高雄市內門區金竹國小,kaohsiung
,9,AirBox,2,11,,31,38,81,08BEAC028622,1,,23.905,26.37,2020-05-23T02:14:52Z,,120.689,N/A,2020-05-23,08BEAC028622,,21.12,,,02:14:52,,BRR/30/0.97,佳音英語-南投分校,nantou
,9,AirBox,2,22,,34,38,100,高雄市市立忠義國小,1,,22.616,25.5,2020-05-23T02:16:31Z,,120.384,高雄市忠義國小 高雄市大寮區忠義路1號,2020-05-23,74DA38F210B0,,17.61,,,02:16:31,,LR/30/10.02,高雄市大寮區忠義國小,kaohsiung
,9,AirBox,2,14,,20,21,84,高雄市市立昭明國小,1,,22.542,27.12,2020-05-23T02:15:25Z,,120.408,高雄市昭明國小 高雄市大寮區鳳林一路300巷80號,2020-05-23,74DA38F210B2,,14.33,,,02:15:25,,LR/30/15.91,高雄市大寮區昭明國小,NA
,9,AirBox,2,13,,20,23,100,08BEAC028626,1,,24.0988032,27.12,2020-05-23T02:15:35Z,,120.7253972,N/A,2020-05-23,08BEAC028626,,7.65,,,02:15:35,,BRR/30/10.4,myPM2.5_26,taichuang
,9,AirBox,2,7,,12,12,100,高雄市市立景義國小,1,,22.956,24.75,2020-05-23T02:12:54Z,,120.493,高雄市景義國小 高雄市內門區永富里萊坑8號,2020-05-23,74DA38F210B8,,10.61,,,02:12:54,,BRR/30/8.92,高雄市景義國小,NA
0,9,AirBox,2,11,acelink.edimax,17,18,100,臺中市立公?國小,1,0,24.26003344,25.7,2020-05-23T01:00:15Z,0,120.5955112,臺中市沙鹿區西勢里中航路二段1號,2020-05-23,08BEAC0A00AC,0,6.13,v1.06,0,01:00:15,AI-1003WN,BRR/30/12.88,,
0,9,AirBox,2,17,acelink.edimax,34,42,100,臺南市市立西勢國小,1,0,23.0188516,28.7,2020-05-23T02:19:46Z,0,120.2755474,臺南市永康區富強路一段278號,2020-05-23,08BEAC0A00FE,0,16.16,v1.06,0,02:19:46,AI-1003WN,BRR/14/8.38,,
0,9,AirBox,2,17,acelink.edimax,31,41,97,臺南市市立吉貝耍國小,1,0,23.2946492,28.1,2020-05-23T02:19:10Z,0,120.3860203,臺南市東山區東河里15號,2020-05-23,08BEAC0A00FA,0,N/A,v1.06,0,02:19:10,AI-1003WN,N/A,,
,9,AirBox,2,2,,3,4,100,新北市鶯歌國小,1,,24.951,24.37,2020-05-23T02:17:22Z,,121.345,N/A,2020-05-23,74DA38F7C302,,1.35,,,02:17:22,,BRR/30/6.41,鶯歌國小,new_taipei
0,9,AirBox,2,10,acelink.edimax,15,15,88,臺中市立大甲國小,1,0,24.35142701,27.1,2020-05-23T02:16:07Z,0,120.6259604,臺中市大甲區育德路233號,2020-05-23,08BEAC0A00AE,0,6.83,v1.06,0,02:16:07,AI-1003WN,LR/14/13.91,,
0,9,AirBox,2,6,acelink.edimax,8,9,93,臺中市立中港國小,1,0,24.2410935,27.5,2020-05-23T02:16:45Z,0,120.5553943,臺中市梧棲區大村里文明街100號,2020-05-23,08BEAC0A029E,0,3.09,v1.06,0,02:16:45,AI-1003WN,BRR/30/13.18,,
0,9,AirBox,2,18,acelink.edimax,25,31,84,臺中市立崇倫國中,1,0,24.13197002,27.6,2020-05-23T02:18:58Z,0,120.6588999,臺中市南區忠明南路653號,2020-05-23,08BEAC0A029C,0,12.92,v1.06,0,02:18:58,AI-1003WN,BRR/30/2.86,,
0,9,AirBox,2,21,acelink.edimax,39,47,100,雲林縣縣立莿桐國小,1,0,23.757105,27.3,2020-05-23T02:16:35Z,0,120.4986287,雲林縣莿桐鄉莿桐村中正路二○六號,2020-05-23,08BEAC0A029A,0,67.44,v1.06,0,02:16:35,AI-1003WN,Theil-Sen/21/6.9,,
0,9,AirBox,2,2,acelink.edimax,4,4,100,桃園市市立仁和國中,1,0,24.89453843,24.6,2020-05-23T02:16:06Z,0,121.2742668,桃園市大溪區仁和里仁和七街55號,2020-05-23,08BEAC0A02FC,0,N/A,v1.06,0,02:16:06,AI-1003WN,N/A,,
0,9,AirBox,2,19,acelink.edimax,33,39,100,嘉義縣縣立朴子國小,1,0,23.46733408,27.1,2020-05-23T02:15:05Z,0,120.2475585,嘉義縣朴子市山通路11號,2020-05-23,08BEAC0A02FA,0,18.95,v1.06,0,02:15:05,AI-1003WN,LR/14/0.03,,
,9,AirBox,2,2,,4,4,100,台東縣縣立東清國小,1,,22.056,27.87,2020-05-23T02:16:41Z,,121.564,[952]臺東縣蘭嶼鄉東清村1號,2020-05-23,74DA38F20870,,5.35,,,02:16:41,,LR/14/80.64,臺東縣蘭嶼鄉東清國小,taitung
0,9,AirBox,2,11,acelink.edimax,17,18,100,臺中市立西寧國小,1,0,24.27672829,27.7,2020-05-23T02:19:48Z,0,120.5748482,臺中市清水區西寧里五權東路50號,2020-05-23,08BEAC0A010E,0,6.21,v1.06,0,02:19:48,AI-1003WN,BRR/30/15.41,,
0,9,AirBox,2,23,acelink.edimax,34,40,100,臺中市立三田國小,1,0,24.2898460217,27.3,2020-05-23T02:17:37Z,0,120.581068285,臺中市清水區田寮里三田路四號,2020-05-23,08BEAC0A010C,0,14.43,v1.06,0,02:17:37,AI-1003WN,BRR/30/16.5,,
0,9,AirBox,2,10,acelink.edimax,15,18,86,臺中市立梧棲國小,1,0,24.2447870393,27,2020-05-23T02:16:41Z,0,120.528528504,臺中市梧棲區民生街45號,2020-05-23,08BEAC0A010A,0,7.72,v1.06,0,02:16:41,AI-1003WN,BRR/30/15.39,,
,9,AirBox,2,10,,16,16,100,74DA38EBF65C,1,,24.414,23.62,2020-05-23T02:13:35Z,,118.284,N/A,2020-05-23,74DA38EBF65C,,10.7,,,02:13:35,,BRR/30/3.5,金門塔山電廠警衛室,NA
,9,AirBox,2,1,,2,3,76,74DA38EBF5AE,1,,24.195,27.12,2020-05-23T02:15:18Z,,120.686,N/A,2020-05-23,74DA38EBF5AE,,3.2,,,02:15:18,,BRR/30/6.61,Peterpen,taichuang
0,9,AirBox,2,0,acelink.edimax,1,2,100,嘉義縣縣立香林國小,1,0,23.51608224,16.5,2020-05-23T02:15:13Z,0,120.8079409,嘉義縣阿里山鄉香林村二鄰41號,2020-05-23,08BEAC0A075C,0,4.15,v1.06,0,02:15:13,AI-1003WN,Theil-Sen/21/34.52,,
,9,AirBox,2,1,,2,1,77,74DA38ED068E,1,,24.979,26.62,2020-05-23T02:16:20Z,,121.555,N/A,2020-05-23,74DA38ED068E,,8.14,,,02:16:20,,BRR/14/8.88,Tao home,new_taipei
,9,AirBox,2,9,,13,14,100,苗栗縣縣立中正國小,1,,24.428,24,2020-05-23T00:35:15Z,,120.661,[358]苗栗縣苑裡鎮中正里111號,2020-05-23,74DA38F20852,,4.06,,,00:35:15,,LR/14/11.1,苗栗縣中正國小,miaoli
,9,AirBox,2,8,,12,12,100,74DA38EBF908,1,,22.626,26.62,2020-05-23T02:15:42Z,,120.266,N/A,2020-05-23,74DA38EBF908,,6.6,,,02:15:42,,LR/30/2.38,NSYSU MEM,kaohsiung
,9,AirBox,2,0,,1,1,95,08BEAC028718,1,,25.001,23.37,2020-05-23T02:12:56Z,,121.203,N/A,2020-05-23,08BEAC028718,,N/A,,,02:12:56,,N/A,A19站1月台,new_taipei
,9,AirBox,2,26,,40,47,100,74DA38EBF902,1,,23.477,26.5,2020-05-23T02:15:14Z,,120.454,N/A,2020-05-23,74DA38EBF902,,28.15,,,02:15:14,,BRR/30/2.07,third brother food,chiayi_city
,9,AirBox,2,1,,2,2,88,08BEAC028712,1,,25.06618062,23.5,2020-05-23T02:12:58Z,,121.3611068,N/A,2020-05-23,08BEAC028712,,2.16,,,02:12:58,,BRR/30/9.73,A09站2月台,new_taipei
,9,AirBox,2,14,,11,19,100,74DA38EBF82C,1,,24.205,23.62,2020-05-23T02:13:43Z,,120.601,N/A,2020-05-23,74DA38EBF82C,,3.27,,,02:13:43,,BRR/30/7.16,科園三路（宿舍）左,taichuang
,9,AirBox,2,0,,1,0,100,AirBox-NTUH-09,1,,25.018,23.5,2020-05-23T02:14:36Z,,121.536,N/A,2020-05-23,74DA388FF4CA,,2.47,,,02:14:36,,BRR/14/4.24,NTU10,taipei
,9,AirBox,2,4,,7,8,95,新北市永和幼兒園,1,,24.997,24,2020-05-23T02:12:51Z,,121.519,N/A,2020-05-23,74DA38F7C4DA,,6.69,,,02:12:51,,BRR/14/5.62,新北市立永和幼兒園,new_taipei
,9,AirBox,2,18,,34,39,100,美濃-2,1,,25.038,24.75,2020-05-23T02:17:27Z,,121.545,Meinong,2020-05-23,74DA38EBF7C6,,18.83,,,02:17:27,,BRR/14/3.85,手動站：美濃站-2（7C6）,new_taipei
,9,AirBox,2,2,,3,3,100,新北市鷺江國中,1,,25.09,24.37,2020-05-23T02:17:29Z,,121.462,N/A,2020-05-23,74DA38F7C4DE,,4.25,,,02:17:29,,BRR/14/5.64,鷺江國中_空氣盒子,new_taipei
,9,AirBox,2,7,,15,17,100,74DA38EBF924,1,,23.115,27.5,2020-05-23T02:13:09Z,,120.306,N/A,2020-05-23,74DA38EBF924,,6.88,,,02:13:09,,BRR/14/17.95,陽光二路15巷LM,tainan
,9,AirBox,2,0,,0,0,100,新北市平溪國中,1,,25.024,23.12,2020-05-23T02:15:20Z,,121.733,N/A,2020-05-23,74DA38F7C540,,3.43,,,02:15:20,,LR/14/10.32,平溪國中,new_taipei
,9,AirBox,2,21,,31,34,100,74DA38EBF83E,1,,22.66,26.75,2020-05-23T02:17:54Z,,120.323,N/A,2020-05-23,74DA38EBF83E,,16.11,,,02:17:54,,LR/30/4.71,明誠一路真愛大樓10F陽台(室外),kaohsiung
,9,AirBox,2,4,,5,5,100,74DA38EBF83C,1,,25.029,25.25,2020-05-23T02:15:47Z,,121.501,N/A,2020-05-23,74DA38EBF83C,,3.94,,,02:15:47,,BRR/14/2.07,華南銀行,taipei
0,9,AirBox,2,6,acelink.edimax,12,13,100,嘉義縣縣立大湖國小,1,0,23.47524445,24.5,2020-05-23T02:14:37Z,0,120.6203878,嘉義縣番路鄉大湖村下坪仔8號,2020-05-23,08BEAC0A06C8,0,9.41,v1.06,0,02:14:37,AI-1003WN,BRR/30/18.37,,
0,9,AirBox,2,3,acelink.edimax,4,4,90,08BEAC0A05A0,1,0,25.03007102,25.5,2020-05-23T02:18:49Z,0,121.3748707,N/A,2020-05-23,08BEAC0A05A0,0,3.15,v1.06,0,02:18:49,AI-1003WN,BRR/30/8.08,,
0,9,AirBox,2,7,acelink.edimax,10,10,92,雲林縣縣立下崙國小,1,0,23.6129488,27.1,2020-05-23T02:16:02Z,0,120.1592585,雲林縣口湖鄉下崙村福安路九一號,2020-05-23,08BEAC0A05A2,0,6.69,v1.06,0,02:16:02,AI-1003WN,LR/14/18.56,,
0,9,AirBox,2,19,acelink.edimax,34,41,100,臺南市市立億載國小,1,0,22.990522,27.7,2020-05-23T02:16:29Z,0,120.1634051,臺南市安平區郡平路310號,2020-05-23,08BEAC0A05A6,0,16.37,v1.06,0,02:16:29,AI-1003WN,BRR/14/4.07,,
,9,AirBox,2,7,,9,9,0,苗栗縣縣立林森國小,1,,24.438,-4,2020-05-23T02:17:20Z,,120.679,[358]苗栗縣苑裡鎮水坡里70號,2020-05-23,74DA38F20904,,49.15,,,02:17:20,,LR/14/10.14,苗栗縣林森國小,miaoli
,9,AirBox,2,0,,0,0,68,74DA38E2B4FA,1,,24.148,27.62,2020-05-23T02:14:55Z,,120.611,N/A,2020-05-23,74DA38E2B4FA,,3.66,,,02:14:55,,BRR/30/3.08,文山區(室內),nantou
,9,AirBox,2,2,,3,3,83,74DA38E2B4FC,1,,25.016,26.25,2020-05-23T02:18:07Z,,121.53,N/A,2020-05-23,74DA38E2B4FC,,7.16,,,02:18:07,,BRR/14/4.05,tony pm2.5,taipei
,9,AirBox,2,0,,0,0,100,宜蘭縣縣立壯圍國小,1,,24.743,24,2020-05-23T02:15:56Z,,121.79,[263]宜蘭縣壯圍鄉吉祥村壯五路55號,2020-05-23,74DA38F20900,,0,,,02:15:56,,LR/14/4.44,宜蘭縣壯圍國小,yilan
,9,AirBox,2,5,,7,8,100,屏東縣縣立獅子國中,1,,22.204,27.25,2020-05-23T02:13:16Z,,120.7,[941]屏東縣枋山鄉楓港村舊庄280號,2020-05-23,74DA38F20902,,6.82,,,02:13:16,,LR/14/28.84,屏東縣獅子國中,pingtung
,9,AirBox,2,9,,12,13,100,前金-2,1,,22.632,26.5,2020-05-23T02:14:57Z,,120.287,Qianjin,2020-05-23,08BEAC028772,,6.6,,,02:14:57,,LR/30/0.13,手動站：前金站-2（772),kaohsiung
,9,AirBox,2,0,,0,0,92,74DA38C7CF36,1,,23.918,24.75,2020-05-23T02:13:27Z,,120.885,N/A,2020-05-23,74DA38C7CF36,,1.09,,,02:13:27,,BRR/30/20.31,林試所蓮華池研究中心,nantou
,9,AirBox,2,12,,20,23,100,74DA38B050B6,1,,22.995,27.25,2020-05-23T02:15:35Z,,120.163,N/A,2020-05-23,74DA38B050B6,,9.44,,,02:15:35,,BRR/14/4.22,原住民文化會館_4G,tainan
,9,AirBox,2,10,,14,15,100,高雄市市立龍華國小,1,,22.655,26.62,2020-05-23T02:14:53Z,,120.298,高雄市龍華國小 高雄市鼓山區大順一路858號,2020-05-23,74DA38F20ED4,,7.6,,,02:14:53,,LR/30/2.69,龍華國小2018,kaohsiung
0,9,AirBox,2,0,acelink.edimax,1,1,85,桃園市市立文欣國小,1,0,25.0576701,25.1,2020-05-23T02:15:59Z,0,121.3717622,桃園市龜山區文昌五街95號,2020-05-23,08BEAC0A07C2,0,2.05,v1.06,0,02:15:59,AI-1003WN,BRR/30/9.7,,
0,9,AirBox,2,7,acelink.edimax,9,10,100,桃園市市立上大國小,1,0,24.97919964,24.3,2020-05-23T02:02:17Z,0,121.1466079,桃園市觀音區上大里大湖路一段540號,2020-05-23,08BEAC0A07C4,0,N/A,v1.06,0,02:02:17,AI-1003WN,N/A,,
,9,AirBox,2,7,,12,13,100,屏東縣縣立萬新國中,1,,22.562,25.75,2020-05-23T02:18:09Z,,120.492,[913]屏東縣萬丹鄉新鐘村新鐘路8號,2020-05-23,74DA38F2090A,,6.66,,,02:18:09,,Theil-Sen/30/12.36,萬新國中空氣盒子,pingtung
0,9,AirBox,2,2,acelink.edimax,4,5,100,桃園市市立蘆竹國小,1,0,25.05065364,24.7,2020-05-23T02:15:34Z,0,121.2670755,桃園市蘆竹區富國路二段850號,2020-05-23,08BEAC0A07C6,0,1.93,v1.06,0,02:15:34,AI-1003WN,BRR/30/7.21,,
0,9,AirBox,2,18,acelink.edimax,34,41,100,嘉義縣縣立灣潭國小,1,0,23.42742063,26.5,2020-05-23T02:19:19Z,0,120.5562522,嘉義縣中埔鄉灣潭村下庄1之1號,2020-05-23,08BEAC0A07C8,0,24.04,v1.06,0,02:19:19,AI-1003WN,BRR/30/12.41,,
,9,AirBox,2,27,,39,48,100,74DA38B050BA,1,,22.991,26.62,2020-05-23T02:16:27Z,,120.223,N/A,2020-05-23,74DA38B050BA,,19.11,,,02:16:27,,BRR/14/2.21,東寧社區_4G,tainan
,9,AirBox,2,0,,1,1,100,屏東縣縣立琉球國中,1,,22.335,26.87,2020-05-23T02:10:39Z,,120.369,[929]屏東縣琉球鄉中正路158號,2020-05-23,74DA38F20ED6,,1.1,,,02:10:39,,LR/30/34.12,琉球國中2,pingtung
,9,AirBox,2,10,,12,13,100,74DA3895C440,1,,22.674,27.12,2020-05-23T02:18:18Z,,120.478,N/A,2020-05-23,74DA3895C440,,6.02,,,02:18:18,,Theil-Sen/30/1.03,PEIU,pingtung
,9,AirBox,2,0,,0,0,100,74DA38B050BE,1,,24.809,22.5,2020-05-23T02:15:46Z,,121.404,N/A,2020-05-23,74DA38B050BE,,0,,,02:15:46,,BRR/30/23.03,桃園市環教學會庫志站,taoyuan
,9,AirBox,2,5,,7,7,90,74DA38EBF836,1,,25.013,26.12,2020-05-23T02:18:09Z,,121.487,N/A,2020-05-23,74DA38EBF836,,5.39,,,02:18:09,,LR/14/2.86,Namm,new_taipei
,9,AirBox,2,8,,10,11,47,74DA38EBF830,1,,25.042,24.75,2020-05-23T02:15:30Z,,121.512,N/A,2020-05-23,74DA38EBF830,,20.82,,,02:15:30,,BRR/14/0.64,衡陽路2,taipei
0,9,AirBox,2,4,acelink.edimax,8,8,100,嘉義縣縣立布袋國中,1,0,23.360372,27.3,2020-05-23T02:15:32Z,0,120.180582,嘉義縣布袋鎮光復里六棟寮40號,2020-05-23,08BEAC0A05AA,0,5.62,v1.06,0,02:15:32,AI-1003WN,LR/14/13.71,,
0,9,AirBox,2,20,acelink.edimax,36,44,100,臺南市市立依仁國小,1,0,22.91307073,28.1,2020-05-23T02:14:33Z,0,120.2611485,臺南市仁德區中洲里中洲1之126號,2020-05-23,08BEAC0A05AC,0,17.29,v1.06,0,02:14:33,AI-1003WN,BRR/14/9.96,,
0,9,AirBox,2,20,acelink.edimax,33,38,87,臺南市市立大光國小,1,0,22.98548962,28.6,2020-05-23T02:19:29Z,0,120.2168919,臺南市北區長榮路五段277號,2020-05-23,08BEAC0A05AE,0,18.17,v1.06,0,02:19:29,AI-1003WN,BRR/14/1.46,,
,9,AirBox,2,1,,2,2,100,74DA38EBF838,1,,25.012,24,2020-05-23T02:17:24Z,,121.542,N/A,2020-05-23,74DA38EBF838,,2.81,,,02:17:24,,BRR/14/5.15,公館國小,taipei
,9,AirBox,2,7,,9,9,88,74DA3895C2F4,1,,25.033,26,2020-05-23T02:17:28Z,,121.554,N/A,2020-05-23,74DA3895C2F4,,8.95,,,02:17:28,,BRR/14/4.87,freshair1,taipei
,9,AirBox,2,16,,21,22,100,74DA3895C2F2,1,,24.299,25.87,2020-05-23T02:13:07Z,,120.577,N/A,2020-05-23,74DA3895C2F2,,15.71,,,02:13:07,,Theil-Sen/14/17.35,sanmei,taichuang
,9,AirBox,2,6,,9,9,0,新北市積穗國小,1,,24.998,-4,2020-05-23T02:15:24Z,,121.48,N/A,2020-05-23,74DA38F7C4D4,,0,,,02:15:24,,LR/14/2.72,積穗國小02,new_taipei
,9,AirBox,2,0,,0,0,100,74DA3895C2F0,1,,24.786,24.75,2020-05-23T02:16:38Z,,120.997,N/A,2020-05-23,74DA3895C2F0,,4.74,,,02:16:38,,BRR/14/3.33,adslAirBox,hsinchu_city
,9,AirBox,2,8,,10,10,100,74DA38AF48C2,1,,24.023,26.37,2020-05-23T02:16:15Z,,120.491,N/A,2020-05-23,74DA38AF48C2,,0.96,,,02:16:15,,LR/30/7.01,ChungHua_秀水,changhua
,9,AirBox,2,18,,34,40,100,74DA38EBF90C,1,,23.119,26.37,2020-05-23T02:16:43Z,,120.306,N/A,2020-05-23,74DA38EBF90C,,16.65,,,02:16:43,,BRR/14/18.31,LM_目加溜灣,tainan
,9,AirBox,2,4,,5,6,100,74DA38EBF90A,1,,24.185,27.12,2020-05-23T02:13:57Z,,120.616,N/A,2020-05-23,74DA38EBF90A,,0.4,,,02:13:57,,BRR/30/4.47,靖業一號,taichuang
,9,AirBox,2,7,,7,11,44,AirBox-UChicago-43,1,,41.748,25.37,2020-05-23T02:15:48Z,,-87.67,N/A,2020-05-23,74DA38ED07F4,,N/A,,,02:15:48,,N/A,Pphi-us-edimax,
,9,AirBox,2,18,,23,24,80,08BEAC02871A,1,,25.0620528,25.87,2020-05-23T02:16:31Z,,121.4585188,N/A,2020-05-23,08BEAC02871A,,18.24,,,02:16:31,,BRR/14/5.27,A03站3月台,new_taipei
,9,AirBox,2,27,,22,45,56,AirBox-UChicago-55,1,,40.702,24.62,2020-05-23T02:15:36Z,,-89.616,N/A,2020-05-23,74DA38ED07F2,,N/A,,,02:15:36,,N/A,demonstration,
,9,AirBox,2,1,,1,1,77,THU_USR_19,1,,24.226,26.12,2020-05-23T02:18:18Z,,120.647,N/A,2020-05-23,74DA38EBF90E,,2.53,,,02:18:18,,BRR/30/8.25,THUUSR-19,new_taipei
,9,AirBox,2,4,,5,5,92,74DA38EBF63A,1,,24.826,25,2020-05-23T02:13:59Z,,121.027,N/A,2020-05-23,74DA38EBF63A,,13.21,,,02:13:59,,BRR/14/5.99,sky-1,hsinchu_county
,9,AirBox,2,13,,19,21,69,74DA38E69E3E,1,,23.496,27.37,2020-05-23T02:13:36Z,,120.378,N/A,2020-05-23,74DA38E69E3E,,17.66,,,02:13:36,,BRR/30/7.4,po po yu,kaohsiung
,9,AirBox,2,10,,12,13,71,74DA38E69B4E,1,,24.134,28.86,2020-05-23T02:14:56Z,,120.659,N/A,2020-05-23,74DA38E69B4E,,8.94,,,02:14:56,,BRR/30/2.7,Taichung40347,taichuang
,9,AirBox,2,21,,30,38,100,74DA38B051FA,1,,23.598,26.37,2020-05-23T02:14:34Z,,120.458,N/A,2020-05-23,74DA38B051FA,,21.32,,,02:14:34,,BRR/30/15.14,信義街,chiayi_county
,9,AirBox,2,9,,14,16,100,74DA38C7D4BC,1,,22.662,26.12,2020-05-23T02:16:30Z,,120.49,N/A,2020-05-23,74DA38C7D4BC,,7.43,,,02:16:30,,Theil-Sen/30/1.25,Rainbow,pingtung
,9,AirBox,2,2,,3,3,100,74DA38E69B80,1,,23.468,26.87,2020-05-23T02:12:56Z,,120.282,N/A,2020-05-23,74DA38E69B80,,2.96,,,02:12:56,,LR/14/3.49,宏都文化魔界村,chiayi_county
,9,AirBox,2,17,,29,35,100,74DA38C7CEC2,1,,23.54,26,2020-05-23T02:14:39Z,,120.48,N/A,2020-05-23,74DA38C7CEC2,,20.72,,,02:14:39,,BRR/30/9.47,松仔腳２,chiayi_county
0,9,AirBox,2,17,acelink.edimax,36,46,100,雲林縣縣立民生國小,1,0,23.7676275,27.2,2020-05-23T02:17:08Z,0,120.597256,雲林縣林內鄉烏塗村華興路一號,2020-05-23,08BEAC09FF0C,0,62.55,v1.06,0,02:17:08,AI-1003WN,Theil-Sen/21/8.17,,
,9,AirBox,2,15,,20,21,100,74DA38C7CEC0,1,,24.063,26.37,2020-05-23T02:18:06Z,,120.434,N/A,2020-05-23,74DA38C7CEC0,,12.34,,,02:18:06,,LR/30/10.92,Changhua 30 室外,changhua
,9,AirBox,2,13,,16,19,100,taichung68,1,,24.174,27,2020-05-23T02:15:11Z,,120.578,N/A,2020-05-23,74DA3895C55C,,5.72,,,02:15:11,,BRR/30/6.85,taichung68,taichuang
,9,AirBox,2,11,,17,26,96,嘉義市立民族國小,1,,23.475,27.37,2020-05-23T01:18:16Z,,120.455,[600]嘉義市東區民族路235號,2020-05-23,74DA38C7CEC6,,12.76,,,01:18:16,,BRR/30/1.98,嘉義市民族國小,chiayi_city
,9,AirBox,2,2,,3,3,100,74DA38AF47D6,1,,24.966,24.12,2020-05-23T02:12:10Z,,121.515,N/A,2020-05-23,74DA38AF47D6,,2.94,,,02:12:10,,LR/14/7.71,GreenDiamond2nd,new_taipei
0,9,AirBox,2,13,acelink.edimax,19,20,100,雲林縣縣立油車國小,1,0,23.7954898,27.8,2020-05-23T02:19:51Z,0,120.3918404,雲林縣二崙鄉港後村港後路六十號,2020-05-23,08BEAC09FF0E,0,34.97,v1.06,0,02:19:51,AI-1003WN,Theil-Sen/21/18.15,,
,9,AirBox,2,11,,17,18,100,高雄市市立楠梓國中,1,,22.735,25.25,2020-05-23T02:15:36Z,,120.327,高雄市立楠梓國民中學 高雄市楠梓區東寧里楠梓路336號,2020-05-23,74DA38F20D5C,,9.1,,,02:15:36,,LR/30/12.07,楠梓國中,kaohsiung
,9,AirBox,2,23,,38,46,0,高雄市市立橋頭國中,1,,25.062,-4,2020-05-23T02:12:52Z,,121.451,高雄市立橋頭國民中學 高雄市橋頭區橋頭里新興路70號,2020-05-23,74DA38F20D5A,,14.01,,,02:12:52,,LR/14/5.51,高雄市立橋頭國中,chiayi_city
,9,AirBox,2,1,,1,2,100,新竹市立竹蓮國小,1,,25.062,24.5,2020-05-23T02:12:59Z,,121.451,[300]新竹市東區食品路226號,2020-05-23,74DA38C7D63C,,2.02,,,02:12:59,,LR/14/5.51,新竹市竹蓮國小,hsinchu_city
,9,AirBox,2,3,,5,5,75,高雄市市立燕巢國中,1,,22.786,28.5,2020-05-23T02:17:21Z,,120.362,高雄市立燕巢國民中學 高雄市燕巢區南燕里中興路267號,2020-05-23,74DA38F20D5E,,7.73,,,02:17:21,,Theil-Sen/30/18.02,燕巢國中,kaohsiung
,9,AirBox,2,17,,22,23,100,74DA38E69DBA,1,,24.982,23.87,2020-05-23T02:14:37Z,,121.309,N/A,2020-05-23,74DA38E69DBA,,11.88,,,02:14:37,,BRR/30/1.56,HuangHome,taoyuan
,9,AirBox,2,13,,16,16,71,74DA38E69DBE,1,,25.066,28.25,2020-05-23T02:16:46Z,,121.482,N/A,2020-05-23,74DA38E69DBE,,16.34,,,02:16:46,,BRR/14/3.4,金龍宮,new_taipei
,9,AirBox,2,2,,2,2,82,74DA38E69D78,1,,24.266,26.75,2020-05-23T02:13:12Z,,120.665,N/A,2020-05-23,74DA38E69D78,,3.06,,,02:13:12,,Theil-Sen/14/7.85,台中市神岡區福庄街210巷13號,taichuang
0,9,AirBox,2,23,acelink.edimax,40,47,100,嘉義縣縣立大有國小,1,0,23.42870386,27.7,2020-05-23T02:17:47Z,0,120.5127023,嘉義縣中埔鄉裕民村石頭厝17之1號,2020-05-23,08BEAC0A0820,0,27.87,v1.06,0,02:17:47,AI-1003WN,BRR/30/8.25,,
,9,AirBox,2,7,,10,11,85,74DA38E2B58C,1,,24.087,26.25,2020-05-23T02:14:09Z,,120.669,N/A,2020-05-23,74DA38E2B58C,,5.47,,,02:14:09,,BRR/30/7.76,aa,changhua
0,9,AirBox,2,18,acelink.edimax,35,42,93,嘉義縣縣立中埔國小,1,0,23.42271414,27.5,2020-05-23T02:17:04Z,0,120.5242571,嘉義縣中埔鄉中埔村中正路1號,2020-05-23,08BEAC0A0822,0,25.42,v1.06,0,02:17:04,AI-1003WN,BRR/30/9.61,,
,9,AirBox,2,8,,12,12,100,74DA38E69D00,1,,22.658,26.5,2020-05-23T02:17:05Z,,120.472,N/A,2020-05-23,74DA38E69D00,,6.31,,,02:17:05,,Theil-Sen/30/2.35,HSJH-AO,pingtung
0,9,AirBox,2,12,acelink.edimax,26,32,100,臺南市市立新光國小,1,0,22.97240652,28.6,2020-05-23T02:17:31Z,0,120.3531793,臺南市關廟區新光街76號,2020-05-23,08BEAC0A0824,0,12.17,v1.06,0,02:17:31,AI-1003WN,BRR/14/15.47,,
0,9,AirBox,2,12,acelink.edimax,25,28,100,臺南市市立大社國小,1,0,23.0866633,27.7,2020-05-23T02:19:54Z,0,120.319169,臺南市新市區大社里39號,2020-05-23,08BEAC0A0826,0,11.85,v1.06,0,02:19:54,AI-1003WN,BRR/14/16.46,,
,9,AirBox,2,5,,8,8,86,74DA38F7C2D6,1,,24.161,27.12,2020-05-23T02:14:10Z,,120.732,N/A,2020-05-23,74DA38F7C2D6,,4.33,,,02:14:10,,BRR/30/9.28,明日,taichuang
0,9,AirBox,2,11,acelink.edimax,23,24,100,臺南市市立光復生態實驗小學,1,0,23.14965152,28.3,2020-05-23T02:16:39Z,0,120.1067805,臺南市七股區?埕里?埕1號,2020-05-23,08BEAC0A0828,0,10.72,v1.06,0,02:16:39,AI-1003WN,BRR/14/20.81,,
,9,AirBox,2,0,,0,0,100,台東縣縣立萬安國小,1,,23.095,26.25,2020-05-23T02:14:08Z,,121.218,[958]臺東縣池上鄉萬安村一鄰5之2號,2020-05-23,74DA38F20AAE,,0.94,,,02:14:08,,BRR/14/38.39,台東縣池上鄉萬安國小,new_taipei
,9,AirBox,2,7,,11,12,100,高雄市市立文府國小,1,,22.692,26,2020-05-23T02:14:21Z,,120.314,高雄市文府國小 高雄市左營區文府路399號,2020-05-23,74DA38F20FDA,,6.1,,,02:14:21,,LR/30/7.12,wfpsairbox2,new_taipei
,9,AirBox,2,13,,17,19,100,74DA38F703D6,1,,23.427,29.36,2020-05-23T02:17:39Z,,120.272,N/A,2020-05-23,74DA38F703D6,,10.42,,,02:17:39,,LR/14/5.1,明桂畜牧場,chiayi_county
0,9,AirBox,2,3,acelink.edimax,5,6,100,桃園市市立山腳國中,1,0,25.08814781,25.2,2020-05-23T01:55:51Z,0,121.278711,桃園市蘆竹區海山路319號,2020-05-23,08BEAC0A082C,0,2.45,v1.06,0,01:55:51,AI-1003WN,BRR/30/10.64,,
,9,AirBox,2,5,,5,5,100,74DA38EBF6A2,1,,24.992,23.37,2020-05-23T02:14:51Z,,121.297,N/A,2020-05-23,74DA38EBF6A2,,2.41,,,02:14:51,,BRR/30/0.83,A061,miaoli
0,9,AirBox,2,6,acelink.edimax,11,12,98,臺南市市立楠西國中,1,0,23.18203633,27.2,2020-05-23T02:16:58Z,0,120.4845063,臺南市楠西區中興路107號,2020-05-23,08BEAC0A082E,0,N/A,v1.06,0,02:16:58,AI-1003WN,N/A,,
,9,AirBox,2,7,,11,12,100,澎湖縣縣立吉貝國小,1,,23.741,22.75,2020-05-23T02:12:15Z,,119.614,[884]澎湖縣白沙鄉吉貝村8號,2020-05-23,74DA38F20FD8,,1.77,,,02:12:15,,BRR/14/19.73,澎湖縣白沙鄉吉貝國小,penghu
0,9,AirBox,2,2,acelink.edimax,3,4,100,桃園市內壢高中,1,0,24.97968166,25,2020-05-23T02:16:15Z,0,121.251725,桃園市中壢區成章四街120號,2020-05-23,08BEAC0A06CE,0,1.39,v1.06,0,02:16:15,AI-1003WN,BRR/30/5.59,,
,9,AirBox,2,7,,11,13,0,澎湖縣縣立後寮國小,1,,23.662,-4,2020-05-23T02:11:18Z,,119.569,[884]澎湖縣白沙鄉後寮村218號,2020-05-23,74DA38F20FD4,,29.39,,,02:11:18,,BRR/14/10.34,澎湖縣白沙鄉後寮國小,NA
,9,AirBox,2,4,,5,5,75,74DA38E69DB8,1,,25.029,27.12,2020-05-23T02:15:31Z,,121.507,N/A,2020-05-23,74DA38E69DB8,,10.04,,,02:15:31,,BRR/14/1.95,egg,taipei
,9,AirBox,2,0,,1,1,100,台東縣縣立都蘭國小,1,,22.878,25.75,2020-05-23T02:18:12Z,,121.227,[959]臺東縣東河鄉都蘭村431號,2020-05-23,74DA38F20D56,,1.44,,,02:18:12,,BRR/14/15.73,臺東縣都蘭國小,taitung
,9,AirBox,2,2,,4,5,100,基隆-2,1,,25.0513092,23.37,2020-05-23T02:16:24Z,,121.5442497,Keelung,2020-05-23,08BEAC028A68,,4.03,,,02:16:24,,BRR/14/3.69,手動站：基隆站-2（A68）,yilan
0,9,AirBox,2,7,acelink.edimax,12,13,89,桃園市市立龜山國中,1,0,24.9979049,26.3,2020-05-23T02:14:40Z,0,121.3386703,桃園市龜山區自強西路66號,2020-05-23,08BEAC0A01F0,0,7.76,v1.06,0,02:14:40,AI-1003WN,BRR/30/3.47,,
,9,AirBox,2,2,,3,3,93,新竹縣縣立竹仁國小,1,,24.836,25.12,2020-05-23T02:13:52Z,,121.013,[302]新竹縣竹北市竹仁里仁和街1號,2020-05-23,74DA38F20D58,,9.77,,,02:13:52,,BRR/14/5.34,cjesairbox,hsinchu_county
,9,AirBox,2,13,,17,17,94,74DA38E69DB4,1,,23.753,26.62,2020-05-23T02:13:12Z,,120.432,N/A,2020-05-23,74DA38E69DB4,,31.55,,,02:13:12,,Theil-Sen/21/12.38,雲林縣西螺鎮九隆,yunlin
0,9,AirBox,2,0,acelink.edimax,1,2,99,桃園市市立山腳國小,1,0,25.08838924,25,2020-05-23T02:15:10Z,0,121.2875087,桃園市蘆竹區南山路三段440號,2020-05-23,08BEAC0A0874,0,0.4,v1.06,0,02:15:10,AI-1003WN,BRR/30/10.48,,
,9,AirBox,2,0,,1,1,100,74DA38E2B4CC,1,,25.11,24.5,2020-05-23T02:16:18Z,,121.689,N/A,2020-05-23,74DA38E2B4CC,,3.84,,,02:16:18,,LR/14/6.7,基隆市瑪陵國小,keelung
,9,AirBox,2,7,,11,12,100,74DA38EBF95C,1,,24.048,28.86,2020-05-23T02:14:54Z,,120.437,N/A,2020-05-23,74DA38EBF95C,,3.63,,,02:14:54,,LR/30/10.8,街尾里地藏廟東北,changhua
0,9,AirBox,2,11,acelink.edimax,18,20,100,臺南市市立文山國小,1,0,23.2410786,28.2,2020-05-23T02:18:43Z,0,120.1261162,臺南市北門區文山里4鄰溪底寮50號,2020-05-23,08BEAC0A0872,0,N/A,v1.06,0,02:18:43,AI-1003WN,N/A,,
,9,AirBox,2,2,,2,2,68,74DA38E69E36,1,,23.48,28.25,2020-05-23T02:15:54Z,,120.426,N/A,2020-05-23,74DA38E69E36,,5.93,,,02:15:54,,BRR/30/2.44,Addison,chiayi_city
,9,AirBox,2,9,,11,12,72,74DA38E69E34,1,,24.106,27.87,2020-05-23T02:18:14Z,,120.636,N/A,2020-05-23,74DA38E69E34,,8.27,,,02:18:14,,BRR/30/5.14,台中市明道中學PM2.5觀測站,taichuang
0,9,AirBox,2,15,acelink.edimax,29,32,88,臺南市市立東山國中,1,0,23.31694659,27.7,2020-05-23T02:14:36Z,0,120.4030698,臺南市東山區東中里青葉路一段132號,2020-05-23,08BEAC0A0616,0,N/A,v1.06,0,02:14:36,AI-1003WN,N/A,,
,9,AirBox,2,8,,11,12,100,74DA38E2B626,1,,23.99,25.62,2020-05-23T02:17:35Z,,120.672,N/A,2020-05-23,74DA38E2B626,,6.96,,,02:17:35,,BRR/30/8.67,nantou12,nantou
,9,AirBox,2,9,,13,14,99,市立劍潭國小,1,,25.075,23.87,2020-05-23T02:17:30Z,,121.519,臺北市士林區明勝里通河街16號,2020-05-23,74DA38F21094,,8.71,,,02:17:30,,BRR/14/3.36,台北市士林區劍潭國小2018,taipei
,9,AirBox,2,0,,1,1,100,74DA38E2B624,1,,25.245,23,2020-05-23T02:15:04Z,,121.474,N/A,2020-05-23,74DA38E2B624,,N/A,,,02:15:04,,N/A,淺水灣,new_taipei
,9,AirBox,2,1,,1,1,92,市立溪山國小,1,,25.119,23,2020-05-23T02:15:36Z,,121.552,臺北市士林區溪山里至善路3段199號,2020-05-23,74DA38F21096,,5.04,,,02:15:36,,BRR/14/3.98,台北市士林區溪山國小2018,taipei
,9,AirBox,2,0,,0,0,98,74DA38E2B622,1,,24.334,25,2020-05-23T02:15:03Z,,120.621,N/A,2020-05-23,74DA38E2B622,,2.1,,,02:15:03,,Theil-Sen/14/14.96,Markmark,taichuang
0,9,AirBox,2,17,acelink.edimax,29,30,94,雲林縣縣立永定國小,1,0,23.7965476,27.1,2020-05-23T02:18:01Z,0,120.4191355,雲林縣二崙鄉永定村永定路五五號,2020-05-23,08BEAC0A044C,0,51.14,v1.06,0,02:18:01,AI-1003WN,Theil-Sen/21/15.9,,
,9,AirBox,2,4,,5,5,82,74DA38E2B620,1,,22.692,26.62,2020-05-23T02:18:18Z,,120.632,N/A,2020-05-23,74DA38E2B620,,7.02,,,02:18:18,,Theil-Sen/30/14.92,pm2.5,pingtung
0,9,AirBox,2,20,acelink.edimax,28,29,100,臺中市立松竹國小,1,0,24.18113559,27.6,2020-05-23T02:19:06Z,0,120.6902817,臺中市北屯區昌平路二段12號,2020-05-23,08BEAC0A044A,0,11.53,v1.06,0,02:19:06,AI-1003WN,BRR/30/5.95,,
0,9,AirBox,2,10,acelink.edimax,14,15,97,桃園市市立東勢國小,1,0,24.9110842619,25.1,2020-05-23T02:17:55Z,0,121.232276447,桃園市平鎮區平東路一段185號,2020-05-23,08BEAC09FFCE,0,N/A,v1.06,0,02:17:55,AI-1003WN,N/A,,
0,9,AirBox,2,5,acelink.edimax,6,6,100,臺中市立日南國中,1,0,24.37843883,27.7,2020-05-23T02:19:16Z,0,120.6513366,臺中市大甲區中山路二段69-11號,2020-05-23,08BEAC09FFCC,0,0,v1.06,0,02:19:16,AI-1003WN,LR/14/10.9,,
0,9,AirBox,2,7,acelink.edimax,11,12,90,臺中市立霧峰國小,1,0,24.0619544983,27.6,2020-05-23T02:16:39Z,0,120.698135376,臺中市霧峰區中正路736號,2020-05-23,08BEAC09FFCA,0,5.08,v1.06,0,02:16:39,AI-1003WN,BRR/30/11.56,,
,9,AirBox,2,2,,4,4,100,基隆市立暖江國小,1,,25.105,23.5,2020-05-23T02:12:28Z,,121.737,[205]基隆市暖暖區寧靜街3號,2020-05-23,74DA38F20ABE,,N/A,,,02:12:28,,N/A,NJPS,keelung
,9,AirBox,2,4,,5,5,100,新竹縣縣立寶石國小,1,,24.816,24.75,2020-05-23T02:14:48Z,,121.078,[305]新竹縣新埔鎮寶石里九鄰關埔路內立段672號,2020-05-23,74DA38F20DFA,,4.42,,,02:14:48,,Theil-Sen/14/8.45,新竹縣寶石國小,taoyuan
,9,AirBox,2,3,,5,6,100,澎湖縣縣立七美國中,1,,23.205,24.12,2020-05-23T02:15:01Z,,119.429,[883]澎湖縣七美鄉中和村4號,2020-05-23,74DA38F21194,,0,,,02:15:01,,BRR/14/42.83,澎湖縣立七美國中,penghu
,9,AirBox,2,14,,18,18,100,74DA38E69AD0,1,,24.205,23.87,2020-05-23T02:15:34Z,,120.603,N/A,2020-05-23,74DA38E69AD0,,6.66,,,02:15:34,,BRR/30/7.05,科園三路（宿舍）右,taichuang
,9,AirBox,2,2,,3,3,87,74DA38E69AD6,1,,24.796,28.36,2020-05-23T02:16:18Z,,120.96,N/A,2020-05-23,74DA38E69AD6,,9.09,,,02:16:18,,BRR/14/1.62,puyuma_indoor,hsinchu_city
,9,AirBox,2,4,,5,5,100,宜蘭縣縣立東光國中,1,,24.671,24.12,2020-05-23T02:16:18Z,,121.766,[265]宜蘭縣羅東鎮興東南路201號,2020-05-23,74DA38F20BFA,,0,,,02:16:18,,LR/14/8.78,宜蘭縣東光國中,yilan
0,9,AirBox,2,2,acelink.edimax,4,4,100,雲林縣縣立台西國中,1,0,23.7015476,28.3,2020-05-23T02:18:58Z,0,120.1918441,雲林縣台西鄉中山路四○八號,2020-05-23,08BEAC0A004C,0,3.49,v1.06,0,02:18:58,AI-1003WN,LR/14/26.68,,
0,9,AirBox,2,15,acelink.edimax,33,39,100,嘉義縣縣立松山國小,1,0,23.54003857,27.6,2020-05-23T02:17:23Z,0,120.4751084,嘉義縣民雄鄉松山村松仔腳43之1號,2020-05-23,08BEAC0A059C,0,23.1,v1.06,0,02:17:23,AI-1003WN,BRR/30/9.27,,
,9,AirBox,2,8,,12,14,86,高雄市市立忠孝國小,1,,22.621,27.25,2020-05-23T02:13:10Z,,120.285,高雄市忠孝國小 高雄市鹽埕區大智路71號,2020-05-23,74DA38F20BFE,,9.86,,,02:13:10,,LR/30/1.32,高雄市鹽珵區忠孝國小new,kaohsiung
0,9,AirBox,2,11,acelink.edimax,27,30,97,嘉義縣縣立民和國小,1,0,23.46382632,26.7,2020-05-23T02:18:36Z,0,120.5530691,嘉義縣番路鄉下坑村菜公店91號,2020-05-23,08BEAC0A059E,0,19.59,v1.06,0,02:18:36,AI-1003WN,BRR/30/11.45,,
0,9,AirBox,2,34,acelink.edimax,56,62,89,雲林縣縣立廣興國小,1,0,23.76658144,28.1,2020-05-23T02:10:44Z,0,120.4581439,雲林縣西螺鎮廣興里廣興路五九號,2020-05-23,08BEAC0A0208,0,95.21,v1.04,0,02:10:44,AI-1003WN,Theil-Sen/21/10.73,,
,9,AirBox,2,1,,2,2,100,台東縣縣立長濱國小,1,,23.316,25,2020-05-23T02:17:24Z,,121.451,[962]臺東縣長濱鄉長濱村五鄰11號,2020-05-23,74DA38F209F6,,1.95,,,02:17:24,,BRR/14/69.51,臺東縣長濱國小,taitung
0,9,AirBox,2,18,acelink.edimax,34,43,100,雲林縣縣立成龍國小,1,0,23.5595384,27.7,2020-05-23T02:18:56Z,0,120.1685119,雲林縣口湖鄉成龍村二○一號,2020-05-23,08BEAC0A04C6,0,19.48,v1.06,0,02:18:56,AI-1003WN,LR/14/13.08,,
0,9,AirBox,2,1,acelink.edimax,2,3,89,桃園市市立慈文國小,1,0,25.01235008,26.2,2020-05-23T02:19:43Z,0,121.3046085,桃園市桃園區新埔六街2號,2020-05-23,08BEAC0A04C4,0,2.2,v1.06,0,02:19:43,AI-1003WN,BRR/30/1.89,,
0,9,AirBox,2,12,acelink.edimax,17,17,89,臺中市立瑞城國小,1,0,24.08992474,27.8,2020-05-23T02:19:18Z,0,120.7284131,臺中市大里區美村街196號,2020-05-23,08BEAC0A04C2,0,8.16,v1.06,0,02:19:18,AI-1003WN,BRR/30/11.23,,
,9,AirBox,2,11,,16,18,100,74DA38E2B48E,1,,23.984,24.62,2020-05-23T02:16:39Z,,120.68,N/A,2020-05-23,74DA38E2B48E,,9.87,,,02:16:39,,BRR/30/7.91,Home,nantou
0,9,AirBox,2,10,acelink.edimax,15,18,100,臺南市市立北門國中,1,0,23.2534289,27.7,2020-05-23T02:17:02Z,0,120.1289325,臺南市北門區永華里1之1號,2020-05-23,08BEAC0A06EE,0,N/A,v1.06,0,02:17:02,AI-1003WN,N/A,,
,9,AirBox,2,12,,17,18,0,高雄市市立正義國小,1,,22.603,-4,2020-05-23T02:15:27Z,,120.34,高雄市正義國小 高雄市鳳山區正義里南昌街55號,2020-05-23,74DA38F207DE,,32.35,,,02:15:27,,LR/30/6.26,高雄市正義國小,kaohsiung
0,9,AirBox,2,0,acelink.edimax,0,0,94,桃園市市立三民國小,1,0,24.8328721,24.3,2020-05-23T02:19:11Z,0,121.3308522,桃園市復興區三民里十一鄰57號,2020-05-23,08BEAC0A06EC,0,0.39,v1.06,0,02:19:11,AI-1003WN,BRR/30/18.26,,
,9,AirBox,2,4,,5,6,63,74DA38E2B826,1,,22.687,27.87,2020-05-23T02:18:07Z,,120.302,N/A,2020-05-23,74DA38E2B826,,11.7,,,02:18:07,,LR/30/6.22,蓮池潭（室內）,kaohsiung
0,9,AirBox,2,1,acelink.edimax,2,3,100,桃園市市立石門國中,1,0,24.8411451632,24.3,2020-05-23T02:14:46Z,0,121.240112856,桃園市龍潭區佳安里文化路137號,2020-05-23,08BEAC0A04C8,0,N/A,v1.06,0,02:14:46,AI-1003WN,N/A,,
,9,AirBox,2,3,,4,5,100,苗栗縣縣立獅潭國小,1,,24.539,23.5,2020-05-23T02:12:40Z,,120.92,[354]苗栗縣獅潭鄉新店村129號,2020-05-23,74DA38F209FE,,0.54,,,02:12:40,,LR/14/10.51,苗栗縣獅潭國小,miaoli
0,9,AirBox,2,2,acelink.edimax,3,3,100,臺中市立逢甲國小,1,0,24.16832927,28.2,2020-05-23T02:18:13Z,0,120.7592418,臺中市北屯區北坑巷60號,2020-05-23,08BEAC0A04CC,0,4.09,v1.06,0,02:18:13,AI-1003WN,Theil-Sen/14/9.97,,
,9,AirBox,2,0,,1,1,100,苗栗縣縣立蕉埔國小,1,,24.413,25,2020-05-23T02:12:34Z,,120.713,[358]苗栗縣苑裡鎮蕉埔里八鄰87之2號,2020-05-23,74DA38F209FC,,0,,,02:12:34,,LR/14/5.72,苗栗縣蕉埔國小-Lass,miaoli
0,9,AirBox,2,7,acelink.edimax,10,10,100,臺中市立月眉國小,1,0,24.31515166,26,2020-05-23T02:19:15Z,0,120.6902316,臺中市后里區眉山里甲后路二段588號,2020-05-23,08BEAC0A04CA,0,8.6,v1.06,0,02:19:15,AI-1003WN,Theil-Sen/14/8.34,,
0,9,AirBox,2,17,acelink.edimax,28,30,84,臺南市市立建興國中,1,0,22.97814106,28.2,2020-05-23T02:17:50Z,0,120.2265148,臺南市中西區府前路一段239號,2020-05-23,08BEAC0A06E6,0,16.31,v1.06,0,02:17:50,AI-1003WN,BRR/14/2.55,,
0,9,AirBox,2,8,acelink.edimax,17,21,100,臺南市市立西港國中,1,0,23.12408876,27.7,2020-05-23T02:16:54Z,0,120.2051701,臺南市西港區文化路41號,2020-05-23,08BEAC0A06E4,0,7.84,v1.06,0,02:16:54,AI-1003WN,BRR/14/15.51,,
0,9,AirBox,2,15,acelink.edimax,31,37,95,臺南市市立土城高中附設國中,1,0,23.04679807,27.8,2020-05-23T02:19:20Z,0,120.1857712,臺南市安南區安中路五段265號,2020-05-23,08BEAC0A06E2,0,15.8,v1.06,0,02:19:20,AI-1003WN,BRR/14/7.13,,
0,9,AirBox,2,2,acelink.edimax,3,3,100,桃園市市立永安國中,1,0,24.98774495,24.6,2020-05-23T02:18:52Z,0,121.0439236,桃園市新屋區中山西路三段96號,2020-05-23,08BEAC0A06E0,0,N/A,v1.06,0,02:18:52,AI-1003WN,N/A,,
0,9,AirBox,2,0,acelink.edimax,0,0,100,臺南市市立龍崗國小,1,0,22.96064198,27.8,2020-05-23T02:18:35Z,0,120.1696187,臺南市南區鯤鯓里鯤鯓路147號,2020-05-23,08BEAC0A0042,0,0,v1.06,0,02:18:35,AI-1003WN,BRR/14/4.3,,
,9,AirBox,2,7,,11,11,100,高雄市市立三民國中,1,,22.646,25.62,2020-05-23T02:14:25Z,,120.307,高雄巿立三民國民中學 高雄市三民區十全里十全一路200號,2020-05-23,74DA38F20BF0,,6.1,,,02:14:25,,LR/30/2.45,高雄市三民國中,kaohsiung
0,9,AirBox,2,21,acelink.edimax,36,42,93,臺南市市立東光國小,1,0,22.9916357271,27.6,2020-05-23T02:19:51Z,0,120.229852796,臺南市東區東光路一段39號,2020-05-23,08BEAC0A0040,0,18.74,v1.06,0,02:19:51,AI-1003WN,BRR/14/2.9,,
,9,AirBox,2,15,,20,22,82,高雄市市立小港國中,1,,22.566,28,2020-05-23T02:16:07Z,,120.337,高雄市立小港國民中學 高雄市小港區港南里平和南路185號,2020-05-23,74DA38F20BF2,,14.79,,,02:16:07,,LR/30/8.94,高雄市小港國中,kaohsiung
0,9,AirBox,2,15,acelink.edimax,23,24,100,雲林縣縣立大屯國小,1,0,23.70169916,28,2020-05-23T02:19:26Z,0,120.38822,雲林縣虎尾鎮東屯里一四七號,2020-05-23,08BEAC0A0046,0,41.5,v1.06,0,02:19:26,AI-1003WN,Theil-Sen/21/16.0,,
,9,AirBox,2,15,,22,22,100,高雄市市立中山國中,1,,22.566,25.87,2020-05-23T02:17:18Z,,120.356,高雄市立中山國民中學 高雄市小港區順苓里漢民路352號,2020-05-23,74DA38F20BF4,,11.61,,,02:17:18,,LR/30/10.17,高雄市立中山國民中學,kaohsiung
0,9,AirBox,2,2,acelink.edimax,4,4,100,桃園市市立內定國小,1,0,24.99374166,26,2020-05-23T02:19:12Z,0,121.2503433,桃園市中壢區內定里定寧路31號,2020-05-23,08BEAC0A0044,0,2.01,v1.06,0,02:19:12,AI-1003WN,BRR/30/5.45,,
,9,AirBox,2,13,,21,22,100,高雄市市立明義國中,1,,22.582,27.25,2020-05-23T02:13:46Z,,120.368,高雄市立明義國民中學 高雄市小港區孔宅里明義街2號,2020-05-23,74DA38F20BF6,,11.11,,,02:13:46,,LR/30/9.95,高雄市明義國中,kaohsiung
0,9,AirBox,2,12,acelink.edimax,22,23,100,臺南市市立宅港國小,1,0,23.2579709,29.2,2020-05-23T02:19:32Z,0,120.2035746,臺南市學甲區宅港里13號,2020-05-23,08BEAC0A0598,0,N/A,v1.06,0,02:19:32,AI-1003WN,N/A,,
,9,AirBox,2,1,,1,1,96,新竹縣縣立內灣國小,1,,24.704,23.5,2020-05-23T02:12:27Z,,121.183,[312]新竹縣橫山鄉內灣村三鄰110號,2020-05-23,74DA38F20BF8,,2.18,,,02:12:27,,Theil-Sen/14/10.34,新竹縣內灣國小,hsinchu_county
0,9,AirBox,2,4,acelink.edimax,6,6,100,臺中市立岸裡國小,1,0,24.24967999,26.6,2020-05-23T02:16:47Z,0,120.6968633,臺中市神岡區岸裡里中山路52號,2020-05-23,08BEAC0A0048,0,6.02,v1.06,0,02:16:47,AI-1003WN,Theil-Sen/14/4.61,,
0,9,AirBox,2,0,acelink.edimax,1,1,95,臺中市立土牛國小,1,0,24.2655249581,25.2,2020-05-23T02:16:00Z,0,120.808502175,臺中市石岡區土牛里豐勢路308號,2020-05-23,08BEAC0A035C,0,2.68,v1.06,0,02:16:00,AI-1003WN,Theil-Sen/14/6.84,,
,9,AirBox,2,10,,15,17,100,高雄市市立蚵寮國中,1,,22.728,27.37,2020-05-23T02:17:59Z,,120.258,高雄市立蚵寮國民中學 高雄市梓官區智蚵里中正二街60號,2020-05-23,74DA38F20DF0,,8.1,,,02:17:59,,LR/30/11.05, 蚵寮國中空氣盒子,kaohsiung
,9,AirBox,2,9,,13,13,89,74DA38E69ADC,1,,22.531,28,2020-05-23T02:13:27Z,,120.369,N/A,2020-05-23,74DA38E69ADC,,9.66,,,02:13:27,,LR/30/14.02,上林街,kaohsiung
0,9,AirBox,2,22,acelink.edimax,42,52,100,雲林縣縣立尖山國小,1,0,23.5605605,27.7,2020-05-23T02:19:45Z,0,120.2229384,雲林縣水林鄉大山村大山路六號,2020-05-23,08BEAC0A0446,0,23.74,v1.06,0,02:19:45,AI-1003WN,LR/14/10.69,,
0,9,AirBox,2,3,acelink.edimax,5,5,81,桃園市市立自立國小,1,0,24.96828666,26.8,2020-05-23T02:17:38Z,0,121.2511033,桃園市中壢區永福路1200號,2020-05-23,08BEAC0A0444,0,N/A,v1.06,0,02:17:38,AI-1003WN,N/A,,
,9,AirBox,2,7,,8,8,74,74DA38E2B62E,1,,25.01,26.12,2020-05-23T02:12:39Z,,121.46,N/A,2020-05-23,74DA38E2B62E,,5.89,,,02:12:39,,LR/14/0.36,念生客廳,new_taipei
0,9,AirBox,2,18,acelink.edimax,25,27,93,臺中市立大仁國小,1,0,24.16781574,28,2020-05-23T02:16:59Z,0,120.6587068,臺中市西屯區重慶路200號,2020-05-23,08BEAC0A0442,0,11.32,v1.06,0,02:16:59,AI-1003WN,BRR/30/2.51,,
0,9,AirBox,2,9,acelink.edimax,16,17,83,臺中市立旭光國小,1,0,24.1104395165,28.6,2020-05-23T02:18:32Z,0,120.594264083,臺中市烏日區健行路501號,2020-05-23,08BEAC09FFC8,0,8.75,v1.06,0,02:18:32,AI-1003WN,BRR/30/6.63,,
,9,AirBox,2,2,,3,3,100,屏東縣縣立大光國小,1,,21.966,28.61,2020-05-23T02:17:58Z,,120.755,[946]屏東縣恆春鎮大光里大光路8之6號,2020-05-23,74DA38F211A0,,5.08,,,02:17:58,,LR/14/3.61,大光國小空氣盒子,pingtung
0,9,AirBox,2,11,acelink.edimax,17,19,81,臺中市立東山高中,1,0,24.16621833,28.2,2020-05-23T02:13:37Z,0,120.7131183,臺中市北屯區景賢6路200號,2020-05-23,08BEAC09FFC6,0,9.58,v1.06,0,02:13:37,AI-1003WN,BRR/30/7.48,,
,9,AirBox,2,5,,10,10,100,高雄市市立甲仙國中,1,,23.08,24.87,2020-05-23T02:13:51Z,,120.592,高雄市立甲仙國民中學 高雄市甲仙區東安里文化南路6號,2020-05-23,74DA38F211A2,,9.43,,,02:13:51,,BRR/30/22.73,高雄市甲仙國中,kaohsiung
,9,AirBox,2,4,,5,6,90,市立文化國小,1,,25.137,24.75,2020-05-23T02:17:43Z,,121.496,臺北市北投區文化里文化三路1號,2020-05-23,74DA38F211A4,,8.1,,,02:17:43,,BRR/14/4.02,臺北市北投區文化國小2018,taipei
,9,AirBox,2,4,,5,5,0,市立舊莊國小,1,,25.04,-4,2020-05-23T02:15:41Z,,121.619,臺北市南港區舊莊里舊莊街1段100號,2020-05-23,74DA38F20F3C,,5.46,,,02:15:41,,LR/14/3.82,台北市南港區舊莊國小2018,taipei
0,9,AirBox,2,19,acelink.edimax,28,30,85,臺中市立永春國小,1,0,24.135047,27.7,2020-05-23T02:18:47Z,0,120.6479405,臺中市南屯區永春東路288號,2020-05-23,08BEAC0A0448,0,14.19,v1.06,0,02:18:47,AI-1003WN,BRR/30/2.0,,
0,9,AirBox,2,7,acelink.edimax,13,14,93,臺中市立僑榮國小,1,0,24.07344177,27,2020-05-23T02:15:50Z,0,120.7015437,臺中市霧峰區甲寅里民生路156號,2020-05-23,08BEAC09FFC0,0,5.51,v1.06,0,02:15:50,AI-1003WN,BRR/30/10.67,,
,9,AirBox,2,9,,12,12,100,THU_USR_04,1,,24.183,26.62,2020-05-23T02:15:09Z,,120.586,N/A,2020-05-23,74DA38EBF79A,,3.78,,,02:15:09,,BRR/30/6.57,THUUSR-04,taichuang
,9,AirBox,2,3,,4,4,100,桃園-1,1,,24.994,23.37,2020-05-23T02:17:29Z,,121.305,Taoyuan,2020-05-23,08BEAC028A74,,1.85,,,02:17:29,,BRR/30/0.16,手動站：桃園站-1（A74),taoyuan
0,9,AirBox,2,11,acelink.edimax,22,24,100,嘉義縣縣立月眉國小,1,0,23.52004522,27.6,2020-05-23T02:19:43Z,0,120.3507122,嘉義縣新港鄉月眉村20鄰123號,2020-05-23,08BEAC0A0628,0,15.55,v1.06,0,02:19:43,AI-1003WN,BRR/30/11.18,,
,9,AirBox,2,3,,5,5,100,74DA38EBF79E,1,,25.041,23.75,2020-05-23T02:14:39Z,,121.519,N/A,2020-05-23,74DA38EBF79E,,4.42,,,02:14:39,,BRR/14/1.27,台大醫院2,taipei
0,9,AirBox,2,18,acelink.edimax,33,40,99,臺南市市立新化國小,1,0,23.0375752,28.2,2020-05-23T02:16:14Z,0,120.3110539,臺南市新化區中山路173號,2020-05-23,08BEAC0A0626,0,15.96,v1.04,0,02:16:14,AI-1003WN,BRR/14/12.57,,
0,9,AirBox,2,17,acelink.edimax,37,46,100,嘉義縣縣立新港國中,1,0,23.557845,28,2020-05-23T02:19:10Z,0,120.343112,嘉義縣新港鄉福德村福德路106號,2020-05-23,08BEAC0A0624,0,21.08,v1.06,0,02:19:10,AI-1003WN,LR/14/14.01,,
0,9,AirBox,2,1,acelink.edimax,2,2,100,桃園市市立員樹林國小,1,0,24.88333144,24.8,2020-05-23T02:14:48Z,0,121.26692,桃園市大溪區員林路二段450號,2020-05-23,08BEAC0A03D6,0,N/A,v1.06,0,02:14:48,AI-1003WN,N/A,,
0,9,AirBox,2,12,acelink.edimax,25,34,100,雲林縣縣立華山國小,1,0,23.5953486,24.8,2020-05-23T02:19:13Z,0,120.5967026,雲林縣古坑鄉華山村四一號,2020-05-23,08BEAC0A0622,0,44.32,v1.06,0,02:19:13,AI-1003WN,Theil-Sen/21/13.98,,
0,9,AirBox,2,1,acelink.edimax,3,4,100,桃園市市立新莊國小,1,0,25.02773493,25.3,2020-05-23T02:19:00Z,0,121.2466369,桃園市蘆竹區大新路380巷121號,2020-05-23,08BEAC0A0620,0,1.41,v1.06,0,02:19:00,AI-1003WN,BRR/30/6.84,,
,9,AirBox,2,0,,1,1,100,苗栗縣縣立東河國小,1,,24.6,22.75,2020-05-23T02:14:43Z,,121.04,[353]苗栗縣南庄鄉東河村三鄰132號,2020-05-23,74DA38F20A38,,1.27,,,02:14:43,,Theil-Sen/14/16.4,苗栗縣東河國小,miaoli
0,9,AirBox,2,0,acelink.edimax,0,0,90,桃園市市立三坑國小,1,0,24.8366336823,26.2,2020-05-23T02:17:43Z,0,121.248306274,桃園市龍潭區三坑里永昌路51巷85號,2020-05-23,08BEAC0A03D8,0,N/A,v1.06,0,02:17:43,AI-1003WN,N/A,,
,9,AirBox,2,4,,5,6,98,74DA38E2B550,1,,24.996,24.25,2020-05-23T02:16:48Z,,121.504,N/A,2020-05-23,74DA38E2B550,,3.97,,,02:16:48,,LR/14/4.94,南華路明禮街,new_taipei
,9,AirBox,2,16,,24,29,100,74DA38C7D1E6,1,,22.752,26.75,2020-05-23T02:15:52Z,,120.33,N/A,2020-05-23,74DA38C7D1E6,,12.61,,,02:15:52,,LR/30/13.96,高科大,tainan
0,9,AirBox,2,21,acelink.edimax,40,51,100,雲林縣縣立大興國小,1,0,23.56601178,29.1,2020-05-23T02:19:29Z,0,120.2105462,雲林縣水林鄉大溝村一號,2020-05-23,08BEAC0A027A,0,22.68,v1.06,0,02:19:29,AI-1003WN,LR/14/11.63,,
,9,AirBox,2,8,,11,11,91,板橋-2,1,,25.012,25.12,2020-05-23T02:17:28Z,,121.458,Banqiao,2020-05-23,08BEAC0286CE,,7.16,,,02:17:28,,LR/14/0.13,手動站：板橋站-2（6CE),NA
,9,AirBox,2,10,,14,15,100,屏東縣縣立勝利國小,1,,22.68,24.75,2020-05-23T02:12:51Z,,120.486,[900]屏東縣屏東市勝利里蘭州街2號,2020-05-23,74DA38F20A44,,8.07,,,02:12:51,,Theil-Sen/30/0.8,屏東市勝利國小,pingtung
,9,AirBox,2,6,,8,8,96,新竹縣縣立新星國小,1,,24.829,23.87,2020-05-23T02:15:13Z,,121.074,[305]新竹縣新埔鎮新民里民生街28號,2020-05-23,74DA38F20A48,,5.95,,,02:15:13,,Theil-Sen/14/9.94,新竹縣新星國小,hsinchu_county
0,9,AirBox,2,15,acelink.edimax,24,26,88,臺中市立大業國中,1,0,24.1541760879,27.7,2020-05-23T02:17:04Z,0,120.652356371,臺中市南屯區大業路100號,2020-05-23,08BEAC0A013C,0,11.72,v1.06,0,02:17:04,AI-1003WN,BRR/30/1.17,,
0,9,AirBox,2,9,acelink.edimax,13,14,90,臺中市立永寧國小,1,0,24.2291067913,27.2,2020-05-23T02:18:51Z,0,120.532946438,臺中市梧棲區中央路一段160號,2020-05-23,08BEAC0A013A,0,6.04,v1.06,0,02:18:51,AI-1003WN,BRR/30/13.93,,
0,9,AirBox,2,10,acelink.edimax,17,19,100,臺中市立大秀國小,1,0,24.2791619288,27,2020-05-23T02:19:23Z,0,120.557328723,臺中市清水區五權路336號,2020-05-23,08BEAC0A013E,0,6.2,v1.06,0,02:19:23,AI-1003WN,BRR/30/16.5,,
,9,AirBox,2,6,,8,9,61,74DA38ED069C,1,,25.03725736,31.36,2020-05-23T02:16:19Z,,121.5004406,N/A,2020-05-23,74DA38ED069C,,13.96,,,02:16:19,,BRR/14/1.28,油香處,taipei
,9,AirBox,2,13,,18,19,94,THU_USR_41,1,,23.892,25.62,2020-05-23T02:18:01Z,,120.395,N/A,2020-05-23,74DA38F7C22C,,12.73,,,02:18:01,,LR/30/24.41,THUUSR-41興華國小,changhua
,9,AirBox,2,17,,22,24,100,74DA38AF4780,1,,24.154,26.62,2020-05-23T02:18:06Z,,120.694,N/A,2020-05-23,74DA38AF4780,,8.62,,,02:18:06,,BRR/30/5.37,台中市北區進化路372巷,taichuang
,9,AirBox,2,0,,0,0,100,74DA38AF4786,1,,25.008,24.87,2020-05-23T02:12:47Z,,121.212,N/A,2020-05-23,74DA38AF4786,,N/A,,,02:12:47,,N/A,Peihsi & Crius,taoyuan
,9,AirBox,2,12,,19,20,86,高雄市市立甲圍國小,1,,22.735,27.12,2020-05-23T02:13:12Z,,120.294,高雄市甲圍國小 高雄市橋頭區甲北里甲昌路250號,2020-05-23,74DA38F21046,,13.36,,,02:13:12,,LR/30/11.41,高雄市橋頭區甲圍國小,kaohsiung
,9,AirBox,2,17,,28,33,96,THU_USR_32,1,,23.959,25.75,2020-05-23T02:15:57Z,,120.378,N/A,2020-05-23,74DA38F7C220,,23.14,,,02:15:57,,LR/30/20.43,THUUSR-32 草湖國中,changhua
,9,AirBox,2,2,,3,3,67,74DA38AF478A,1,,22.982,28.75,2020-05-23T02:15:24Z,,120.222,N/A,2020-05-23,74DA38AF478A,,6.9,,,02:15:24,,BRR/14/2.0,Tuair,tainan
,9,AirBox,2,1,,2,1,79,74DA38ED0696,1,,25.03,27.12,2020-05-23T02:16:54Z,,121.529,N/A,2020-05-23,74DA38ED0696,,7.44,,,02:16:54,,BRR/14/2.8,永康街,taipei
0,9,AirBox,2,18,acelink.edimax,31,33,0,雲林縣縣立中和國小,1,0,23.79273355,-2,2020-05-23T02:16:27Z,0,120.3303068,雲林縣崙背鄉草湖村二鄰二號,2020-05-23,08BEAC0A0326,0,50.46,v1.06,0,02:16:27,AI-1003WN,Theil-Sen/21/23.63,,
,9,AirBox,2,8,,14,15,100,屏東縣縣立萬丹國小,1,,22.582,25,2020-05-23T02:17:10Z,,120.488,[913]屏東縣萬丹鄉寶厝村萬新路1497號,2020-05-23,74DA38F20A4A,,7.95,,,02:17:10,,Theil-Sen/30/10.13,萬丹國小空氣盒子,pingtung
0,9,AirBox,2,3,acelink.edimax,4,4,100,臺中市立水美國小,1,0,24.32643173,26.5,2020-05-23T02:16:31Z,0,120.6363685,臺中市外埔區水美里二崁路390巷63號,2020-05-23,08BEAC0A0138,0,4.73,v1.06,0,02:16:31,AI-1003WN,Theil-Sen/14/13.2,,
0,9,AirBox,2,12,acelink.edimax,19,24,95,臺中市立永隆國小,1,0,24.114893,27.6,2020-05-23T02:19:36Z,0,120.6761345,臺中市大里區永隆五街2號,2020-05-23,08BEAC0A0132,0,8.06,v1.06,0,02:19:36,AI-1003WN,BRR/30/5.44,,
0,9,AirBox,2,14,acelink.edimax,23,24,100,臺中市立立新國小,1,0,24.10539918,28.5,2020-05-23T02:16:38Z,0,120.6993297,臺中市大里區立新街338號,2020-05-23,08BEAC0A0130,0,9.12,v1.06,0,02:16:38,AI-1003WN,BRR/30/7.86,,
0,9,AirBox,2,5,acelink.edimax,8,9,80,臺中市立神圳國中,1,0,24.26117071,28,2020-05-23T02:19:11Z,0,120.6581744,臺中市神岡區神清路61號,2020-05-23,08BEAC0A0136,0,6.9,v1.06,0,02:19:11,AI-1003WN,Theil-Sen/14/8.48,,
,9,AirBox,2,16,,29,33,87,台南-2,1,,22.984,27.37,2020-05-23T02:16:06Z,,120.202,Tainan,2020-05-23,08BEAC0286C8,,16.42,,,02:16:06,,BRR/14/0.09,手動站:臺南站-2（6C8),tainan
,9,AirBox,2,16,,31,36,83,高雄市市立竹滬國小,1,,22.862,28,2020-05-23T02:12:42Z,,120.23,高雄市竹滬國小 高雄市路竹區竹滬里成功路2號,2020-05-23,74DA38F21040,,18.05,,,02:12:42,,BRR/14/13.92,ZfpAirdetect,kaohsiung
,9,AirBox,2,3,,4,5,67,08BEAC028C7A,1,,22.73355,27.37,2020-05-23T02:13:57Z,,120.285265,N/A,2020-05-23,08BEAC028C7A,,10.27,,,02:13:57,,LR/30/11.23,NUKAIR_1,kaohsiung
0,9,AirBox,2,13,acelink.edimax,24,26,92,臺南市市立月津國小,1,0,23.31570023,27.7,2020-05-23T02:15:00Z,0,120.2656777,臺南市鹽水區月津路16號,2020-05-23,08BEAC0A037E,0,N/A,v1.06,0,02:15:00,AI-1003WN,N/A,,
,9,AirBox,2,2,,3,3,71,74DA38EBF950,1,,25.007,27.12,2020-05-23T02:13:45Z,,121.536,N/A,2020-05-23,74DA38EBF950,,10.09,,,02:13:45,,BRR/14/5.22,1GIEE406NTNU,taipei
,9,AirBox,2,8,,10,12,91,74DA3895C4CE,1,,24.113,26.62,2020-05-23T02:15:51Z,,120.503,N/A,2020-05-23,74DA3895C4CE,,5.8,,,02:15:51,,LR/30/6.53,myPM2.5_CE,changhua
0,9,AirBox,2,13,acelink.edimax,26,32,100,雲林縣縣立東勢國中,1,0,23.673242,27.3,2020-05-23T02:16:50Z,0,120.2564741,雲林縣東勢鄉東榮路六五號,2020-05-23,08BEAC0A062E,0,15.22,v1.06,0,02:16:50,AI-1003WN,LR/14/22.94,,
0,9,AirBox,2,23,acelink.edimax,46,59,99,雲林縣縣立鎮西國小,1,0,23.7073903,27.2,2020-05-23T02:15:56Z,0,120.5384094,雲林縣斗六市中和里西平路三號,2020-05-23,08BEAC0A062C,0,78.82,v1.06,0,02:15:56,AI-1003WN,Theil-Sen/21/0.83,,
,9,AirBox,2,0,,1,1,100,74DA38F7015A,1,,25.037,24.62,2020-05-23T02:14:59Z,,121.57,N/A,2020-05-23,74DA38F7015A,,2.11,,,02:14:59,,BRR/14/6.34,TaipeiGarden,taipei
,9,AirBox,2,11,,18,18,100,屏東縣縣立玉田國小,1,,22.773,25,2020-05-23T02:18:18Z,,120.49,[905]屏東縣里港鄉玉田村八德路91號,2020-05-23,74DA38F210C6,,9.84,,,02:18:18,,Theil-Sen/30/11.11,屏東縣玉田國小,pingtung
,9,AirBox,2,14,,24,26,100,屏東縣縣立東光國小,1,,22.468,26.5,2020-05-23T02:17:16Z,,120.459,[928]屏東縣東港鎮興東里長春二路15號,2020-05-23,74DA38F210C4,,11.97,,,02:17:16,,Theil-Sen/30/23.0,DKES,pingtung
,9,AirBox,2,0,,0,0,100,74DA38B050CC,1,,23.992,28.61,2020-05-23T02:17:16Z,,120.451,N/A,2020-05-23,74DA38B050CC,,0,,,02:17:16,,LR/30/12.34,彰化埔鹽_湖仔內,changhua
,9,AirBox,2,7,,9,10,78,74DA38C7CF4C,1,,22.946,25,2020-05-23T02:14:55Z,,120.51,N/A,2020-05-23,74DA38C7CF4C,,8.84,,,02:14:55,,BRR/30/7.25,旗山五福的家,kaohsiung
,9,AirBox,2,10,,16,16,100,屏東縣縣立塔樓國小,1,,22.765,25.62,2020-05-23T02:14:53Z,,120.483,[905]屏東縣里港鄉塔樓村塔樓路21之3號,2020-05-23,74DA38F210C8,,8.61,,,02:14:53,,Theil-Sen/30/10.23,屏東縣塔樓國小,pingtung
,9,AirBox,2,2,,3,3,100,新北市汐止國小,1,,25.066,24.37,2020-05-23T02:17:08Z,,121.655,N/A,2020-05-23,74DA38F7C55C,,4.65,,,02:17:08,,LR/14/1.29,新北市汐止國小,new_taipei
,9,AirBox,2,0,,1,1,100,新北市插角國小,1,,24.872,23.5,2020-05-23T02:15:40Z,,121.405,N/A,2020-05-23,74DA38F7C314,,1.79,,,02:15:40,,LR/14/16.58,新北市插角國小-空氣盒子,new_taipei
,9,AirBox,2,0,,0,0,100,新北市建安國小,1,,25.062,24,2020-05-23T02:12:41Z,,121.451,N/A,2020-05-23,74DA38F7C316,,1.41,,,02:12:41,,LR/14/5.51,建安國小,new_taipei
,9,AirBox,2,2,,3,3,100,新北市崇德國小,1,,25.068,23.87,2020-05-23T02:15:05Z,,121.668,N/A,2020-05-23,74DA38F7C55E,,4.65,,,02:15:05,,LR/14/2.59,新北市崇德國小,new_taipei
,9,AirBox,2,0,,0,1,100,新北市新興國小,1,,25.179,23.12,2020-05-23T02:17:33Z,,121.44,N/A,2020-05-23,74DA38F7C312,,N/A,,,02:17:33,,N/A,新北市淡水區新興國小,new_taipei
,9,AirBox,2,19,,33,39,100,08BEAC028908,1,,24,25.62,2020-05-23T02:15:11Z,,120.598,N/A,2020-05-23,08BEAC028908,,26.67,,,02:15:11,,LR/30/9.31,大葉大學-設計學院,changhua
,9,AirBox,2,0,,0,0,100,台東縣縣立大南國小,1,,22.764,25.25,2020-05-23T02:13:33Z,,121.043,[954]臺東縣卑南鄉東興村東園一街40號,2020-05-23,74DA38F20CA6,,0.94,,,02:13:33,,BRR/14/11.06,臺東縣大南國民小學,taitung
,9,AirBox,2,3,,3,4,100,宜蘭-1,1,,25.0513065,23.87,2020-05-23T02:16:00Z,,121.5442898,Yilan,2020-05-23,08BEAC028CF6,,3.36,,,02:16:00,,BRR/14/3.7,手動站：宜蘭站-1（CF6）,taipei
,9,AirBox,2,0,,0,0,100,台東縣縣立武陵國小,1,,22.969,25.25,2020-05-23T02:14:56Z,,121.116,[953]臺東縣延平鄉武陵村一鄰明野路16號,2020-05-23,74DA38F20868,,0.94,,,02:14:56,,BRR/14/24.02,台東縣武陵國小,taitung
,9,AirBox,2,10,,14,16,100,74DA38ED0740,1,,25.038288,23.37,2020-05-23T02:14:14Z,,121.499352,N/A,2020-05-23,74DA38ED0740,,9.11,,,02:14:14,,BRR/14/1.26,後殿拜亭新,taipei
,9,AirBox,2,28,,46,60,93,08BEAC028A98,1,,22.973,26.25,2020-05-23T02:17:32Z,,120.225,N/A,2020-05-23,08BEAC028A98,,24.04,,,02:17:32,,BRR/14/2.63,Chongming14st,tainan
,9,AirBox,2,11,,16,17,74,08BEAC028A96,1,,24.991,26.12,2020-05-23T02:16:18Z,,121.307,N/A,2020-05-23,08BEAC028A96,,11.74,,,02:16:18,,BRR/30/0.55,南門市場文化街,taoyuan
,9,AirBox,2,115,,119,119,95,宜蘭-2,1,,25.04164998,24.62,2020-05-23T02:13:28Z,,121.5513948,Yilan,2020-05-23,08BEAC028CF8,,63.4,,,02:13:28,,BRR/14/4.41,手動站：宜蘭站-2（CF8）,taipei
,9,AirBox,2,1,,2,2,100,台東縣縣立初來國小,1,,23.117,27.25,2020-05-23T02:17:52Z,,121.169,[957]臺東縣海端鄉海端村七鄰5號,2020-05-23,74DA38F20864,,1.95,,,02:17:52,,BRR/14/40.26,台東縣初來國小,taitung
,9,AirBox,2,3,,5,6,100,市立忠孝國小,1,,25.043,23.37,2020-05-23T02:13:56Z,,121.53,臺北市中正區梅花里忠孝東路2段101號,2020-05-23,74DA38F7C5C4,,4.54,,,02:13:56,,BRR/14/2.25,臺北市中正區忠孝國小2018,taipei
,9,AirBox,2,0,,0,0,100,市立內湖國中,1,,25.076,23.62,2020-05-23T02:12:43Z,,121.588,臺北市內湖區紫陽里陽光街1號,2020-05-23,74DA38F7C5C0,,3.43,,,02:12:43,,LR/14/5.56,台北市內湖區內湖國中2018,taipei
,9,AirBox,2,14,,18,20,100,taichung133,1,,24.201,26,2020-05-23T02:16:55Z,,120.708,N/A,2020-05-23,74DA38C7D3C8,,13.77,,,02:16:55,,Theil-Sen/14/7.06,taichung133,taichuang
,9,AirBox,2,0,,1,1,100,74DA38EBF662,1,,23.947,24.75,2020-05-23T02:14:42Z,,120.981,N/A,2020-05-23,74DA38EBF662,,0.84,,,02:14:42,,BRR/30/30.29,慈恩社區,nantou
,9,AirBox,2,7,,9,9,100,74DA38EBF660,1,,25.093,24.12,2020-05-23T02:16:08Z,,121.517,N/A,2020-05-23,74DA38EBF660,,8.05,,,02:16:08,,BRR/14/1.39,北市陽明高中,taipei
,9,AirBox,2,2,,3,3,100,新北市汐止國中,1,,25.066,23.87,2020-05-23T02:17:29Z,,121.656,N/A,2020-05-23,74DA38F7C5CE,,4.65,,,02:17:29,,LR/14/1.39,汐止國中空氣盒子2,new_taipei
,9,AirBox,2,2,,3,3,100,74DA38C7D3CC,1,,24.789,25.12,2020-05-23T02:16:47Z,,120.998,N/A,2020-05-23,74DA38C7D3CC,,9.77,,,02:16:47,,BRR/14/3.2,交大六家校區-大門口,18
,9,AirBox,2,10,,13,13,85,74DA38EBF932,1,,24.151,27,2020-05-23T02:17:45Z,,120.658,N/A,2020-05-23,74DA38EBF932,,6.93,,,02:17:45,,BRR/30/1.72,華美西街一段_麻園頭溪旁向北盒子,taichuang
0,9,AirBox,2,7,acelink.edimax,10,11,100,臺中市立后綜高中,1,0,24.30660499,26.7,2020-05-23T02:17:38Z,0,120.7227666,臺中市后里區廣福里三豐路三段968號,2020-05-23,08BEAC0A000A,0,8.61,v1.06,0,02:17:38,AI-1003WN,Theil-Sen/14/5.88,,
,9,AirBox,2,8,,12,13,100,74DA38EBF66C,1,,22.665,28.11,2020-05-23T02:17:39Z,,120.305,N/A,2020-05-23,74DA38EBF66C,,6.6,,,02:17:39,,LR/30/4.0,采華天,tainan
,9,AirBox,2,4,,5,6,71,74DA38EBF938,1,,22.611,28.25,2020-05-23T02:15:25Z,,120.323,N/A,2020-05-23,74DA38EBF938,,9.84,,,02:15:25,,LR/30/4.31,Sam house,kaohsiung
,9,AirBox,2,1,,2,2,100,花蓮縣立溪口國小,1,,23.819,24.5,2020-05-23T02:16:48Z,,121.473,[974]花蓮縣壽豐鄉溪口村溪口路87號,2020-05-23,74DA38ED074E,,0,,,02:16:48,,BRR/14/21.28,花蓮縣溪口國小,hualien
,9,AirBox,2,0,,0,1,64,74DA38EBF7B8,1,,24.413,29.36,2020-05-23T02:14:57Z,,120.713,N/A,2020-05-23,74DA38EBF7B8,,6.15,,,02:14:57,,LR/14/5.72,苗栗縣蕉埔國小2,miaoli
,9,AirBox,2,18,,31,36,87,08BEAC028A9E,1,,25.107,23,2020-05-23T02:14:08Z,,121.843,N/A,2020-05-23,08BEAC028A9E,,N/A,,,02:14:08,,N/A,九份國小後走廊,new_taipei
,9,AirBox,2,12,,17,17,96,74DA38EBF7B4,1,,22.644,26.75,2020-05-23T02:15:29Z,,120.349,N/A,2020-05-23,74DA38EBF7B4,,10.03,,,02:15:29,,LR/30/6.38,JA-戶外東陽台,kaohsiung
,9,AirBox,2,9,,14,14,76,08BEAC028A9C,1,,22.63,28.25,2020-05-23T02:18:19Z,,120.329,N/A,2020-05-23,08BEAC028A9C,,13.18,,,02:18:19,,LR/30/4.21,Air2019,kaohsiung
,9,AirBox,2,2,,2,3,84,08BEAC028A9A,1,,24.99,26,2020-05-23T02:18:08Z,,121.552,N/A,2020-05-23,08BEAC028A9A,,6.46,,,02:18:08,,BRR/14/7.69,Fushan,taipei
,9,AirBox,2,0,,1,1,81,新北市北峰國小,1,,25.063,26.25,2020-05-23T02:13:34Z,,121.632,N/A,2020-05-23,74DA38F7C552,,3.84,,,02:13:34,,LR/14/1.13,新北市北峰國小,new_taipei
,9,AirBox,2,11,,15,15,92,新北市頭前國小,1,,25.053,24.75,2020-05-23T02:15:10Z,,121.465,N/A,2020-05-23,74DA38F7C556,,11.32,,,02:15:10,,BRR/14/4.39,新北市新莊區頭前國小,new_taipei
,9,AirBox,2,0,,1,2,100,新北市安溪國小,1,,24.93,23.62,2020-05-23T02:13:36Z,,121.372,N/A,2020-05-23,74DA38F7C31C,,0.2,,,02:13:36,,BRR/30/9.96,ases2,new_taipei
,9,AirBox,2,4,,5,5,100,新北市三重國小,1,,25.069,24,2020-05-23T02:12:25Z,,121.498,N/A,2020-05-23,74DA38F7C554,,4.34,,,02:12:25,,BRR/14/2.7,三重國小,new_taipei
,9,AirBox,2,10,,15,16,100,新北市新莊幼兒園,1,,25.046,22.87,2020-05-23T02:13:37Z,,121.451,N/A,2020-05-23,74DA38F7C558,,8.65,,,02:13:37,,LR/14/3.75,新北市立新莊幼兒園,new_taipei
,9,AirBox,2,4,,5,5,87,74DA38F6FFB6,1,,24.814,25.12,2020-05-23T02:16:08Z,,121.021,N/A,2020-05-23,74DA38F6FFB6,,13.18,,,02:16:08,,BRR/14/5.03,123,hsinchu_county
,9,AirBox,2,2,,3,4,100,屏東縣縣立大同高中附設國中,1,,22.677,25.75,2020-05-23T02:12:35Z,,120.477,[900]屏東縣屏東市和平路429號,2020-05-23,74DA38F20916,,2.42,,,02:12:35,,Theil-Sen/30/1.21,屏東縣立大同高中,pingtung
,9,AirBox,2,8,,9,9,100,74DA38B050C2,1,,24.786,25.12,2020-05-23T02:14:38Z,,121.021,N/A,2020-05-23,74DA38B050C2,,20,,,02:14:38,,BRR/14/5.4,內灣峴,taichuang
,9,AirBox,2,18,,23,24,100,74DA38C7CF40,1,,24.174,25.75,2020-05-23T02:13:44Z,,120.692,N/A,2020-05-23,74DA38C7CF40,,9.09,,,02:13:44,,BRR/30/5.72,HK1621,taichuang
,9,AirBox,2,20,,32,39,100,74DA38C7CF42,1,,22.994,27.12,2020-05-23T02:15:57Z,,120.216,N/A,2020-05-23,74DA38C7CF42,,15.49,,,02:15:57,,BRR/14/1.72,台南一中,tainan
0,9,AirBox,2,5,acelink.edimax,8,8,100,桃園市市立平興國中,1,0,24.94954935,24.8,2020-05-23T02:19:07Z,0,121.2059301,桃園市平鎮區環南路300號,2020-05-23,08BEAC0A083C,0,N/A,v1.06,0,02:19:07,AI-1003WN,N/A,,
0,9,AirBox,2,11,acelink.edimax,16,18,100,臺中市立神岡國中,1,0,24.246821,27.1,2020-05-23T02:14:59Z,0,120.6817174,臺中市神岡區中山路627號,2020-05-23,08BEAC0A0006,0,12.49,v1.06,0,02:14:59,AI-1003WN,Theil-Sen/14/6.18,,
0,9,AirBox,2,1,acelink.edimax,3,3,100,桃園市市立樹林國小,1,0,25.06249274,24.8,2020-05-23T02:18:13Z,0,121.1281284,桃園市觀音區樹林里新里路二段12號,2020-05-23,08BEAC0A083A,0,N/A,v1.06,0,02:18:13,AI-1003WN,N/A,,
0,9,AirBox,2,2,acelink.edimax,2,3,100,桃園市市立五權國小,1,0,25.02365606,25.1,2020-05-23T02:17:39Z,0,121.231099,桃園市大園區中正東路二段539號,2020-05-23,08BEAC0A07B0,0,0.84,v1.06,0,02:17:39,AI-1003WN,BRR/30/8.03,,
0,9,AirBox,2,1,acelink.edimax,2,2,100,桃園市市立育仁國小,1,0,25.01338108,24.8,2020-05-23T02:19:44Z,0,121.1027692,桃園市觀音區坑尾里四鄰23之1號,2020-05-23,08BEAC0A07B6,0,N/A,v1.06,0,02:19:44,AI-1003WN,N/A,,
0,9,AirBox,2,2,acelink.edimax,4,4,100,桃園市市立草漯國小,1,0,25.0471238732,24.6,2020-05-23T02:15:10Z,0,121.144432761,桃園市觀音區草漯里新生路1462號,2020-05-23,08BEAC0A083E,0,N/A,v1.06,0,02:15:10,AI-1003WN,N/A,,
,9,AirBox,2,3,,4,4,74,08BEAC028D68,1,,24.7039393,27.25,2020-05-23T02:14:53Z,,120.9108392,N/A,2020-05-23,08BEAC028D68,,11.03,,,02:14:53,,BRR/14/12.89,68,miaoli
0,9,AirBox,2,15,acelink.edimax,24,25,92,臺中市立臺中二中,1,0,24.15245247,27.3,2020-05-23T02:14:55Z,0,120.6744892,臺中市英士路109號,2020-05-23,08BEAC0A0004,0,11.01,v1.06,0,02:14:55,AI-1003WN,BRR/30/3.39,,
,9,AirBox,2,3,,5,5,76,74DA38F7025A,1,,24.19,27,2020-05-23T02:14:11Z,,120.609,N/A,2020-05-23,74DA38F7025A,,4.65,,,02:14:11,,BRR/30/5.34,台中市西屯區莫內花園,taichuang
,9,AirBox,2,17,,32,36,100,74DA38F7025C,1,,23.184,27.37,2020-05-23T02:13:32Z,,120.36,N/A,2020-05-23,74DA38F7025C,,N/A,,,02:13:32,,N/A,官田社子倉庫,NA
,9,AirBox,2,14,,22,25,81,74DA38F7025E,1,,23.757,27.37,2020-05-23T02:15:43Z,,120.323,N/A,2020-05-23,74DA38F7025E,,39.79,,,02:15:43,,Theil-Sen/21/23.15,myPM2.5_5E,yunlin
,9,AirBox,2,15,,19,20,100,74DA38EBF804,1,,25.072,23.75,2020-05-23T02:13:53Z,,121.49,N/A,2020-05-23,74DA38EBF804,,11.53,,,02:13:53,,BRR/14/3.36,大智街179巷,new_taipei
,9,AirBox,2,6,,8,8,74,74DA38EBF808,1,,24.073,28.11,2020-05-23T02:13:38Z,,120.543,N/A,2020-05-23,74DA38EBF808,,13.29,,,02:13:38,,LR/30/0.79,V307,changhua
,9,AirBox,2,4,,7,7,77,74DA38E69D3E,1,,23.672,27.37,2020-05-23T02:18:00Z,,120.538,N/A,2020-05-23,74DA38E69D3E,,15.38,,,02:18:00,,Theil-Sen/21/4.49,SkyAirBox-01,yunlin
,9,AirBox,2,4,,5,6,100,74DA38E69EA0,1,,24.176,26.75,2020-05-23T02:15:25Z,,120.62,N/A,2020-05-23,74DA38E69EA0,,0.39,,,02:15:25,,BRR/30/3.42,yucoann,taichuang
,9,AirBox,2,1,,1,1,73,74DA38AF48D0,1,,22.666,29.36,2020-05-23T02:17:47Z,,120.315,N/A,2020-05-23,74DA38AF48D0,,7.37,,,02:17:47,,LR/30/4.63,鼎祥街室內,kaohsiung
,9,AirBox,2,23,,27,29,100,74DA38AF48D2,1,,25.013,24.37,2020-05-23T02:12:48Z,,121.552,N/A,2020-05-23,74DA38AF48D2,,15.4,,,02:12:48,,BRR/14/5.79,第二殯儀館,taipei
,9,AirBox,2,0,,0,0,88,08BEAC028DCA,1,,23.295,29,2020-05-23T02:15:37Z,,121.27,N/A,2020-05-23,08BEAC028DCA,,0.87,,,02:15:37,,BRR/14/61.24,iTribe卓樂部落,hualien
,9,AirBox,2,10,,12,13,80,08BEAC028DCC,1,,24.206,28.61,2020-05-23T02:17:07Z,,120.654,N/A,2020-05-23,08BEAC028DCC,,7.34,,,02:17:07,,BRR/30/6.15,總茂環保3,taichuang
,9,AirBox,2,11,,14,14,100,74DA38F6FF96,1,,25.035,24.25,2020-05-23T02:14:48Z,,121.521,N/A,2020-05-23,74DA38F6FF96,,8.83,,,02:14:48,,BRR/14/1.83,Test,taichuang
,9,AirBox,2,2,,3,4,89,08BEAC0AB6BA,1,,24.28454,24.75,2020-05-23T02:16:08Z,,120.6658533,N/A,2020-05-23,08BEAC0AB6BA,,3.84,,,02:16:08,,Theil-Sen/14/8.29,豐洲堤防（內）,taichuang
,9,AirBox,2,1,,1,1,100,市立武功國小,1,,25.003,23.62,2020-05-23T01:03:02Z,,121.539,臺北市文山區萬祥里興隆路1段68號,2020-05-23,74DA38F7C3DC,,2.49,,,01:03:02,,BRR/14/5.76,台北市文山區武功國小2018,taipei
,9,AirBox,2,0,,0,0,78,08BEAC028DC6,1,,23.71,29,2020-05-23T02:15:54Z,,121.414,N/A,2020-05-23,08BEAC028DC6,,0,,,02:15:54,,BRR/14/34.66,iTribe馬里巴西部落,hualien
,9,AirBox,2,0,,0,0,100,08BEAC028DC8,1,,22.757,24,2020-05-23T02:15:37Z,,120.753,N/A,2020-05-23,08BEAC028DC8,,3.51,,,02:15:37,,BRR/30/26.79,iTribe大武部落,pingtung
,9,AirBox,2,0,,5,0,100,74DA388FF404,1,,24.768,23.5,2020-05-23T02:16:35Z,,121.027,N/A,2020-05-23,74DA388FF404,,13.53,,,02:16:35,,BRR/14/6.95,coretrconicc,hsinchu_city
,9,AirBox,2,16,,24,31,100,嘉義市立宣信國小,1,,23.47,26.5,2020-05-23T01:20:09Z,,120.459,[600]嘉義市東區宣信街266號,2020-05-23,74DA38C7CEB4,,17.23,,,01:20:09,,BRR/30/2.02,嘉義市宣信國小,chiayi_city
,9,AirBox,2,1,,2,2,84,taichung45,1,,25.041,26.75,2020-05-23T02:14:14Z,,121.615,N/A,2020-05-23,74DA3895C294,,4.24,,,02:14:14,,LR/14/4.0,ASChem3,taipei
,9,AirBox,2,2,,3,4,97,08BEAC0287A4,1,,24.03887415,26.37,2020-05-23T02:15:55Z,,120.3847512,N/A,2020-05-23,08BEAC0287A4,,0,,,02:15:55,,LR/30/16.2,AB_SLfarm,changhua
,9,AirBox,2,9,,12,13,97,74DA38B05344,1,,24.138,26.62,2020-05-23T02:12:58Z,,120.704,N/A,2020-05-23,74DA38B05344,,4.31,,,02:12:58,,BRR/30/6.57,cht32,new_taipei
,9,AirBox,2,17,,25,28,100,嘉義市立垂楊國小,1,,23.472,26.12,2020-05-23T01:29:31Z,,120.438,[600]嘉義市西區垂楊路605號,2020-05-23,74DA38C7CEB8,,18,,,01:29:31,,BRR/30/1.07,嘉義市垂楊國小,chiayi_city
,9,AirBox,2,2,,3,3,70,74DA38EBF80C,1,,24.825,27.5,2020-05-23T02:16:19Z,,121.01,N/A,2020-05-23,74DA38EBF80C,,9.27,,,02:16:19,,BRR/14/4.39,Seal’s,hsinchu_county
,9,AirBox,2,1,,2,2,99,74DA38EBF80E,1,,24.777,26,2020-05-23T02:17:50Z,,121.013,N/A,2020-05-23,74DA38EBF80E,,7.88,,,02:17:50,,BRR/14/5.21,寶可夢,hsinchu_city
,9,AirBox,2,17,,22,23,100,74DA38E69D32,1,,24.164,25.62,2020-05-23T02:13:33Z,,120.679,N/A,2020-05-23,74DA38E69D32,,8.61,,,02:13:33,,BRR/30/4.07,園道臻觀,taichuang
0,9,AirBox,2,3,acelink.edimax,4,5,100,桃園市市立內海國小,1,0,25.08650158,25.6,2020-05-23T02:16:47Z,0,121.1908989,桃園市大園區內海里2鄰學府路76巷32號,2020-05-23,08BEAC0A07BC,0,N/A,v1.06,0,02:16:47,AI-1003WN,N/A,,
0,9,AirBox,2,23,acelink.edimax,44,57,100,嘉義縣縣立古民國小,1,0,23.56209603,28.8,2020-05-23T02:17:54Z,0,120.3492351,嘉義縣新港鄉古民村161號,2020-05-23,08BEAC0A0832,0,30.36,v1.06,0,02:17:54,AI-1003WN,BRR/30/14.46,,
0,9,AirBox,2,11,acelink.edimax,27,29,100,臺南市市立那拔國小,1,0,23.06836078,28.1,2020-05-23T02:17:11Z,0,120.3496119,臺南市新化區那拔里54號,2020-05-23,08BEAC0A07BA,0,12.77,v1.06,0,02:17:11,AI-1003WN,BRR/14/17.69,,
0,9,AirBox,2,20,acelink.edimax,37,44,98,臺南市市立仁德國中,1,0,22.9561933732,27.5,2020-05-23T02:19:25Z,0,120.247528553,臺南市仁德區民安路一段363號,2020-05-23,08BEAC0A0830,0,18.3,v1.06,0,02:19:25,AI-1003WN,BRR/14/5.58,,
0,9,AirBox,2,21,acelink.edimax,42,55,95,臺南市市立仁德文賢國中,1,0,22.92256458,28.5,2020-05-23T02:16:04Z,0,120.235155,臺南市仁德區保安里中正路一段185號,2020-05-23,08BEAC0A0836,0,21.18,v1.06,0,02:16:04,AI-1003WN,BRR/14/7.66,,
0,9,AirBox,2,14,acelink.edimax,26,27,100,臺南市市立後營國小,1,0,23.1406702,28.7,2020-05-23T02:15:27Z,0,120.2149521,臺南市西港區營西里3號,2020-05-23,08BEAC0A07BE,0,12.14,v1.06,0,02:15:27,AI-1003WN,BRR/14/17.4,,
0,9,AirBox,2,16,acelink.edimax,28,31,100,臺南市市立山上國小,1,0,23.1006689,27.6,2020-05-23T02:18:11Z,0,120.3550727,臺南市山上區南洲里42號,2020-05-23,08BEAC0A0834,0,13.38,v1.06,0,02:18:11,AI-1003WN,BRR/14/20.25,,
0,9,AirBox,2,12,acelink.edimax,29,36,100,臺南市市立關廟國中,1,0,22.96140696,28.7,2020-05-23T02:14:38Z,0,120.3243413,臺南市關廟區中山路二段172號,2020-05-23,08BEAC0A0838,0,13.65,v1.06,0,02:14:38,AI-1003WN,BRR/14/12.73,,
,9,AirBox,2,10,,12,12,100,74DA38F6FE6A,1,,24.082,27.12,2020-05-23T02:16:16Z,,120.54,N/A,2020-05-23,74DA38F6FE6A,,3.7,,,02:16:16,,LR/30/1.79,joygold,changhua
,9,AirBox,2,84,,84,84,100,苗栗縣縣立三灣國中,1,,24.649,24.12,2020-05-23T02:13:06Z,,120.953,[352]苗栗縣三灣鄉三灣村忠信路17號,2020-05-23,74DA38F20D48,,46.41,,,02:13:06,,LR/14/16.34,苗栗縣立三灣國民中學,miaoli
,9,AirBox,2,2,,2,3,88,74DA38E69C48,1,,25.038,23.62,2020-05-23T02:15:06Z,,121.536,N/A,2020-05-23,74DA38E69C48,,6.15,,,02:15:06,,BRR/14/2.98,TP Air,taipei
,9,AirBox,2,6,,8,8,100,苗栗縣縣立信義國小,1,,24.697,24.75,2020-05-23T02:14:10Z,,120.891,[351]苗栗縣頭份市後庄里信中路36號,2020-05-23,74DA38F20A04,,18.38,,,02:14:10,,BRR/14/14.59,苗栗縣信義國小,miaoli
,9,AirBox,2,5,,7,8,100,新竹市立竹光國中,1,,24.807,25.12,2020-05-23T02:17:49Z,,120.955,[300]新竹市北區和平路1號,2020-05-23,74DA38B053F8,,16.59,,,02:17:49,,BRR/14/1.73,新竹市竹光國中,hsinchu_city
,9,AirBox,2,5,,8,8,100,新北市桃子腳國中,1,,24.949,24,2020-05-23T02:16:10Z,,121.382,N/A,2020-05-23,74DA38F7C30E,,4.11,,,02:16:10,,BRR/30/9.37,新北市立桃子腳國中小,new_taipei
0,9,AirBox,2,9,acelink.edimax,13,13,100,臺中市立順天國中,1,0,24.35006086,27.7,2020-05-23T02:15:17Z,0,120.6152084,臺中巿大甲區大安港路67號,2020-05-23,08BEAC09FF98,0,1.98,v1.06,0,02:15:17,AI-1003WN,LR/14/15.0,,
0,9,AirBox,2,12,acelink.edimax,25,25,92,臺中市立臺中啟明學校,1,0,24.30478166,26,2020-05-23T02:15:43Z,0,120.7232066,臺中市后里區廣福里三豐路三段936號,2020-05-23,08BEAC09FF14,0,18.13,v1.06,0,02:15:43,AI-1003WN,Theil-Sen/14/5.68,,
0,9,AirBox,2,17,acelink.edimax,25,35,100,臺中市立僑忠國小,1,0,24.20236354,26.2,2020-05-23T02:14:48Z,0,120.7032586,臺中市潭子區中山路二段31號,2020-05-23,08BEAC09FF16,0,18.3,v1.06,0,02:14:48,AI-1003WN,Theil-Sen/14/7.18,,
0,9,AirBox,2,7,acelink.edimax,9,10,87,臺中市立清水高中,1,0,24.2652284727,27,2020-05-23T02:16:04Z,0,120.574407019,臺中市清水區中山路90號,2020-05-23,08BEAC09FF10,0,4.64,v1.06,0,02:16:04,AI-1003WN,BRR/30/14.3,,
0,9,AirBox,2,5,acelink.edimax,7,7,90,臺中市立豐原高中,1,0,24.25719528,25.8,2020-05-23T02:16:44Z,0,120.7418095,臺中市豐原區水源路150號,2020-05-23,08BEAC09FF12,0,6.45,v1.06,0,02:16:44,AI-1003WN,Theil-Sen/14/0.07,,
,9,AirBox,2,1,,2,2,92,台東縣縣立初鹿國中,1,,22.85,26,2020-05-23T02:14:06Z,,121.092,[954]臺東縣卑南鄉明峰村忠孝路2號,2020-05-23,74DA38F2116A,,1.9,,,02:14:06,,BRR/14/12.11,臺東縣立初鹿國民中學,new_taipei
0,9,AirBox,2,21,acelink.edimax,35,48,100,嘉義縣縣立同仁國小,1,0,23.40327855,26.8,2020-05-23T02:15:13Z,0,120.5122117,嘉義縣中埔鄉同仁村24號,2020-05-23,08BEAC0A05A8,0,24.65,v1.06,0,02:15:13,AI-1003WN,BRR/30/9.84,,
0,9,AirBox,2,3,acelink.edimax,4,5,100,臺中市立豐原高商,1,0,24.24657,25.7,2020-05-23T02:14:17Z,0,120.7145,臺中市豐原區圓環南路50號,2020-05-23,08BEAC09FF18,0,4.73,v1.06,0,02:14:17,AI-1003WN,Theil-Sen/14/2.98,,
,9,AirBox,2,2,,2,2,79,74DA38E69E08,1,,25.023,28.11,2020-05-23T02:16:55Z,,121.502,N/A,2020-05-23,74DA38E69E08,,7.13,,,02:16:55,,BRR/14/2.68,kevin home,taipei
,9,AirBox,2,0,,0,0,98,74DA38E69E00,1,,23.968,25.87,2020-05-23T02:18:11Z,,120.981,N/A,2020-05-23,74DA38E69E00,,0.57,,,02:18:11,,BRR/30/30.67,晚上別在偷燒垃圾了,new_taipei
,9,AirBox,2,1,,3,4,100,高雄市市立福康國小,1,,22.617,25.62,2020-05-23T02:16:27Z,,120.329,高雄市福康國小 高雄市苓雅區漢陽街17號,2020-05-23,74DA38F20F2E,,2.1,,,02:16:27,,LR/30/4.54,福康國小,kaohsiung
,9,AirBox,2,0,,0,0,100,74DA38E69E04,1,,24.543,25,2020-05-23T02:14:57Z,,120.812,N/A,2020-05-23,74DA38E69E04,,0,,,02:14:57,,LR/14/2.61,TBS_影山樓,miaoli
,9,AirBox,2,7,,11,12,100,高雄市市立六龜國小,1,,22.996,24.75,2020-05-23T02:16:24Z,,120.634,高雄市六龜國小 高雄市六龜區義寶里光復路40號,2020-05-23,74DA38F20F28,,10.02,,,02:16:24,,BRR/30/16.39,admin,kaohsiung
,9,AirBox,2,0,,1,1,99,新北市深坑國中,1,,25.001,23.75,2020-05-23T02:04:25Z,,121.618,N/A,2020-05-23,74DA38F7C2FA,,3.84,,,02:04:25,,LR/14/7.75,深坑國中,new_taipei
,9,AirBox,2,7,,11,12,100,高雄市市立中山國小,1,,22.656,25.5,2020-05-23T02:17:28Z,,120.288,高雄市中山國小 高雄市鼓山區美術東二路252號,2020-05-23,74DA38F20F20,,6.1,,,02:17:28,,LR/30/2.61,鼓山區中山國小,kaohsiung
,9,AirBox,2,21,,34,41,100,74DA38E69E0A,1,,22.985,26.87,2020-05-23T02:12:30Z,,120.243,N/A,2020-05-23,74DA38E69E0A,,16.55,,,02:12:30,,BRR/14/4.13,棕櫚泉 戶外 1F,tainan
,9,AirBox,2,16,,27,30,100,高雄市市立華山國小,1,,22.567,25.62,2020-05-23T02:16:02Z,,120.365,高雄市華山國小 高雄市小港區華仁街1號,2020-05-23,74DA38F20F26,,14.11,,,02:16:02,,LR/30/10.75,高雄市華山國小,kaohsiung
0,9,AirBox,2,1,acelink.edimax,2,2,87,臺中市立東新國中,1,0,24.26335737,26.6,2020-05-23T02:15:03Z,0,120.829858,臺中市東勢區東新里東環街123號,2020-05-23,08BEAC09FF1E,0,3.16,v1.06,0,02:15:03,AI-1003WN,Theil-Sen/14/8.97,,
0,9,AirBox,2,6,acelink.edimax,8,8,100,桃園市市立中正國小,1,0,24.96187166,25,2020-05-23T02:17:27Z,0,121.26277,桃園市中壢區榮民路329號,2020-05-23,08BEAC09FF1A,0,4.17,v1.06,0,02:17:27,AI-1003WN,BRR/30/5.61,,
0,9,AirBox,2,19,acelink.edimax,34,40,91,雲林縣縣立安慶國小,1,0,23.7029334,28.5,2020-05-23T02:14:40Z,0,120.4333605,雲林縣虎尾鎮民主路卅六號,2020-05-23,08BEAC09FF1C,0,59.47,v1.06,0,02:14:40,AI-1003WN,Theil-Sen/21/11.41,,
,9,AirBox,2,10,,13,13,83,74DA38E69AE2,1,,25.06,25.87,2020-05-23T02:17:09Z,,121.498,N/A,2020-05-23,74DA38E69AE2,,12.36,,,02:17:09,,BRR/14/1.81,SC-GS outdoor,new_taipei
0,9,AirBox,2,17,acelink.edimax,34,39,100,臺南市市立仁和國小,1,0,22.96043287,28.3,2020-05-23T02:18:30Z,0,120.2220441,臺南市仁德區仁愛里保仁路68號,2020-05-23,08BEAC0A03C2,0,16.25,v1.06,0,02:18:30,AI-1003WN,BRR/14/3.34,,
,9,AirBox,2,1,,2,2,86,74DA38E2B6AC,1,,24.192,24.87,2020-05-23T02:17:16Z,,120.812,N/A,2020-05-23,74DA38E2B6AC,,3.14,,,02:17:16,,Theil-Sen/14/10.12,新社新五村,taichuang
,9,AirBox,2,7,,11,11,75,高雄市市立誠正國小,1,,22.616,29,2020-05-23T02:13:03Z,,120.364,高雄市誠正國小 高雄市鳳山區黃埔新村國校巷78號,2020-05-23,74DA38F21154,,11.91,,,02:13:03,,LR/30/8.01,誠正國小2,kaohsiung
,9,AirBox,2,0,,0,0,96,高雄市市立田寮國中,1,,22.862,25.62,2020-05-23T02:16:32Z,,120.36,高雄市立田寮國民中學 高雄市田寮區南安里崗安路48號,2020-05-23,74DA38F21156,,3.51,,,02:16:32,,BRR/30/17.64,田寮國中,kaohsiung
,9,AirBox,2,5,,6,7,87,74DA38E69C4C,1,,24.994,25.25,2020-05-23T02:06:23Z,,121.495,N/A,2020-05-23,74DA38E69C4C,,4.69,,,02:06:23,,LR/14/4.23,Kanahei,new_taipei
,9,AirBox,2,3,,5,6,100,高雄市市立寶來國中,1,,23.109,23.75,2020-05-23T02:13:12Z,,120.703,高雄市立寶來國民中學 高雄市六龜區寶來里中正路137號,2020-05-23,74DA38F21150,,6.47,,,02:13:12,,BRR/30/30.66,寶來國中,NA
,9,AirBox,2,2,,4,4,100,新竹縣縣立中正國小,1,,24.815,25.12,2020-05-23T02:12:33Z,,121.023,[302]新竹縣竹北市竹北村中山路190號,2020-05-23,74DA38F20D4E,,11.48,,,02:12:33,,BRR/14/5.24,新竹縣竹北市中正國民小學,hsinchu_county
,9,AirBox,2,12,,15,15,100,74DA38E2B830,1,,24.364,25.25,2020-05-23T02:16:02Z,,120.636,N/A,2020-05-23,74DA38E2B830,,4.31,,,02:16:02,,LR/14/12.62,GPM,taichuang
,9,AirBox,2,3,,4,4,100,新竹縣縣立竹北國小,1,,24.838,25.37,2020-05-23T02:15:58Z,,121.002,[302]新竹縣竹北市中央路98號,2020-05-23,74DA38F20D4A,,11.43,,,02:15:58,,BRR/14/4.7,新竹縣竹北國小,hsinchu_county
0,9,AirBox,2,5,acelink.edimax,6,6,100,桃園市楊梅高中,1,0,24.92166732,24.5,2020-05-23T02:15:34Z,0,121.1487916,桃園市楊梅區高獅路5號,2020-05-23,08BEAC09FF6E,0,N/A,v1.06,0,02:15:34,AI-1003WN,N/A,,
,9,AirBox,2,11,,13,14,75,74DA38AF4934,1,,22.648,29.5,2020-05-23T02:13:16Z,,120.321,N/A,2020-05-23,74DA38AF4934,,12.91,,,02:13:16,,LR/30/3.79,建工路室內,kaohsiung
,9,AirBox,2,3,,4,5,100,苗栗縣縣立建功國小,1,,24.564,24.5,2020-05-23T02:12:45Z,,120.824,[360]苗栗縣苗栗市中正路241號,2020-05-23,74DA38F207E8,,1.18,,,02:12:45,,LR/14/0.41,苗栗縣建功國小,miaoli
0,9,AirBox,2,14,acelink.edimax,27,32,100,臺南市市立中山國中,1,0,22.983984,28,2020-05-23T02:17:59Z,0,120.202863,臺南市中西區南寧街45號,2020-05-23,08BEAC0A06F8,0,12.79,v1.06,0,02:17:59,AI-1003WN,BRR/14/0.07,,
0,9,AirBox,2,12,acelink.edimax,20,21,92,臺中市立育英國中,1,0,24.13585153,28,2020-05-23T02:15:23Z,0,120.698321,臺中市東區育英路30號,2020-05-23,08BEAC0A0058,0,9.08,v1.06,0,02:15:23,AI-1003WN,BRR/30/6.08,,
0,9,AirBox,2,14,acelink.edimax,28,33,100,臺南市市立南安國小,1,0,23.09862412,28.5,2020-05-23T02:14:43Z,0,120.2249268,臺南市安定區南安里62號,2020-05-23,08BEAC0A06F2,0,13.19,v1.06,0,02:14:43,AI-1003WN,BRR/14/12.88,,
,9,AirBox,2,2,,3,3,100,苗栗縣縣立興隆國小,1,,24.462,23.37,2020-05-23T02:15:41Z,,120.811,[366]苗栗縣銅鑼鄉興隆村117號,2020-05-23,74DA38F207E0,,0.16,,,02:15:41,,LR/14/10.26,苗栗縣興隆國小,miaoli
0,9,AirBox,2,5,acelink.edimax,8,9,100,桃園市市立社子國小,1,0,24.95676308,25.2,2020-05-23T02:15:34Z,0,121.0818217,桃園市新屋區社子里社福路235號,2020-05-23,08BEAC0A06F0,0,N/A,v1.06,0,02:15:34,AI-1003WN,N/A,,
,9,AirBox,2,1,,2,2,100,苗栗縣縣立銅鑼國小,1,,24.49,23.62,2020-05-23T02:16:03Z,,120.791,[366]苗栗縣銅鑼鄉福興村文化街1號,2020-05-23,74DA38F207E2,,0,,,02:16:03,,LR/14/8.88,苗栗縣銅鑼國小,miaoli
,9,AirBox,2,1,,1,2,100,74DA38AF4938,1,,25.015,25.12,2020-05-23T02:16:37Z,,121.541,N/A,2020-05-23,74DA38AF4938,,1.95,,,02:16:37,,BRR/14/4.83,Greenhouse,taipei
0,9,AirBox,2,1,acelink.edimax,1,1,98,臺中市立梨山國中小,1,0,24.2552694,18.3,2020-05-23T02:18:39Z,0,121.2591337,臺中市和平區梨山里福壽路10號,2020-05-23,08BEAC0A0050,0,0,v1.06,0,02:18:39,AI-1003WN,BRR/14/46.82,,
0,9,AirBox,2,11,acelink.edimax,16,16,84,臺中市立長億國小,1,0,24.11301006,27.8,2020-05-23T02:14:37Z,0,120.7216618,臺中市太平區太平三街295號,2020-05-23,08BEAC0A0052,0,8.56,v1.06,0,02:14:37,AI-1003WN,BRR/30/9.25,,
0,9,AirBox,2,18,acelink.edimax,35,43,100,臺南市市立石門國小,1,0,22.999735,28.7,2020-05-23T02:16:27Z,0,120.1662995,臺南市安平區石門里安平路700號,2020-05-23,08BEAC0A0582,0,16.66,v1.06,0,02:16:27,AI-1003WN,BRR/14/4.08,,
,9,AirBox,2,9,,14,14,95,屏東縣縣立新南國小,1,,22.785,25.5,2020-05-23T02:17:27Z,,120.559,[906]屏東縣高樹鄉新南村興店路5號,2020-05-23,74DA38F20A5A,,11.8,,,02:17:27,,BRR/30/11.34,新南國小,pingtung
0,9,AirBox,2,20,acelink.edimax,36,48,89,嘉義縣縣立北美國小,1,0,23.55837,28.3,2020-05-23T02:18:54Z,0,120.303548,嘉義縣六腳鄉崙陽村122號,2020-05-23,08BEAC0A0580,0,20.55,v1.06,0,02:18:54,AI-1003WN,LR/14/11.63,,
0,9,AirBox,2,0,acelink.edimax,1,1,92,嘉義縣縣立山美國小,1,0,23.38348058,26,2020-05-23T02:15:01Z,0,120.6679781,嘉義縣阿里山鄉山美村61號,2020-05-23,08BEAC0A0586,0,2.58,v1.06,0,02:15:01,AI-1003WN,BRR/30/24.8,,
0,9,AirBox,2,1,acelink.edimax,3,3,100,嘉義縣縣立瑞峰國小,1,0,23.5564525,23.1,2020-05-23T02:17:00Z,0,120.6690138,嘉義縣梅山鄉瑞峰村生毛樹19號之1,2020-05-23,08BEAC0A0584,0,8.3,v1.06,0,02:17:00,AI-1003WN,Theil-Sen/21/21.41,,
,9,AirBox,2,1,,2,2,69,新北市新埔國小,1,,25.013,19.75,2020-05-23T02:12:49Z,,121.468,N/A,2020-05-23,74DA38F7C424,,1.44,,,02:12:49,,LR/14/0.94,新埔國小主機房,new_taipei
0,9,AirBox,2,3,acelink.edimax,4,5,100,桃園市市立瑞原國小,1,0,24.92634726,25.6,2020-05-23T02:14:24Z,0,121.1042741,桃園市楊梅區民安路1號,2020-05-23,08BEAC0A0588,0,N/A,v1.06,0,02:14:24,AI-1003WN,N/A,,
,9,AirBox,2,8,,10,11,94,74DA38C7CFB6,1,,25.041,24.37,2020-05-23T02:12:55Z,,121.506,N/A,2020-05-23,74DA38C7CFB6,,8.37,,,02:12:55,,BRR/14/0.64,THEKitchengarden花園廚房,taipei
,9,AirBox,2,26,,40,48,100,高雄市市立鎮昌國小,1,,22.59,27.12,2020-05-23T02:15:25Z,,120.317,高雄市鎮昌國小 高雄市前鎮區樹人路261號,2020-05-23,74DA38F20DE2,,20.62,,,02:15:25,,LR/30/5.59,鎮昌國小,new_taipei
,9,AirBox,2,14,,20,20,100,高雄市市立瑞祥國小,1,,22.589,26.37,2020-05-23T02:17:02Z,,120.328,高雄市瑞祥國小 高雄市前鎮區班超路20號,2020-05-23,74DA38F20DE0,,10.61,,,02:17:02,,LR/30/6.34,高市瑞祥國小(2018),kaohsiung
,9,AirBox,2,20,,29,31,100,高雄市市立灣內國小,1,,22.683,25.5,2020-05-23T02:16:43Z,,120.357,高雄市灣內國小 高雄市仁武區仁心路31號,2020-05-23,74DA38F20DE6,,15.11,,,02:16:43,,LR/30/9.03,灣內國小1071115,kaohsiung
,9,AirBox,2,16,,30,32,100,高雄市市立東門國小,1,,22.899,25,2020-05-23T02:13:06Z,,120.553,高雄市東門國小 高雄市美濃區民族路36巷2號,2020-05-23,74DA38F20DE8,,21.26,,,02:13:06,,BRR/30/2.87,高雄市美濃區東門國小01,kaohsiung
,9,AirBox,2,12,,20,26,100,嘉義縣立雙溪國小,1,,23.484,26.5,2020-05-23T02:15:28Z,,120.277,[613]嘉義縣朴子市雙溪里30號,2020-05-23,74DA38E2B54A,,12.02,,,02:15:28,,LR/14/3.52,雙溪國民小學,chiayi_county
0,9,AirBox,2,12,acelink.edimax,17,18,94,臺中市立新興國小,1,0,24.19464026,26.5,2020-05-23T02:16:50Z,0,120.6623838,臺中市北屯區新興路20號,2020-05-23,08BEAC0A0450,0,7.26,v1.06,0,02:16:50,AI-1003WN,BRR/30/5.21,,
0,9,AirBox,2,3,acelink.edimax,4,5,100,桃園市市立仁和國小,1,0,24.89731537,24.7,2020-05-23T02:16:28Z,0,121.2771801,桃園市大溪區仁和二街50號,2020-05-23,08BEAC0A0452,0,N/A,v1.06,0,02:16:28,AI-1003WN,N/A,,
,9,AirBox,2,8,,11,12,100,新北市新埔國中,1,,25.023,23.75,2020-05-23T02:14:30Z,,121.458,N/A,2020-05-23,74DA38F7C4F2,,6.85,,,02:14:30,,LR/14/1.12,新北市新埔國中,new_taipei
,9,AirBox,2,2,,3,3,94,台東縣縣立公館國小,1,,22.674,29.25,2020-05-23T02:16:42Z,,121.493,[951]臺東縣綠島鄉公館村98號,2020-05-23,74DA38F20AC0,,2.42,,,02:16:42,,BRR/14/36.28,綠島公館國小,taitung
,9,AirBox,2,18,,26,30,100,高雄市市立大汕國小,1,,22.587,26.25,2020-05-23T02:12:34Z,,120.287,高雄市大汕國小 高雄市旗津區中洲二路203號,2020-05-23,74DA38F20BB0,,13.61,,,02:12:34,,LR/30/5.07,高雄市旗津區大汕國小,kaohsiung
,9,AirBox,2,0,,1,1,100,基隆市立碇內國小,1,,25.097,24,2020-05-23T02:12:24Z,,121.754,[205]基隆市暖暖區源遠路258號,2020-05-23,74DA38F20AC2,,N/A,,,02:12:24,,N/A,基隆市暖暖區碇內國小,keelung
0,9,AirBox,2,13,acelink.edimax,23,26,98,嘉義縣縣立大同國小,1,0,23.461271,28.5,2020-05-23T02:15:17Z,0,120.240491,嘉義縣朴子市大同路239號,2020-05-23,08BEAC0A063A,0,13.62,v1.04,0,02:15:17,AI-1003WN,LR/14/0.99,,
,9,AirBox,2,1,,2,1,61,74DA38ED051A,1,,25.06,24.25,2020-05-23T02:12:49Z,,121.53,N/A,2020-05-23,74DA38ED051A,,13.17,,,02:12:49,,BRR/14/2.68,台大醫院秘3,taipei
0,9,AirBox,2,6,acelink.edimax,9,10,100,桃園市市立水美國小,1,0,24.9191608429,25.1,2020-05-23T02:19:00Z,0,121.137031555,桃園市楊梅區水美里楊新路一段410號,2020-05-23,08BEAC0A063C,0,N/A,v1.06,0,02:19:00,AI-1003WN,N/A,,
0,9,AirBox,2,8,acelink.edimax,12,12,100,嘉義縣縣立竹村國小,1,0,23.43553724,27.8,2020-05-23T02:15:00Z,0,120.2417302,嘉義縣朴子市竹村里36號,2020-05-23,08BEAC0A063E,0,7.76,v1.06,0,02:15:00,AI-1003WN,LR/14/3.57,,
,9,AirBox,2,0,,1,1,100,基隆市立建德國小,1,,25.124,23.25,2020-05-23T02:14:20Z,,121.722,[204]基隆市安樂區安和一街392號,2020-05-23,74DA38F20AC8,,N/A,,,02:14:20,,N/A,基隆市建德國小,keelung
,9,AirBox,2,15,,25,27,100,屏東縣縣立長興國小,1,,22.677,25.62,2020-05-23T02:14:18Z,,120.526,[908]屏東縣長治鄉新潭村潭頭路50號,2020-05-23,74DA38F209C8,,12.85,,,02:14:18,,Theil-Sen/30/3.92,屏東縣長興國小,pingtung
,9,AirBox,2,5,,6,6,87,基隆市立建德幼兒園,1,,25.121,24.87,2020-05-23T02:15:18Z,,121.723,基隆市,2020-05-23,74DA38F20ACE,,N/A,,,02:15:18,,N/A,基隆市立建德幼兒園,keelung
0,9,AirBox,2,26,acelink.edimax,39,46,96,臺南市市立仁愛國小,1,0,23.1532594,28.1,2020-05-23T02:17:58Z,0,120.1788639,臺南市佳里區仁愛路307號,2020-05-23,08BEAC0A0638,0,19.56,v1.06,0,02:17:58,AI-1003WN,BRR/14/18.91,,
0,9,AirBox,2,19,acelink.edimax,28,30,92,臺中市立立新國中,1,0,24.11134716,27.5,2020-05-23T02:16:09Z,0,120.6772764,臺中市大里區立仁里甲堤路236號,2020-05-23,08BEAC0A045C,0,12.95,v1.06,0,02:16:09,AI-1003WN,BRR/30/5.82,,
0,9,AirBox,2,12,acelink.edimax,24,26,100,臺南市市立竹埔國小,1,0,23.26686007,28.3,2020-05-23T02:15:48Z,0,120.2457468,臺南市鹽水區竹林里92-1號,2020-05-23,08BEAC0A045E,0,N/A,v1.06,0,02:15:48,AI-1003WN,N/A,,
0,9,AirBox,2,3,acelink.edimax,4,4,93,臺中市立中山國小,1,0,24.25769279,25.5,2020-05-23T02:14:56Z,0,120.8262096,臺中市東勢區泰昌里中泰街88號,2020-05-23,08BEAC0A02D8,0,4.58,v1.06,0,02:14:56,AI-1003WN,Theil-Sen/14/8.57,,
,9,AirBox,2,3,,4,5,79,74DA38E2B722,1,,24.083,26.12,2020-05-23T02:12:40Z,,120.547,N/A,2020-05-23,74DA38E2B722,,4.91,,,02:12:40,,LR/30/1.97,Changhua36群欣牙醫診所,changhua
,9,AirBox,2,15,,18,19,89,74DA38B0517E,1,,24.141,27.37,2020-05-23T02:14:16Z,,120.648,N/A,2020-05-23,74DA38B0517E,,8.64,,,02:14:16,,BRR/30/1.41,大英西一街旁 室內,taichuang
0,9,AirBox,2,7,acelink.edimax,14,15,100,雲林縣縣立臺興國小,1,0,23.56244444,27.5,2020-05-23T02:15:58Z,0,120.1420962,雲林縣口湖鄉台子村台興路一二五號,2020-05-23,08BEAC0A0632,0,8.82,v1.06,0,02:15:58,AI-1003WN,LR/14/15.12,,
0,9,AirBox,2,5,acelink.edimax,7,8,94,桃園市市立龍興國中,1,0,24.93862833,24.2,2020-05-23T02:19:00Z,0,121.235525,桃園市中壢區龍勇路100號,2020-05-23,08BEAC0A0634,0,N/A,v1.06,0,02:19:00,AI-1003WN,N/A,,
0,9,AirBox,2,9,acelink.edimax,13,13,99,桃園市市立龍岡國中,1,0,24.92954666,24.6,2020-05-23T02:17:13Z,0,121.252165,桃園市中壢區龍東路147號,2020-05-23,08BEAC0A0636,0,N/A,v1.06,0,02:17:13,AI-1003WN,N/A,,
,9,AirBox,2,11,,17,18,100,高雄市市立楠梓國小,1,,22.733,25.5,2020-05-23T02:15:30Z,,120.327,高雄市楠梓國小 高雄市楠梓區楠梓路262號,2020-05-23,74DA38F20DEC,,9.1,,,02:15:30,,LR/30/11.86,KH-ntps-2,kaohsiung
,9,AirBox,2,19,,31,36,100,嘉義縣立民雄國小,1,,23.555,26.5,2020-05-23T02:17:21Z,,120.429,[621]嘉義縣民雄鄉中樂村民族路43號,2020-05-23,74DA38E2B548,,21.98,,,02:17:21,,BRR/30/10.33,嘉義縣民雄國小,chiayi_county
,9,AirBox,2,13,,18,19,89,74DA38E2B5C4,1,,22.557,26.5,2020-05-23T02:13:30Z,,120.543,N/A,2020-05-23,74DA38E2B5C4,,11.63,,,02:13:30,,Theil-Sen/30/14.09,境界,pingtung
0,9,AirBox,2,4,acelink.edimax,6,6,100,桃園市市立大坑國小,1,0,25.0446929,25.6,2020-05-23T02:18:08Z,0,121.3148917,桃園市龜山區大坑路一段850號,2020-05-23,08BEAC0A058C,0,3.1,v1.06,0,02:18:08,AI-1003WN,BRR/30/5.59,,
0,9,AirBox,2,20,acelink.edimax,35,42,100,嘉義縣縣立大崎國小,1,0,23.51209571,28,2020-05-23T02:16:17Z,0,120.4717395,嘉義縣民雄鄉秀林村林仔尾66號,2020-05-23,08BEAC0A058A,0,24.37,v1.06,0,02:16:17,AI-1003WN,BRR/30/6.33,,
0,9,AirBox,2,9,acelink.edimax,16,17,100,嘉義縣縣立竹崎國小,1,0,23.52014806,27.2,2020-05-23T01:09:08Z,0,120.5529964,嘉義縣竹崎鄉竹崎村文化路28號,2020-05-23,08BEAC0A076E,0,11.58,v1.06,0,01:09:08,AI-1003WN,BRR/30/13.1,,
0,9,AirBox,2,11,acelink.edimax,16,17,94,桃園市市立廣興國小,1,0,24.94532333,25.2,2020-05-23T02:19:32Z,0,121.28277,桃園市八德區廣興路601巷25號,2020-05-23,08BEAC0A058E,0,9.33,v1.06,0,02:19:32,AI-1003WN,BRR/30/5.98,,
,9,AirBox,2,4,,9,9,100,屏東縣縣立復興國小,1,,22.659,25.87,2020-05-23T02:17:23Z,,120.486,[900]屏東縣屏東市永安里復興南路376號,2020-05-23,74DA38F20A54,,5.19,,,02:17:23,,Theil-Sen/30/1.58,屏東市復興國小Fsps_AirBox2019,pingtung
,9,AirBox,2,33,,41,49,100,74DA38AF493C,1,,25.043,24.12,2020-05-23T02:12:27Z,,121.455,N/A,2020-05-23,74DA38AF493C,,21.93,,,02:12:27,,LR/14/3.36,神奇寶貝＿WuJessi,new_taipei
0,9,AirBox,2,10,acelink.edimax,15,20,100,臺中市立梧南國小,1,0,24.2526944537,28.3,2020-05-23T02:18:09Z,0,120.530718863,臺中市梧棲區文化路一段6號,2020-05-23,08BEAC0A005E,0,5.24,v1.06,0,02:18:09,AI-1003WN,BRR/30/15.84,,
0,9,AirBox,2,7,acelink.edimax,13,15,100,臺南市市立南化國小,1,0,23.04414428,26.7,2020-05-23T02:15:09Z,0,120.4703868,臺南市南化區南化里17號,2020-05-23,08BEAC0A06FA,0,11.2,v1.06,0,02:15:09,AI-1003WN,BRR/30/18.89,,
0,9,AirBox,2,6,acelink.edimax,9,10,89,臺中市立新社高中,1,0,24.1780836,25.8,2020-05-23T02:16:23Z,0,120.8208018,臺中市新社區復盛里中和街三段國中巷10號,2020-05-23,08BEAC0A005A,0,7.73,v1.06,0,02:16:23,AI-1003WN,Theil-Sen/14/11.85,,
0,9,AirBox,2,0,acelink.edimax,0,0,87,臺中市立白冷國小,1,0,24.1834371,26.2,2020-05-23T02:16:16Z,0,120.930137,臺中市和平區天輪里東關路二段天輪巷42號,2020-05-23,08BEAC0A005C,0,1.87,v1.06,0,02:16:16,AI-1003WN,Theil-Sen/14/20.77,,
0,9,AirBox,2,1,acelink.edimax,1,1,100,桃園市南崁高中,1,0,25.0526567986,25.2,2020-05-23T02:15:12Z,0,121.297135279,桃園市蘆竹區仁愛路二段1號,2020-05-23,08BEAC0A06FE,0,0.29,v1.06,0,02:15:12,AI-1003WN,BRR/30/6.41,,
,9,AirBox,2,0,,0,0,100,新北市平溪國小,1,,25.027,23.37,2020-05-23T02:13:56Z,,121.737,N/A,2020-05-23,74DA38F7C5DA,,3.43,,,02:13:56,,LR/14/10.53,新北市平溪國小,new_taipei
,9,AirBox,2,8,,17,19,100,高雄市市立民族大愛國小,1,,22.964,26,2020-05-23T02:15:08Z,,120.539,高雄市民族大愛國小 高雄市杉林區月眉里和氣街15號,2020-05-23,74DA38F20AF2,,13.57,,,02:15:08,,BRR/30/8.98,Mzu-office,kaohsiung
,9,AirBox,2,5,,7,7,85,74DA38EBF5C8,1,,24.98,24.87,2020-05-23T02:13:13Z,,121.247,N/A,2020-05-23,74DA38EBF5C8,,N/A,,,02:13:13,,N/A,A045,miaoli
,9,AirBox,2,11,,16,16,100,74DA38ED0424,1,,24.435,22.75,2020-05-23T02:17:15Z,,118.314,N/A,2020-05-23,74DA38ED0424,,10.4,,,02:17:15,,BRR/30/0.36,金門高中教務處,NA
0,9,AirBox,2,25,acelink.edimax,48,62,100,雲林縣縣立保長國小,1,0,23.7054975,27,2020-05-23T02:17:57Z,0,120.5172688,雲林縣斗六市保庄里保長路一五五號,2020-05-23,08BEAC0A0124,0,82.05,v1.06,0,02:17:57,AI-1003WN,Theil-Sen/21/2.91,,
,9,AirBox,2,0,,0,1,95,74DA38F7C146,1,,24.944,24.75,2020-05-23T02:14:33Z,,121.5,N/A,2020-05-23,74DA38F7C146,,1.58,,,02:14:33,,LR/14/8.73,僑愛七路,new_taipei
0,9,AirBox,2,3,acelink.edimax,6,7,87,臺中市立桐林國小,1,0,24.065881,27.3,2020-05-23T02:18:04Z,0,120.735768,臺中市霧峰區桐林里民生路675號,2020-05-23,08BEAC0A0126,0,3.19,v1.06,0,02:18:04,AI-1003WN,BRR/30/13.56,,
,9,AirBox,2,10,,11,12,86,74DA38AF4758,1,,24.103,26.5,2020-05-23T02:18:02Z,,120.621,N/A,2020-05-23,74DA38AF4758,,5.78,,,02:18:02,,BRR/30/5.81,HomeWuri,taichuang
,9,AirBox,2,0,,0,0,100,台東縣縣立朗島國小,1,,22.079,27.37,2020-05-23T02:15:28Z,,121.528,[952]臺東縣蘭嶼鄉朗島村17號,2020-05-23,74DA38F2085C,,2.86,,,02:15:28,,LR/14/77.36,臺東縣蘭嶼鄉朗島國民小學,taitung
0,9,AirBox,2,13,acelink.edimax,22,24,100,臺中市立崑山國小,1,0,24.241159,24.8,2020-05-23T02:17:05Z,0,120.7872285,臺中市新社區崑山里崑南街崑崙巷5-2號,2020-05-23,08BEAC0A0122,0,16.36,v1.06,0,02:17:05,AI-1003WN,Theil-Sen/14/4.92,,
,9,AirBox,2,17,,30,31,95,台南-1,1,,22.984,28.11,2020-05-23T02:12:36Z,,120.202,Tainan,2020-05-23,08BEAC0286B8,,15.23,,,02:12:36,,BRR/14/0.09,手動站：臺南站-1（6B8),tainan
,9,AirBox,2,0,,1,2,100,74DA38F6FF24,1,,24.037,17.37,2020-05-23T02:18:12Z,,121.158,N/A,2020-05-23,74DA38F6FF24,,0,,,02:18:12,,BRR/14/45.46,Kevin,taoyuan
0,9,AirBox,2,8,acelink.edimax,12,13,86,臺中市立車籠埔國小,1,0,24.10949086,28.1,2020-05-23T02:16:28Z,0,120.7318033,臺中市太平區光明路10-2號,2020-05-23,08BEAC0A0128,0,6.28,v1.06,0,02:16:28,AI-1003WN,BRR/30/10.35,,
,9,AirBox,2,9,,11,12,72,74DA38AF4752,1,,22.652,31.11,2020-05-23T02:15:49Z,,120.324,N/A,2020-05-23,74DA38AF4752,,12.61,,,02:15:49,,LR/30/4.27,立志街airbox,kaohsiung
0,9,AirBox,2,22,acelink.edimax,41,51,100,臺南市市立六甲國小,1,0,23.2258581,28,2020-05-23T02:14:52Z,0,120.3502928,臺南市六甲區中正路319號,2020-05-23,08BEAC0A00D2,0,N/A,v1.04,0,02:14:52,AI-1003WN,N/A,,
,9,AirBox,2,2,,3,3,100,新北市新北高工,1,,24.982,24.75,2020-05-23T02:15:47Z,,121.451,N/A,2020-05-23,74DA38F7C49C,,3.08,,,02:15:47,,LR/14/3.53,74DA38F7C49C,NA
0,9,AirBox,2,4,acelink.edimax,6,7,100,桃園市市立楊梅國小,1,0,24.9058683,24.7,2020-05-23T02:15:04Z,0,121.1446092,桃園市楊梅區校前路1號,2020-05-23,08BEAC0A00D0,0,N/A,v1.06,0,02:15:04,AI-1003WN,N/A,,
0,9,AirBox,2,11,acelink.edimax,18,19,100,雲林縣縣立建華國小,1,0,23.6399402,27.7,2020-05-23T02:17:33Z,0,120.2005182,雲林縣四湖鄉羊稠村建華路卅五號,2020-05-23,08BEAC0A00D6,0,10.95,v1.06,0,02:17:33,AI-1003WN,LR/14/19.81,,
,9,AirBox,2,3,,5,6,100,74DA38EBF788,1,,25.067,21.5,2020-05-23T02:16:22Z,,121.359,N/A,2020-05-23,74DA38EBF788,,2.29,,,02:16:22,,BRR/30/9.68,A050,miaoli
0,9,AirBox,2,15,acelink.edimax,27,29,100,臺南市市立聖賢國小,1,0,23.3060984347,27.2,2020-05-23T02:16:04Z,0,120.362503119,臺南市東山區聖賢里田尾29號,2020-05-23,08BEAC0A00D4,0,N/A,v1.06,0,02:16:04,AI-1003WN,N/A,,
,9,AirBox,2,2,,2,2,97,新北市中正國中,1,,24.983,23.75,2020-05-23T02:17:30Z,,121.456,N/A,2020-05-23,74DA38F7C49E,,2.35,,,02:17:30,,LR/14/3.34,新北市立中正國中,new_taipei
,9,AirBox,2,5,,8,9,76,74DA38E69BCE,1,,23.552,26.75,2020-05-23T02:16:05Z,,120.427,N/A,2020-05-23,74DA38E69BCE,,9.33,,,02:16:05,,BRR/30/10.02,Tim,chiayi_county
0,9,AirBox,2,17,acelink.edimax,35,43,96,臺南市市立東原國小,1,0,23.2663897,27.6,2020-05-23T02:17:14Z,0,120.446666,臺南市東山區東原里23鄰8號,2020-05-23,08BEAC0A00D8,0,N/A,v1.06,0,02:17:14,AI-1003WN,N/A,,
,9,AirBox,2,4,,6,6,100,新北市溪崑國中,1,,24.997,24.37,2020-05-23T02:12:33Z,,121.431,N/A,2020-05-23,74DA38F7C4A8,,4.49,,,02:12:33,,LR/14/3.31,新北市立溪崑國民中學2018,new_taipei
,9,AirBox,2,0,,0,0,100,74DA38B0513A,1,,24.225,25,2020-05-23T02:11:58Z,,120.656,N/A,2020-05-23,74DA38B0513A,,0,,,02:11:58,,BRR/30/8.26,黃骨科外科診所,taichuang
,9,AirBox,2,7,,11,12,72,74DA38EBF6CA,1,,22.649,28.11,2020-05-23T02:14:00Z,,120.318,N/A,2020-05-23,74DA38EBF6CA,,12.61,,,02:14:00,,LR/30/3.57,Peter_Home,kaohsiung
,9,AirBox,2,7,,11,11,86,08BEAC02899E,1,,22.907,25.75,2020-05-23T02:14:05Z,,120.681,N/A,2020-05-23,08BEAC02899E,,10.02,,,02:14:05,,BRR/30/15.63,iTribe萬山部落,kaohsiung
0,9,AirBox,2,4,acelink.edimax,8,8,100,嘉義縣縣立景山國小,1,0,23.38272987,27.5,2020-05-23T02:14:48Z,0,120.193133,嘉義縣布袋鎮東港里136號,2020-05-23,08BEAC0A0250,0,5.62,v1.06,0,02:14:48,AI-1003WN,LR/14/10.92,,
,9,AirBox,2,14,,28,32,100,高雄市市立鳳雄國小,1,,22.753,25.25,2020-05-23T02:13:54Z,,120.358,高雄市鳳雄國小 高雄市燕巢區鳳加路52號,2020-05-23,74DA38F20FFC,,14.61,,,02:13:54,,LR/30/15.19,高雄市燕巢區鳳雄國小,kaohsiung
0,9,AirBox,2,23,acelink.edimax,47,52,87,臺南市市立東山國小,1,0,23.3232545761,28.3,2020-05-23T02:18:07Z,0,120.404803567,臺南市東山區東中里青葉路二段49號,2020-05-23,08BEAC0A00DC,0,N/A,v1.06,0,02:18:07,AI-1003WN,N/A,,
,9,AirBox,2,14,,20,21,88,08BEAC028B38,1,,25.05951215,25.37,2020-05-23T02:15:04Z,,121.446114,N/A,2020-05-23,08BEAC028B38,,11.72,,,02:15:04,,LR/14/5.33,A04站PAO,new_taipei
0,9,AirBox,2,14,acelink.edimax,30,33,100,臺南市市立安佃國小,1,0,23.0638325,28.6,2020-05-23T02:15:03Z,0,120.1732611,臺南市安南區海佃路四段493號,2020-05-23,08BEAC0A00DA,0,14.17,v1.06,0,02:15:03,AI-1003WN,BRR/14/9.31,,
,9,AirBox,2,2,,3,4,100,08BEAC028A40,1,,24.33,27.12,2020-05-23T02:12:15Z,,121.74,N/A,2020-05-23,08BEAC028A40,,0,,,02:12:15,,BRR/14/42.35,iTribe德卡倫部落,yilan
,9,AirBox,2,2,,3,4,100,新北市永和國小,1,,25.002,24,2020-05-23T02:16:55Z,,121.516,N/A,2020-05-23,74DA38F7C366,,3.32,,,02:16:55,,BRR/14/5.01,新北市永和區永和國民小學,new_taipei
,9,AirBox,2,1,,2,2,81,74DA38EBF78E,1,,24.765,27,2020-05-23T02:18:14Z,,120.969,N/A,2020-05-23,74DA38EBF78E,,7.67,,,02:18:14,,BRR/14/4.53,shaw,hsinchu_city
,9,AirBox,2,11,,14,14,85,08BEAC028B30,1,,25.059,25.87,2020-05-23T02:12:33Z,,121.446,N/A,2020-05-23,08BEAC028B30,,8.83,,,02:12:33,,LR/14/5.27,A04站1月台,new_taipei
,9,AirBox,2,5,,6,7,74,74DA38E69BC0,1,,22.674,27.25,2020-05-23T02:16:21Z,,120.308,N/A,2020-05-23,74DA38E69BC0,,9.64,,,02:16:21,,LR/30/5.04,DT 室內,kaohsiung
,9,AirBox,2,5,,4,7,78,74DA38ED05F0,1,,25.046,28.11,2020-05-23T02:17:08Z,,121.451,N/A,2020-05-23,74DA38ED05F0,,4.35,,,02:17:08,,LR/14/3.75,新莊~諺諺,new_taipei
,9,AirBox,2,0,,1,1,78,08BEAC028B34,1,,25.06547439,24.75,2020-05-23T02:14:40Z,,121.361771,N/A,2020-05-23,08BEAC028B34,,2.85,,,02:14:40,,BRR/30/9.71,A09站PAO,new_taipei
0,9,AirBox,2,11,acelink.edimax,16,17,100,臺中市立大雅國小,1,0,24.22228545,27.2,2020-05-23T02:15:04Z,0,120.6513022,臺中市大雅區二和里學府路230號,2020-05-23,08BEAC0A012E,0,5.72,v1.06,0,02:15:04,AI-1003WN,BRR/30/7.89,,
0,9,AirBox,2,21,acelink.edimax,42,54,100,雲林縣縣立石榴國小,1,0,23.7216874,27.1,2020-05-23T02:15:10Z,0,120.5852425,雲林縣斗六市榴南里南仁路五一號,2020-05-23,08BEAC0A0312,0,72.3,v1.06,0,02:15:10,AI-1003WN,Theil-Sen/21/4.24,,
,9,AirBox,2,2,,2,3,70,74DA38EBF6FE,1,,24.986,27.37,2020-05-23T02:13:39Z,,121.541,N/A,2020-05-23,74DA38EBF6FE,,9.77,,,02:13:39,,BRR/14/7.51,順安街,new_taipei
0,9,AirBox,2,7,acelink.edimax,9,10,90,臺中市立大德國小,1,0,24.24307506,27.7,2020-05-23T02:16:40Z,0,120.5425892,臺中市梧棲區大村里文昌路343號,2020-05-23,08BEAC0A012A,0,4.11,v1.06,0,02:16:40,AI-1003WN,BRR/30/14.23,,
,9,AirBox,2,0,,1,1,100,台東縣縣立加拿國小,1,,23.001,25.75,2020-05-23T02:18:02Z,,121.13,[957]臺東縣海端鄉加拿村加南5號,2020-05-23,74DA38F20850,,1.44,,,02:18:02,,BRR/14/27.39,臺東縣加拿國小,taitung
,9,AirBox,2,14,,18,19,100,taichung18,1,,24.113,27.5,2020-05-23T02:12:57Z,,120.622,N/A,2020-05-23,74DA3895E070,,6.69,,,02:12:57,,BRR/30/4.75,taichung18,taichuang
,9,AirBox,2,3,,4,4,100,花蓮縣立國福國小,1,,24.009,25.12,2020-05-23T02:13:46Z,,121.58,[970]花蓮縣花蓮市福光街277巷1號,2020-05-23,74DA38ED0614,,0,,,02:13:46,,BRR/14/4.65,花蓮縣國福國小,hualien
,9,AirBox,2,12,,14,15,100,taichung107,1,,24.018,26.87,2020-05-23T02:16:02Z,,120.695,N/A,2020-05-23,74DA3895E076,,8.9,,,02:16:02,,BRR/30/11.72,Taichung41361,taichuang
,9,AirBox,2,0,,1,1,100,新北市瑞亭國小,1,,25.102,23.37,2020-05-23T02:16:01Z,,121.777,N/A,2020-05-23,74DA38F7C5D0,,N/A,,,02:16:01,,N/A,新北市瑞亭國小2,new_taipei
,9,AirBox,2,7,,11,12,78,74DA38EBF678,1,,22.728,28.86,2020-05-23T02:18:16Z,,120.283,N/A,2020-05-23,74DA38EBF678,,11.22,,,02:18:16,,LR/30/10.62,蛋仔,kaohsiung
,9,AirBox,2,1,,2,2,77,74DA38EBF5CA,1,,25.028,26.62,2020-05-23T02:15:25Z,,121.522,N/A,2020-05-23,74DA38EBF5CA,,8.14,,,02:15:25,,BRR/14/2.5,Yuki,taipei
0,9,AirBox,2,2,acelink.edimax,4,5,89,桃園市市立大竹國小,1,0,25.02456875,26.1,2020-05-23T02:15:25Z,0,121.2583857,桃園市蘆竹區大竹路556號,2020-05-23,08BEAC0A07A0,0,3.31,v1.06,0,02:15:25,AI-1003WN,BRR/30/5.66,,
,9,AirBox,2,28,,39,45,100,74DA38EBF5CE,1,,22.61,26,2020-05-23T02:14:43Z,,120.344,N/A,2020-05-23,74DA38EBF5CE,,20.12,,,02:14:43,,LR/30/6.26,高雄市鳳山區新康街（陽台）高21公尺,kaohsiung
,9,AirBox,2,1,,2,2,100,74DA38EBF922,1,,25.025,24,2020-05-23T02:17:00Z,,121.562,N/A,2020-05-23,74DA38EBF922,,2.81,,,02:17:00,,BRR/14/5.95,臺北醫學大學,taipei
